,Unnamed: 0,.header.seq,.header.stamp.secs,.header.stamp.nsecs,.header.frame_id,.endpoint_state.header.seq,.endpoint_state.header.stamp.secs,.endpoint_state.header.stamp.nsecs,.endpoint_state.header.frame_id,.endpoint_state.pose.position.x,.endpoint_state.pose.position.y,.endpoint_state.pose.position.z,.endpoint_state.pose.orientation.x,.endpoint_state.pose.orientation.y,.endpoint_state.pose.orientation.z,.endpoint_state.pose.orientation.w,.endpoint_state.twist.linear.x,.endpoint_state.twist.linear.y,.endpoint_state.twist.linear.z,.endpoint_state.twist.angular.x,.endpoint_state.twist.angular.y,.endpoint_state.twist.angular.z,.endpoint_state.wrench.force.x,.endpoint_state.wrench.force.y,.endpoint_state.wrench.force.z,.endpoint_state.wrench.torque.x,.endpoint_state.wrench.torque.y,.endpoint_state.wrench.torque.z,.joint_state.header.seq,.joint_state.header.stamp.secs,.joint_state.header.stamp.nsecs,.joint_state.header.frame_id,.joint_state.name,.joint_state.position,.joint_state.velocity,.joint_state.effort,.wrench_stamped.header.seq,.wrench_stamped.header.stamp.secs,.wrench_stamped.header.stamp.nsecs,.wrench_stamped.header.frame_id,.wrench_stamped.wrench.force.x,.wrench_stamped.wrench.force.y,.wrench_stamped.wrench.force.z,.wrench_stamped.wrench.torque.x,.wrench_stamped.wrench.torque.y,.wrench_stamped.wrench.torque.z,.tactile_values.tactile_values_0,.tactile_values.tactile_values_1,.tactile_values.tactile_values_2,.tactile_values.tactile_values_3,.tactile_values.tactile_values_4,.tactile_values.tactile_values_5,.tactile_values.tactile_values_6,.tactile_values.tactile_values_7,.tactile_values.tactile_values_8,.tactile_values.tactile_values_9,.tag,.delta_wrench.force.x,.delta_wrench.force.y,.delta_wrench.force.z,.delta_wrench.torque.x,.delta_wrench.torque.y,.delta_wrench.torque.z
0,55.922746,5593.5,1521545049.0,42450070.0,,2959358.5,1521545048.0,131961803.0,,0.7023658350399999,-0.1297682838975,0.00192717733121,-0.2424453028855,0.9694228685455001,0.005063947387165,0.0376013954942,0.0038948215268150006,-0.009739825437035,0.0017928329670799997,0.0005280670089500023,-0.008616330308199999,-0.006189800651505001,-0.47088560462,2.370185136795,10.183385849,0.29825341701499997,0.259756460786,0.3989989310505,2959711.5,1521545048.0,130038656.0,,,,,,2463455.5,1521545049.0,36866960.0,,0.8570000529275,-0.56400000751,1.3260013580299999,0.26099999249,-0.120999999344,-0.07099999859930001,336.0,353.5,361.5,373.0,832.5,515.0,555.0,558.0,713.5,752.0,5.0,0.0,0.0,0.0,0.0,0.0,0.0
1,56.0253101026,5602.5,1521545049.0,132205485.5,,2959367.5,1521545048.0,221972424.5,,0.7029990441105001,-0.13023044711200002,0.0024461991470049998,-0.242159611559,0.969474054921,0.00481420416622,0.03814962511635,-0.00575369641833,0.010460575990350001,0.0005991541232200004,0.008339908960585,0.005700774435104999,-0.0013825850397099994,-0.8491972088815001,1.84969645739,10.55413246155,0.6317794919015001,0.2100825458765,0.4829278588295,2959720.5,1521545048.0,220054152.5,,,,,,2463464.5,1521545049.0,126411991.5,,0.5419999957085,-0.253999975324,1.23100013733,0.2639999985695,-0.110999997705,-0.07349999994039999,343.5,349.5,361.5,387.0,827.0,520.0,562.5,571.0,692.0,756.0,5.0,-0.31500005721900004,0.31000003218600003,-0.09500122069999994,0.003000006079500017,0.010000001639,-0.0025000013410999833
2,56.1278742051,5609.5,1521545049.0,202299952.0,,2959374.5,1521545048.0,291962800.5,,0.702628746919,-0.1302075016705,0.00208431019581,-0.24262150171900002,0.9693701356925001,0.004715999346505,0.037868005166449996,0.006844614387140001,0.005124887470309999,0.005663050389715,0.0020786265990825003,-0.01475171932417,-0.0016297642303500018,-0.81898316741,1.9064899683,10.44109153745,0.5428823530675,0.17047806084199998,0.44649463892,2959727.0,1521545048.0,285023553.0,,,,,,2463471.5,1521545049.0,196354949.5,,-0.567999958992,-0.518999990821,0.3809997558595,0.28149999678149995,-0.131999999285,-0.08850000053645,333.0,343.5,361.0,400.0,816.0,522.0,556.0,562.5,718.0,753.5,5.0,-1.1099999547005,-0.26500001549700003,-0.8500003814704999,0.017499998211999934,-0.021000001579999997,-0.015000000596050014
3,56.230438307700005,5623.5,1521545049.0,343196510.5,,2959386.5,1521545048.0,411963997.5,,0.702796554631,-0.1296643973695,0.002552744022225,-0.24269946587549998,0.9693403801865,0.004874177257705,0.038109867681,0.00790420167141,0.006398974070790001,0.00219525427869,0.0007247231773949997,-0.013705560108645,0.016578561952,-0.7761216163635001,1.8669685125350002,10.55458450315,0.6044061779975001,0.2237520962955,0.4723514318465,2065160.0,1521545048.0,411018973.0,,,,,,2463485.5,1521545049.0,336070392.5,,-0.5480000376705001,-0.9890000194325,1.286000442505,0.26800000667549995,-0.1164999976755,-0.06950000301005001,340.0,350.0,366.0,373.0,831.5,520.5,544.5,567.5,692.0,779.5,5.0,0.01999992132149986,-0.47000002861150003,0.9050006866455,-0.013499990106000004,0.015500001609500005,0.018999997526399998
4,56.3330024103,5631.5,1521545049.0,421880960.0,,2959394.0,1521545048.0,486962896.0,,0.703215889391,-0.13004772690400002,0.0029317469880300005,-0.242440808405,0.969395671372,0.00457456383804,0.0383869784064,0.00384026026372,3.2272517500999996e-07,0.0013349845295400002,-0.0166188756554,0.0010425664965800002,0.0117308658765,-0.726363062859,1.78827476501,10.5438518524,0.638573944569,0.214466556907,0.470528304577,2065165.0,1521545048.0,490527903.5,,,,,,2463493.5,1521545049.0,416429952.5,,0.05700004100800001,-0.5840000182389999,1.39099998474,0.243999995291,-0.104500003159,-0.06799999810755,338.0,341.0,346.0,403.5,825.0,520.5,551.0,566.0,701.0,768.0,5.0,0.6050000786785001,0.4050000011935001,0.10499954223500008,-0.024000011384499947,0.011999994516499995,0.0015000049025000045
5,56.435566512799994,5644.5,1521545049.0,551792978.5,,2959408.0,1521545048.0,626969432.5,,0.7027377402789999,-0.1301442652765,0.0021691473269099997,-0.242372953201,0.9694320058235,0.00489525143664,0.037849789454099995,0.00107464218278,0.0012750661470000001,0.0063249082704,0.0090423602555,-0.005434282522735001,-0.003918030306799998,-0.9465352296845,1.594583272935,10.516090393099999,0.9948468804359999,0.2506051808595,0.5985870659354999,2959760.0,1521545048.0,615034492.0,,,,,,2463506.5,1521545049.0,545714969.5,,0.09699994325660002,-0.219000008702,1.6960002899150002,0.239499993622,-0.0905000008643,-0.08749999850989999,338.0,343.5,368.5,423.0,820.0,515.0,567.5,574.0,715.5,771.5,5.0,0.03999990224860001,0.36500000953699996,0.3050003051750001,-0.004500001668999998,0.014000002294699998,-0.01950000040234999
6,56.5381306154,5651.5,1521545049.0,621841549.0,,2959414.5,1521545048.0,691969876.0,,0.7027674938824999,-0.130321092797,0.00308567225788,-0.24313679579599998,0.9691960823064999,0.0050727338532250005,0.0389553245804,-0.008170330744424999,0.00015559829154499998,0.01715665742302,0.032162366294149994,-0.035008418800055,0.01658216067275,-1.891400933265,0.47128506004799997,13.810585022,1.452561736105,0.40137018263350005,0.7662401795384999,2065179.0,1521545048.0,692010122.5,,,,,,2463513.5,1521545049.0,615648462.5,,-0.8229999542235,-0.08399998843689999,5.22599906921,0.1385000050065,-0.2294999957085,-0.10399999842049999,346.0,347.5,382.5,431.0,803.0,528.0,571.0,596.0,696.5,765.0,5.0,-0.9199998974801,0.13500002026510002,3.529998779295,-0.1009999886155,-0.1389999948442,-0.0164999999106
7,56.6406947179,5664.5,1521545049.0,754132032.0,,2959427.5,1521545048.0,821967062.5,,0.694215809126,-0.1310525610545,0.005602496550259999,-0.2402057693635,0.970007148917,0.009847590286475002,0.0359127423008,-0.121055253257,-0.0004576091700549999,0.03859249826295,0.06614157059930001,0.1523088180405,0.010906309955999996,0.2087473869325,-0.222017660737,16.6276187897,1.5647144913650002,1.52339452505,0.975388050079,1170597.0,1521545048.0,823000064.0,,,,,,2463527.0,1521545049.0,751518221.0,,-0.93800002336265,0.2760000202805,8.405999374384999,-0.054000001400699986,-0.3610000014305,-0.0859999991953,324.5,330.0,353.0,456.5,801.5,588.5,662.0,678.5,703.5,836.0,5.0,-0.11500006913914995,0.3600000087174,3.1800003051749988,-0.1925000064072,-0.131500005722,0.017999999225199986
8,56.7432588205,5675.5,1521545049.0,861806511.5,,2959440.5,1521545048.0,951959375.0,,0.6791011552015,-0.132625362014,0.013799885311799999,-0.2413850181365,0.9698992656555,0.01264179838675,0.029473889822999998,-0.10715585224749999,-0.0284800099757,0.07885352566765,-0.0117973896543,0.0631649094392,-0.005736652131274999,4.22828102112,-0.169210188091,14.7459697723,1.603333294395,2.0143474340450003,0.990290105343,2065197.5,1521545048.0,954025927.0,,,,,,2463537.5,1521545049.0,856649948.5,,1.3720000386250002,0.471000011265,7.286000442504999,-0.1189999990165,-0.07550000026819999,-0.07750000059605,315.0,322.5,372.0,497.0,586.0,558.5,649.0,699.0,857.5,898.0,5.0,2.31000006198765,0.1949999909845,-1.1199989318799997,-0.06499999761580003,0.2855000011623,0.008499998599250005
9,56.8458229231,5685.5,1521545049.0,961919903.0,,2959450.5,1521545049.0,51962639.0,,0.6695935027875001,-0.13665336782999998,0.02231668190475,-0.2460372481715,0.9688537172895,0.009288433107434999,0.026490117763400003,-0.09893764604145,-0.03162931333575,0.08849694811520001,-0.09664350853515,0.038492899045550005,0.1138552195915,3.5749125480700004,-0.38521215319650004,15.100458622,1.7275823950799998,1.6603512763949997,0.9835858047025,2959803.5,1521545049.0,50034420.5,,,,,,2463547.5,1521545049.0,956808169.0,,2.64199990034,2.051000002025,8.440999221805,-0.1215000003575,-0.0635000001639,-0.054000001400699986,263.0,373.5,375.5,378.5,545.5,560.0,592.0,748.0,840.0,905.5,5.0,1.269999861715,1.5799999907599998,1.1549987793000014,-0.002500001340999994,0.012000000104299982,0.023499999195350015
10,56.948387025600006,5692.5,1521545050.0,31827568.5,,2959457.5,1521545049.0,121973627.0,,0.663710406009,-0.1399419555345,0.02730501546305,-0.2506691269345,0.967740904536,0.005916947190545,0.02464192598015,-0.07765314900215001,-0.0685426271989,0.07111066165289999,-0.125071739633,0.019234093982575,0.07919509034689999,5.0981001853949985,-0.4317727535965,14.816366195699999,2.0858856439599998,2.125247120855,1.077374398705,1170608.5,1521545049.0,120000000.0,,,,,,2463554.5,1521545050.0,26079639.5,,3.3270000815400005,1.86100000441,11.73599739075,-0.10549999773499999,0.00150000001304,-0.029499999247450007,191.0,331.0,341.0,407.5,590.0,576.0,669.0,761.0,775.0,797.5,5.0,0.6850001812000004,-0.18999999761499997,3.294998168945,0.01600000262250001,0.06500000017694,0.02450000215324998
11,57.0509511282,5705.5,1521545050.0,161838412.0,,2959470.5,1521545049.0,251965141.5,,0.6596556747944999,-0.1445289234605,0.0358116800196,-0.247380178753,0.9686025033955,0.00435891012173,0.02435105794485,0.001114856003645,-0.01533239737207,0.06270500744634999,0.05812099576880001,-0.006890195966604999,-0.144014398776,9.562376022335,1.1176710128799998,9.106830120085,1.6333551406850002,3.29820036888,1.000362128019,2959823.5,1521545049.0,250055423.0,,,,,,2463567.5,1521545050.0,156590945.0,,3.3920001387600003,2.13099998534,10.52100105285,-0.07349999994039999,-0.06749999895690001,-0.06799999997020001,231.5,266.5,272.5,466.0,614.5,499.0,538.5,568.5,747.5,792.0,5.0,0.0650000572199998,0.26999998093,-1.2149963379000006,0.0319999977946,-0.06899999896994001,-0.038500000722750005
12,57.1535152308,5712.5,1521545050.0,231823920.5,,2959477.5,1521545049.0,321978396.0,,0.6628525971479999,-0.14451090659000002,0.039208437194350014,-0.244228116111,0.9692654821925,0.006273646076315,0.0289411943606,0.05646502964115,-0.01373270000302,0.044517421497,0.0730232139718,-0.1498901207385,-0.08115002227819999,-1.7718632221250001,-0.18872936069945,18.87506484985,1.2300611734350002,-0.2435612529515,0.731341570616,1170616.5,1521545049.0,322000000.0,,,,,,2463574.5,1521545050.0,226274316.5,,2.647000014785,1.356000001728,9.795998764039998,-0.13099999725849998,-0.051000000909,-0.0379999997094,211.5,266.0,286.5,472.0,610.0,484.0,507.0,550.0,755.0,810.0,5.0,-0.7450001239750002,-0.7749999836119998,-0.7250022888100016,-0.05749999731809999,0.016499998047900012,0.030000000260800012
13,57.2560793333,5725.5,1521545050.0,361873030.0,,2959488.0,1521545049.0,426960834.5,,0.666806793333,-0.146141231111,0.0425538607907,-0.2431571630475,0.9693574806775,0.00608138749695,0.0343940820816,0.017898350662099997,-0.030653891438950004,0.0215397558264,-0.036700584586650015,-0.06615656923075,0.0170549513785,2.6605579257,1.883621633055,14.2808036804,0.5438075065615,1.70155096054,0.8472498059269999,2959841.0,1521545049.0,425054645.0,,,,,,2463587.5,1521545050.0,358605847.0,,1.60700005293,1.0210000120084999,9.190999221805,-0.07000000029799999,-0.30449999868850003,-0.1085000000895,200.0,217.0,304.5,523.0,659.0,435.5,507.0,510.0,780.5,831.0,5.0,-1.0399999618550002,-0.3349999897195002,-0.6049995422349976,0.060999996960499986,-0.25349999777950005,-0.07050000038010001
14,57.3586434359,5733.5,1521545050.0,441812992.0,,2959496.0,1521545049.0,506966899.0,,0.6684442663719999,-0.147967228926,0.0453936846001,-0.244815854315,0.968859245084,0.00366905437681,0.036925583708900006,0.0327296191214,-0.0247942579903,0.0395769401301,-0.0756375897073,-0.105085652607,0.0893584665663,2.35501480103,0.6041212677960001,14.6341819763,1.2833935022399998,1.8013806343099998,1.03893887997,2065236.5,1521545049.0,512031794.5,,,,,,2463595.5,1521545050.0,437546560.0,,0.7169999480245001,0.9060000024715,9.14600105286,-0.05049999989569999,-0.3219999969005,-0.08850000053645,168.0,196.0,311.0,534.5,613.0,450.0,464.0,506.0,742.0,787.0,5.0,-0.8900001049054999,-0.11500000953699985,-0.04499816894499986,0.019500000402300002,-0.01749999821199999,0.01999999955305
15,57.461207538500005,5747.5,1521545050.0,582008480.5,,2959510.0,1521545049.0,646975170.0,,0.670969686929,-0.15088509546700002,0.050639473711199985,-0.24457844537,0.968796371066,0.00256594897951,0.040104755036,0.0120187392383,-0.0155944019277,0.037229937946,-0.00745236553442,-0.0276713579428,-0.0282776864803,1.58871483803,0.378503739834,13.5935497284,1.53439378738,1.36343765259,0.999355435371,2959863.0,1521545049.0,645052202.5,,,,,,2463609.5,1521545050.0,578104039.5,,1.7370000481599999,0.4860000155865,7.9709980011,-0.0484999995679,-0.1469999961555,-0.07800000160935,191.0,225.0,326.0,485.0,542.0,435.0,470.5,495.5,510.0,759.0,5.0,1.0200001001355,-0.419999986885,-1.175003051760001,0.0020000003277999903,0.17500000074500002,0.010499998927100004
16,57.563771641,5756.5,1521545050.0,671819567.0,,2959519.0,1521545049.0,736962636.0,,0.6705641157019999,-0.15104049117149998,0.052575766720600006,-0.2452645284515,0.9686271737515,0.0029479846578550004,0.0399732564375,-0.02030220524825,-0.009205972933129998,0.019544732306650003,0.019230264336000003,0.0504310872511,-0.01856071931593,3.4088786840450003,-0.267782792449,14.419742584200002,1.6551482081400002,1.947827875615,1.039252996443,2959873.0,1521545049.0,745055998.5,,,,,,2463618.5,1521545050.0,668143242.5,,2.1770001053850003,0.9410000175245,8.63100166321,-0.08300000056625,-0.14000000059599998,-0.04350000061095,217.5,266.0,282.5,398.5,424.0,420.0,452.0,461.0,581.0,618.0,5.0,0.44000005722500046,0.455000001938,0.6600036621100003,-0.034500000998349996,0.006999995559500011,0.0345000009984
17,57.666335743599994,5765.5,1521545050.0,765829086.0,,2959528.0,1521545049.0,826964814.5,,0.6677715005185,-0.151889111706,0.05449634456965,-0.24549898578,0.968739043568,0.0025498030678200003,0.03560020560475,-0.038829532225000005,-0.01002572221714,0.01555890185925,-0.058846794094350015,0.09385985658645,0.033952535986755,2.31805318594,0.2737185955048,14.944975376149998,1.1036193668845,1.3324128985400001,0.8654429018500001,2065259.5,1521545049.0,833525929.0,,,,,,2463628.0,1521545050.0,762694679.5,,1.1470000147795,2.705999973415,6.360997390744999,-0.15100000053649998,-0.0970000028608,-0.046999998390699994,143.5,153.0,187.0,193.0,227.0,239.5,266.5,288.0,312.5,401.0,5.0,-1.0300000906055002,1.7649999558905,-2.270004272465001,-0.06799999997024998,0.04299999773519998,-0.0034999977797499915
18,57.7688998462,5777.5,1521545050.0,882190584.5,,2959542.5,1521545049.0,971966017.0,,0.6740589270720001,-0.149001123533,0.0649717947001,-0.24468459573600002,0.9687258475660001,0.00161970995449,0.0411849217516,0.139300872534,0.04788592231885,0.1321562317345,0.051921906835749994,-0.292027192406,0.00016435693755000036,1.7301448583599999,-0.03056833147999999,8.006776571275001,0.9808749556534999,1.040979146955,0.7638335525984999,2065269.0,1521545049.0,974030482.0,,,,,,2463639.5,1521545050.0,877538338.0,,-0.6229999661445,1.650999996065,-2.649000930785,-0.07200000062584999,-0.0710000023246,-0.10300000011949999,28.5,31.0,31.5,39.5,47.5,96.0,100.0,101.0,114.5,128.5,5.0,-1.7699999809240001,-1.05499997735,-9.009998321529999,0.07899999991064999,0.026000000536199996,-0.05600000172879999
19,57.8714639487,5786.5,1521545050.0,971821546.0,,2959551.5,1521545050.0,61965720.5,,0.6885005792775001,-0.14349322245700002,0.07760743725665001,-0.24457854704050006,0.968031561413,0.000598259812632,0.055636024744150005,0.185423355931,0.06665053198175,0.14762276681050002,0.041932765325199996,-0.34820396229149997,0.01542695709605,2.06055653095,0.5497841238975,4.96808552742,0.8893091976645,1.207154691215,0.8033622801305,2959903.0,1521545050.0,45050745.0,,,,,,2463648.5,1521545050.0,967284038.0,,-1.572999984025,2.606000068785,-2.3690002441399995,-0.08850000053644999,-0.08250000327825,-0.1260000020265,18.0,20.0,23.5,29.5,35.5,67.0,68.0,71.0,72.5,104.5,5.0,-0.9500000178804999,0.9550000727199999,0.28000068664500066,-0.0164999999106,-0.011500000953649989,-0.02300000190700001
20,57.9740280513,5794.5,1521545051.0,54321050.0,,2959560.0,1521545050.0,146964034.0,,0.7023734981080001,-0.136923110546,0.08885003531835,-0.2450807303015,0.967163727799,-0.0004720699619130001,0.0672966136282,0.15365018849599998,0.07989368404654999,0.13186306342,0.042378188428100004,-0.22883515884850006,0.004369432591124999,1.1288923919195,1.946637272835,3.871180653575,-0.0879491120575,0.9452539384365,0.5306777656080001,2959912.5,1521545050.0,140057071.0,,,,,,2463657.0,1521545051.0,51744513.0,,0.5520000457766999,0.8310000181209999,-1.88399963379,-0.03949999995530001,-0.147500000894,-0.08749999850989999,10.5,14.5,15.5,22.5,24.5,56.0,56.5,59.0,63.0,73.0,5.0,2.1250000298016998,-1.775000050664,0.48500061034999953,0.049000000581149984,-0.06499999761575001,0.038500003516600004
21,58.0765921538,5807.5,1521545051.0,181859969.5,,2959572.5,1521545050.0,271962531.0,,0.7124345061085,-0.12704301583299998,0.1004774973626,-0.24822244481449998,0.9653540467039999,0.000390229312193,0.08047926858460001,-0.01672481651896,0.055706335256749985,0.08306739647305,0.04394061270713501,0.037246112482750005,-0.03766460104285,-1.44303351641,-0.8679319024085,6.465437650685001,1.0938268303849998,0.667036622763,0.9073190689084999,2065289.0,1521545050.0,265528794.0,,,,,,2463669.5,1521545051.0,179086793.0,,1.066999971869,-0.224000003934,-0.32400016784700003,-0.06699999794365,-0.195999994874,-0.0650000013411,16.0,18.0,26.0,32.5,43.0,-45.0,-40.5,-38.0,-33.5,-26.0,5.0,0.5149999260923,-1.0550000220549998,1.559999465943,-0.02749999798834999,-0.04849999397999999,0.022499997168799996
22,58.179156256400006,5816.5,1521545051.0,271894574.0,,2959581.5,1521545050.0,361980215.0,,0.7091087907329999,-0.1227105847825,0.1072855308225,-0.248544884042,0.9653364672020001,0.00176625469519,0.07967310942255,-0.00710698930333,0.0431046698276,0.07532971895134999,0.023532975781922,-0.044118333571449994,0.009969937345999998,5.454182386395,0.616168320179,4.368175268175,0.8002246022220001,2.0427204370500003,0.9537235796439999,2959933.5,1521545050.0,350028372.0,,,,,,2463678.5,1521545051.0,267435173.0,,-0.378000020981,0.03100003600099998,-1.114001083376,-0.08200000226495,-0.1555000022055,-0.0810000002384,25.0,30.0,32.0,32.0,51.0,-35.5,-34.0,-33.5,-27.0,-20.0,5.0,-1.44499999285,0.255000039935,-0.7900009155289999,-0.015000004321299998,0.04049999266849999,-0.0159999988973
23,58.281720359,5828.5,1521545051.0,395240902.0,,2959590.0,1521545050.0,447000485.0,,0.7136071883130001,-0.120397641978,0.112937504813,-0.250709465459,0.964179070241,0.000364395856689,0.0866218889992,0.069714878612,0.0146036210226,0.0761096613346,-0.004189612340340001,-0.180600343063,0.0353951187878,2.45338964462,-0.211849957705,4.55935049057,0.945736348629,1.43475174904,0.876336336136,2065303.5,1521545050.0,457529608.5,,,,,,2463691.0,1521545051.0,393637803.5,,0.07700002193450002,0.886000012232,-3.05899887085,-0.0704999994487,-0.07149999961260001,-0.1100000031295,21.0,22.0,25.5,28.0,39.5,-84.0,-82.0,-80.0,-77.0,-71.5,5.0,0.4550000429155,0.854999976231,-1.944997787474,0.011500002816249993,0.0840000025929,-0.02900000289110001
24,58.384284461499995,5839.5,1521545051.0,501819968.0,,2959602.0,1521545050.0,567002185.0,,0.714890849685,-0.119473181244,0.11401787836,-0.251313932566,0.963839286091,0.000397570010445,0.0886283240471,-0.0275237080258,-0.006587406133289999,-0.0217869983848,-0.0217029058658,0.0549173775601,0.00910037743238,1.97232365608,-0.782800674438,3.716271877290001,1.13722097874,1.22702395916,0.932867527008,2065310.5,1521545050.0,572550702.5,,,,,,2463701.5,1521545051.0,498892847.0,,-0.8179999589920001,-0.408999976516,-3.078999328615,-0.0725000016391,-0.08599999919535001,-0.07000000029805001,13.0,16.0,18.5,21.0,68.0,-117.0,-115.0,-114.0,-113.0,-96.5,5.0,-0.8949999809265001,-1.294999988748,-0.020000457765000146,-0.002000002190400002,-0.01449999958275,0.04000000283145
25,58.4868485641,5846.5,1521545051.0,572064995.5,,2959609.5,1521545050.0,642001399.5,,0.7126575368200001,-0.12052256923450001,0.11181593680400001,-0.251057601035,0.96416853727,0.000470932589161,0.08572539278409999,-0.0290956518907,-0.015582176098274997,-0.032534402133900006,-0.0190197794219,0.07620103992989999,-0.0039452075909,3.04726111889,0.19213584065415,5.28153848648,0.674616545439,1.386505365375,0.7235111892224999,2959962.5,1521545050.0,640080147.0,,,,,,2463708.5,1521545051.0,568512245.5,,0.5620000958445,0.6060000129045,-1.66900138855,-0.07849999889735,-0.1004999987783,-0.07349999994039999,12.0,15.0,19.0,24.0,25.0,-126.5,-125.0,-119.0,-112.0,-104.5,5.0,1.3800000548365001,1.0149999894205,1.4099979400650002,-0.005999997258249998,-0.014499999582949993,-0.0034999996423499824
26,58.5894126667,5859.5,1521545051.0,702000975.0,,2959622.0,1521545050.0,767009885.0,,0.71156497668,-0.122249548147,0.109549683873,-0.250088557463,0.964562949087,0.00109128942233,0.0841001769408,-0.00854939913753,-0.0212620956041,-0.007045296304020001,-0.0183079019037,0.007874986919270001,-0.0113934355483,3.67188453674,0.209621608257,6.004524707790001,0.567275226116,1.91040301323,0.763784170151,2065324.0,1521545050.0,754051150.0,,,,,,2463721.5,1521545051.0,698421288.5,,0.12699997425055,0.0910000011325,-0.9840000152580001,-0.06949999928475,-0.16449999809250002,-0.08150000125170001,-1.0,1.5,6.0,7.0,12.5,-154.5,-142.0,-139.5,-137.0,-109.5,5.0,-0.43500012159394996,-0.515000011772,0.6850013732919998,0.008999999612600007,-0.06399999931420002,-0.00800000131130002
27,58.691976769200004,5869.5,1521545051.0,805078983.0,,2959632.0,1521545050.0,867006803.0,,0.711754737784,-0.123935923878,0.109603705289,-0.248762569,0.964910771335,0.00103005460852,0.084043599482,0.0172885187362,-0.0309078063002,0.00744875099106,-0.00568470989432,-0.0345424833089,-0.026203456603,2.76933312416,0.0985356867313,4.84238100052,0.6476579904559999,1.39903521538,0.7242940664290001,2065331.5,1521545050.0,874049699.0,,,,,,2463731.5,1521545051.0,798846014.0,,0.09200000762950004,0.8160000026205,-2.2440002441399995,-0.03949999995530001,-0.157999999821,-0.0814999975264,6.0,7.5,8.0,9.0,18.0,-160.5,-145.5,-143.0,-138.0,-118.0,5.0,-0.03499996662104997,0.725000001488,-1.2600002288819994,0.029999999329449988,0.006499998271500024,3.7253000129133795e-09
28,58.7945408718,5879.5,1521545051.0,901805996.5,,2959644.5,1521545050.0,992002689.5,,0.711885891176,-0.1277988731305,0.10918320465600001,-0.2469904511865,0.9654158819385,0.00017800103154700002,0.0834735698559,0.006632332995280001,-0.028650142561600006,-0.005826662973386999,0.00862320115954,-0.01027299003797,-0.0333553397768,3.350244283675,0.2327333986755,4.238497257235,0.643397808075,1.6683249473550001,0.7549653351310001,2959997.5,1521545050.0,990062546.5,,,,,,2463741.5,1521545051.0,899527474.5,,0.0070000290871,1.6110000044100001,-2.30899887085,-0.07750000059605,-0.07550000026819999,-0.08850000053644999,-2.0,-1.5,1.0,16.5,30.0,-153.5,-151.0,-140.0,-137.0,-120.0,5.0,-0.08499997854240005,0.7950000017895001,-0.06499862671000045,-0.038000000640749994,0.0824999995528,-0.007000003010049993
29,58.897104974399994,5887.5,1521545051.0,981850981.0,,2959652.5,1521545051.0,72007730.0,,0.7111608211475,-0.12972330046150002,0.107669422038,-0.2458210121575,0.9658480657805,0.00027469398110945,0.0819108752919,-0.012577956948599998,-0.03545243743915,-0.023636583328049996,-0.02801574038985,0.04464095776535,-0.03234823952385,4.3443651199349995,1.697615802285,3.0821617841699998,0.011683732271199995,1.74147605896,0.5605936646465,2960005.0,1521545051.0,65099222.0,,,,,,2463749.5,1521545051.0,980231590.5,,-0.7679999768735001,2.5210000306349998,-2.2640007019049997,-0.08100000023845,-0.09599999710915,-0.1124999970195,-6.5,-1.5,2.5,11.0,59.0,-157.0,-151.0,-147.0,-142.0,-121.5,5.0,-0.7750000059606,0.9100000262249996,0.044998168945000305,-0.003499999642399998,-0.02049999684095001,-0.023999996483050012
30,58.9996690769,5900.5,1521545052.0,111879944.5,,2959665.5,1521545051.0,202002423.0,,0.7096141238660001,-0.1314435141605,0.10415985215849999,-0.2456198602115,0.9661180737385,-0.000365549222116,0.0792875567392,-0.022094819092950004,-0.008740495788315001,-0.03602748480094999,-0.01748896578755,0.06515846977395,0.013301126716032998,5.299691677089999,1.559003889565,3.5185160636900004,-0.0301940366626,2.2978006601299996,0.5516798496244999,2960018.0,1521545051.0,195079947.0,,,,,,2463762.5,1521545052.0,109729982.0,,0.2169999480245,0.8510000102219999,-1.209000396731,-0.09899999946335,-0.127999994904,-0.061000000685449994,-3.5,1.5,7.5,12.0,14.0,-156.0,-151.0,-140.0,-137.0,-118.0,-1.0,0.9849999248980001,-1.6700000204129999,1.0550003051739998,-0.017999999224900004,-0.031999997794849994,0.05149999633405001
31,59.1022331795,5908.5,1521545052.0,191862106.0,,2959673.0,1521545051.0,277003306.0,,0.7083216693100001,-0.13089778297399998,0.102111434956,-0.246152636598,0.966118740721,0.000333091908532,0.07761022725060003,-0.031628950208700005,0.00489462064873,-0.0413968655831,-0.0155575304216,0.0674512716718,0.0196145246689,6.02501821518,1.56097280979,3.1189475059500005,0.0457021892071,2.49927592278,0.6091837883,2960026.5,1521545051.0,280063141.0,,,,,,2463770.5,1521545052.0,189523397.5,,-0.9630000293275001,1.4760000139449998,-2.0790012359650003,-0.07899999991060001,-0.08999999985099999,-0.07499999925494999,3.5,5.0,8.5,10.0,14.0,-150.0,-149.0,-133.0,-130.0,-114.0,-1.0,-1.179999977352,0.6250000037229999,-0.8700008392340004,0.01999999955274999,0.037999995053,-0.013999998569499995
32,59.2047972821,5919.5,1521545052.0,301811099.0,,2959684.5,1521545051.0,392015008.5,,0.7066574975040001,-0.13166351356599998,0.09927867808755,-0.245244741213,0.9665501904535,0.001029092294383,0.07506420988950001,-0.004145028663725,-0.004875954833930001,-0.015663701833949998,0.01851528314285,0.009913329841543,-0.0257875981586,4.092374324794998,1.291208863255,4.1110651493049994,-0.1036862060427,1.7925538420699998,0.495216816664,1170698.5,1521545051.0,393500032.0,,,,,,2463781.5,1521545052.0,299563045.5,,0.04699999094000007,0.4610000133513,-2.299000549315,-0.07099999859930001,-0.06799999997020001,-0.051999999210249996,0.5,3.5,7.0,10.5,65.0,-158.0,-147.5,-140.0,-132.5,-120.0,-1.0,1.0100000202675001,-1.0150000005936999,-0.21999931334999978,0.008000001311300006,0.02199999988079998,0.023000000044699993
33,59.3073613846,5929.5,1521545052.0,401810526.0,,2959693.0,1521545051.0,477004549.0,,0.705493512693,-0.13269879408399998,0.097959209638,-0.245122205709,0.966709410001,0.000686281265341,0.0733999312109,-0.0262308826381,0.0007873960134169999,-0.0178297062091,0.00814493249434,0.0543643039345,-0.016995819489899998,5.1350336074800005,1.22656190395,3.5380325317400003,0.27950367331500003,2.11201095581,0.634838700294,2065373.5,1521545051.0,477553231.0,,,,,,2463791.0,1521545052.0,393247957.0,,-0.842999994755,0.906000006199,-2.0090015411400004,-0.08500000089410001,-0.0839999988675,-0.09000000357629999,-0.5,3.5,8.0,12.0,48.0,-154.0,-139.5,-137.5,-126.0,-122.5,-1.0,-0.889999985695,0.44499999284770003,0.2899990081749997,-0.014000002294800001,-0.015999998897299986,-0.03800000436604999
34,59.409925487200006,5942.5,1521545052.0,531809449.0,,2959705.0,1521545051.0,597010133.0,,0.7050728006074999,-0.13389557231799998,0.09745013529395,-0.2443789150455,0.9669453867285,0.00010516113679834997,0.0727700218533,-0.008369043841475,-0.009378378567735,-0.0068483982588515,-0.015100581611605,0.0241627779031,-0.015290518445350003,4.9528334140800006,1.45411759615,3.1245350837700006,0.0442889034748,2.03287887573,0.5538630187510001,1170707.0,1521545051.0,600999936.0,,,,,,2463804.5,1521545052.0,529631366.0,,-1.33799999952,2.000999990105,-2.488999176025,-0.08850000053644999,-0.0819999985397,-0.07750000059605,-8.0,-7.5,-5.5,-1.5,21.0,-150.5,-133.5,-130.5,-122.0,-114.0,-1.0,-0.49500000476500006,1.0949999839059998,-0.4799976348849997,-0.0034999996423499824,0.0020000003277999973,0.012500002980249988
35,59.5124895897,5948.5,1521545052.0,591981529.5,,2959711.0,1521545051.0,657001868.0,,0.705617057543,-0.134902854248,0.0975460976106,-0.24360771904,0.967116335398,1.29201013503e-05,0.07308401236760001,0.0164276450125,-0.0107892775012,0.00468915902528,-0.0203140611568,-0.0339674536607,-0.003873724308780001,5.26996946335,1.5386084318200002,3.44100689888,0.155762419105,2.2292277813,0.636282145977,2960065.0,1521545051.0,665081174.0,,,,,,2463810.0,1521545052.0,584591613.0,,-1.1930000186,0.3960000008340001,-2.8889987945599995,-0.0780000016093,-0.0799999982119,-0.06599999964240001,-5.0,1.5,8.0,18.0,41.0,-137.0,-134.5,-132.0,-129.5,-111.5,-1.0,0.14499998092,-1.6049999892709998,-0.39999961853499943,0.010499998927149992,0.0020000003277999973,0.011500000953649989
36,59.615053692299995,5962.5,1521545052.0,732361554.5,,2959725.0,1521545051.0,797010129.5,,0.7051867641075,-0.1364751674725,0.09663193956289999,-0.2440307719375,0.9670736350935,-0.001248082169665,0.07221855220405,0.0016924929165450001,-0.01184164482342,-0.0021682552593665,-0.00457084156267,0.005481780061740002,-0.0226214403567,4.8630745410900005,1.4881315231299999,3.090846776965,0.15905053168549999,2.05382692814,0.6005137562755001,2065396.5,1521545051.0,799045873.5,,,,,,2463824.5,1521545052.0,730003408.0,,-1.06299999356,2.29100001156,-2.7739990234400005,-0.07750000059605,-0.07650000229475,-0.09050000086425,-9.0,6.0,7.5,13.0,64.0,-138.0,-133.5,-130.5,-125.5,-107.0,-1.0,0.13000002503999997,1.8950000107259999,0.11499977111999904,0.0005000010132499982,0.0034999959171500006,-0.02450000122184999
37,59.7176177949,5972.5,1521545052.0,831869482.5,,2959735.0,1521545051.0,897008007.0,,0.7048295516565,-0.135891738202,0.09645605581945,-0.244228441713,0.967043572993,-0.000881266022203,0.07196103171844999,-0.006715209447100001,0.005734437289499999,-0.003438831794465,0.003040751228925,0.014243042638000001,-0.00247660264565,5.383598327634998,1.57073456049,2.8981590271,0.08265895396459999,2.1862601041800005,0.588779002428,2960089.0,1521545051.0,905102986.5,,,,,,2463834.5,1521545052.0,830177645.5,,-0.7229999899865,1.66099998653,-2.6439998626700003,-0.07899999991060001,-0.08000000193715,-0.07000000029799999,-14.0,-11.5,-6.0,-5.0,36.5,-143.5,-136.0,-134.0,-131.5,-105.5,-1.0,0.34000000357350013,-0.63000002503,0.12999916077000018,-0.001499999314550013,-0.003499999642399998,0.02050000056625001
38,59.8201818974,5980.5,1521545052.0,911821484.0,,2959744.5,1521545051.5,492006357.0,,0.705006553697,-0.136505168344,0.0960586933093,-0.243797543546,0.9671661539899999,-0.001207199730065,0.07176958547915,0.007707722089290002,0.010246094098725,0.0009298119363960001,0.00292403171389,-0.012535612346575001,0.0180827051779,5.439903259279999,1.919116318225,2.6020361185099996,-0.13864643126700002,2.240468144415,0.5154657065870001,2065409.5,1521545051.5,490050249.5,,,,,,2463842.5,1521545052.0,908716186.5,,-0.7529999613759999,1.0360000163299998,-3.1990001678500004,-0.08049999922515,-0.0769999995828,-0.051500000059599996,-10.5,-10.0,-4.5,-2.5,0.0,-138.0,-130.0,-128.0,-127.0,-107.0,-1.0,-0.029999971389499946,-0.6249999702000002,-0.5550003051800001,-0.0014999993145499851,0.0030000023543499954,0.018500000238399997
39,59.922746,5992.5,1521545053.0,32037019.0,,2959757.5,1521545052.0,122008664.5,,0.704117158987,-0.1363710301205,0.09465084509465,-0.24424427479350005,0.9671450735100001,-0.0011020922566039998,0.07052544357725,-0.008994378345289999,0.006460242172623999,-0.009779821252680001,-0.0002816565689349997,0.017146855433900002,-0.00012729636105999987,5.4290995597850005,1.363144636155,2.9690020084400004,0.213288664818,2.2622064352000004,0.623372673988,2065419.0,1521545052.0,115551319.5,,,,,,2463854.5,1521545053.0,28959887.0,,0.041999995708250006,1.570999982955,-2.34400062561,-0.08049999922515,-0.07899999991060001,-0.0819999985397,-8.0,-7.5,-6.5,-2.5,3.0,-146.5,-142.0,-130.0,-126.0,-104.0,-1.0,0.7949999570842499,0.5349999666250003,0.8549995422400003,0.0,-0.002000000327800011,-0.030499998480100002
