,Unnamed: 0,Unnamed: 0.1,.header.seq,.header.stamp.secs,.header.stamp.nsecs,.header.frame_id,.endpoint_state.header.seq,.endpoint_state.header.stamp.secs,.endpoint_state.header.stamp.nsecs,.endpoint_state.header.frame_id,.endpoint_state.pose.position.x,.endpoint_state.pose.position.y,.endpoint_state.pose.position.z,.endpoint_state.pose.orientation.x,.endpoint_state.pose.orientation.y,.endpoint_state.pose.orientation.z,.endpoint_state.pose.orientation.w,.endpoint_state.twist.linear.x,.endpoint_state.twist.linear.y,.endpoint_state.twist.linear.z,.endpoint_state.twist.angular.x,.endpoint_state.twist.angular.y,.endpoint_state.twist.angular.z,.endpoint_state.wrench.force.x,.endpoint_state.wrench.force.y,.endpoint_state.wrench.force.z,.endpoint_state.wrench.torque.x,.endpoint_state.wrench.torque.y,.endpoint_state.wrench.torque.z,.joint_state.header.seq,.joint_state.header.stamp.secs,.joint_state.header.stamp.nsecs,.joint_state.header.frame_id,.joint_state.name,.joint_state.position,.joint_state.velocity,.joint_state.effort,.wrench_stamped.header.seq,.wrench_stamped.header.stamp.secs,.wrench_stamped.header.stamp.nsecs,.wrench_stamped.header.frame_id,.wrench_stamped.wrench.force.x,.wrench_stamped.wrench.force.y,.wrench_stamped.wrench.force.z,.wrench_stamped.wrench.torque.x,.wrench_stamped.wrench.torque.y,.wrench_stamped.wrench.torque.z,.tactile_values.tactile_values_0,.tactile_values.tactile_values_1,.tactile_values.tactile_values_2,.tactile_values.tactile_values_3,.tactile_values.tactile_values_4,.tactile_values.tactile_values_5,.tactile_values.tactile_values_6,.tactile_values.tactile_values_7,.tactile_values.tactile_values_8,.tactile_values.tactile_values_9,.tag,.delta_wrench.force.x,.delta_wrench.force.y,.delta_wrench.force.z,.delta_wrench.torque.x,.delta_wrench.torque.y,.delta_wrench.torque.z,.wrench_stamped.wrench.force.magnitude,.wrench_stamped.wrench.torque.magnitude,.endpoint_state.wrench.force.magnitude,.endpoint_state.wrench.torque.magnitude,.endpoint_state.twist.linear.magnitude,.endpoint_state.twist.angular.magnitude
0,0,131.436105,13142.5,1521544266.0,278759955.5,,2881082.5,1521544265.0,372457974.0,,0.5767770106745,-0.167299947486,0.14232560422649998,-0.305502933539,0.950135535339,-0.03444500086625,0.05218695428435,0.028472621134,0.0012483004508235002,-0.013204948194949998,0.0365836883196,-0.05866931279665,0.0038746396258,-0.97633841634,-0.7220199406145,7.107924938200001,1.13092011213,0.08669763803450001,0.734689831734,2010518.5,1521544265.0,370270163.0,,,,,,2385260.0,1521544266.0,264059447.5,,0.64099984169,-0.18100002408025,0.2149993896485,-0.02900000009685,-0.14000000059599998,-0.06000000052155,27.5,28.5,32.5,35.5,39.0,-119.0,-107.5,-106.0,-96.0,-79.5,4.0,0.0,0.0,0.0,0.0,0.0,0.0,0.6999046673032575,0.15505160507096757,7.210904688383542,1.3513940688467694,0.031410492913788265,0.0692493129736795
1,1,131.538669103,13154.5,1521544266.0,396972417.0,,2881096.5,1521544265.0,512462328.5,,0.5830804253140001,-0.1676642425165,0.13704029041,-0.3028126254085,0.950542712683,-0.0351870426789,0.0594539516086,0.0541153803438,-0.01650715189855,-0.06151049541230001,0.00533016787051,-0.1266781467935,-0.0570326177728,3.6047768592800002,2.61866605282,2.922558426855,-0.7209601700309999,1.567919790745,0.2128046676515,2881449.0,1521544265.0,505533214.0,,,,,,2385272.5,1521544266.0,389439299.5,,1.0360000610335,-0.9109999984524999,0.2750007629395,-0.0369999995455,-0.20600000023850001,-0.03350000083445,25.0,27.5,31.0,43.5,59.0,-107.0,-102.5,-99.0,-97.0,-75.0,4.0,0.3950002193435001,-0.7299999743722501,0.06000137329099998,-0.00799999944865,-0.0659999996425,0.0264999996871,1.406713383479086,0.21196049188595775,5.328524735775713,1.7388047226630245,0.08357333007259266,0.13902691485673432
2,2,131.641233205,13162.5,1521544266.0,477159499.5,,2881104.5,1521544265.0,592461447.0,,0.5841365575845,-0.16870253570349994,0.13086237633300002,-0.3024035512005,0.9505634835415,-0.03610903188285,0.06063847724065,-0.00515448658226,0.002713620226003,-0.088623403403,0.046368724606600006,0.012438869384349998,-0.0638763935994,-1.7401509284955,1.75910055637,5.04665875435,-0.18603217601799998,-0.2555982656777,0.2718229666355,2010534.5,1521544265.0,591267257.0,,,,,,2385280.5,1521544266.0,471371928.0,,0.7210000038150001,-1.08600001037,-1.0549991607685,-0.012000000569985002,-0.1735000014305,-0.04450000077485,20.0,32.0,39.0,46.0,65.0,-109.0,-106.0,-105.0,-97.0,-79.0,4.0,-0.3150000572185,-0.17500001191750006,-1.3299999237079998,0.024999998975515,0.032499998807999975,-0.010999999940399996,1.6769795041225488,0.17951741023929907,5.620616034228142,0.41692465640924187,0.08881463898135566,0.07990605579346977
3,3,131.74379730799998,13174.5,1521544266.0,596855521.0,,2881116.5,1521544265.0,712461463.5,,0.5792551798829999,-0.1662634467165,0.1215236063175,-0.3014172110335,0.9513514297210001,-0.03265353075525,0.05487879074995,-0.0423202464291,0.004155663461869999,-0.08865665444335001,-0.02048468591955,0.12603972144449999,0.018393880999785,1.344857573505,1.4032945632949998,4.76661539078,-0.39297029376,0.48933584988150003,0.1918921768665,2881469.0,1521544265.0,705557872.0,,,,,,2385292.5,1521544266.0,589662981.0,,0.2110000133515,-1.4009999856334998,-0.3799999237065,-0.03050000034275,-0.1474999934435,-0.032000000588599996,27.0,28.0,42.0,51.0,67.0,-81.0,-77.5,-74.0,-71.0,-56.0,4.0,-0.5099999904635001,-0.31499997526349977,0.6749992370619999,-0.018499999772764997,0.026000007987,0.012500000186249992,1.4668748778939344,0.15398213573142405,5.147669356903942,0.6562757296286635,0.09832738770920157,0.1290115056778426
4,4,131.84636141,13183.5,1521544266.0,686941027.5,,2881125.5,1521544265.0,802462117.0,,0.5798416945395001,-0.1654776356395,0.113781814057,-0.3025653009025,0.951104507522,-0.032747982381149995,0.052744878963,0.0234487455931,0.020814976191349997,-0.09488047140555,0.00980364939586,0.007710676440485,0.04593735233275,3.537099957465,2.081157803535,3.2503623962400003,-0.31143271923050003,1.306711912155,0.228656232357,2010549.5,1521544265.0,802270460.0,,,,,,2385301.5,1521544266.0,679937127.0,,-1.219000053405,-0.7059999704365,-1.290001678465,-0.05849999934435,-0.0975000001488,-0.02699999976905,26.0,29.5,30.5,40.0,69.0,-71.0,-68.5,-66.0,-57.0,-49.5,4.0,-1.4300000667565,0.6950000151969998,-0.9100017547585,-0.0279999990016,0.049999993294700014,0.005000000819550003,1.9101050805911828,0.11686530682727723,5.235183819046335,1.362633491651654,0.09992702716420511,0.04760048751840688
5,5,131.948925513,13191.5,1521544266.0,766806483.0,,2881132.5,1521544265.0,872581420.5,,0.5826278343975,-0.1635416551245,0.108943606173,-0.302730624358,0.9510386721985,-0.0309347351356,0.0540589801781,0.0308889816143,0.0365961484961,-0.06694370893314999,0.0563384418915,-0.02549179617945,0.06414179443955001,-1.7358972430250001,0.665959253905,7.903834819790001,-0.01386478543299996,-0.2547312304375,0.2342589385805,2881484.0,1521544265.0,855644201.0,,,,,,2385309.5,1521544266.0,759953166.5,,0.5160000801088,-1.161000005902,-0.2300003051755,-0.044499998912199995,-0.15150000155,-0.05799999833105001,10.5,13.5,16.5,32.0,68.0,-74.0,-72.0,-69.5,-67.5,-57.0,4.0,1.7350001335138,-0.4550000354655001,1.0600013732895,0.014000000432149995,-0.05400000140119998,-0.030999998562000013,1.2911534520565537,0.1682156359534916,8.119571775945351,0.34634878712097195,0.08230958289071494,0.0890955750929418
6,6,132.051489615,13206.5,1521544266.0,916575550.5,,2881146.0,1521544266.0,7581069.0,,0.581626791022,-0.16191671061899998,0.0993950226616,-0.30146499408599997,0.951693385266,-0.028827055496099995,0.0506710830069,-0.012533674837200002,-0.0164322236696,-0.0705796542805,-0.0343529476156,0.0493808061904,-0.0304540860495,2.17992186546,1.3366122245799998,4.3240633010900025,0.008850544691090001,0.881074786186,0.313581377268,2881499.0,1521544266.0,5633963.0,,,,,,2385324.5,1521544266.0,910007986.0,,-1.184000086785,0.024000018835000025,0.470000457764,-0.04549999907615,-0.129500001669,-0.0650000013411,4.0,9.5,10.0,14.0,29.0,-87.0,-86.0,-79.5,-76.5,-61.0,4.0,-1.7000001668937998,1.185000024737,0.7000007629395001,-0.0010000001639500003,0.021999999880999987,-0.007000003010049986,1.2741007168624219,0.15187330417997646,5.023556012451804,0.9352563237761776,0.07354317492471565,0.06742433082355623
7,7,132.154053718,13214.5,1521544266.5,496821999.0,,2881154.0,1521544266.0,87594080.0,,0.581425355217,-0.16111777261,0.0936644403822,-0.30200047514199996,0.951616068458,-0.028299874494,0.04921065300869999,0.00430594626274,0.0339559494602,-0.0724589535222,0.036746257607199996,0.00072549315619,0.023056576319999997,-0.68378931284,0.669003009796,6.421607494349999,0.06743589043619999,-0.198338747025,0.21669742465,2881507.5,1521544266.0,90633313.0,,,,,,2385332.5,1521544266.0,990356298.5,,-0.998999905587,-1.28599999845,-0.7499988555914999,-0.0419999994338,-0.08249999955295,-0.0645000003278,2.0,5.5,7.0,17.5,28.0,-94.0,-88.5,-83.5,-82.0,-68.0,4.0,0.1850001811980001,-1.310000017285,-1.2199993133554998,0.003499999642350003,0.04700000211605,0.0005000010132999999,1.7928455289747618,0.1128295170642955,6.492470690188934,0.3014027732790668,0.08013643130620181,0.043386858610117957
8,8,132.256617821,13226.5,1521544267.0,116575956.0,,2881166.0,1521544266.0,207583414.0,,0.583628324777,-0.160352596171,0.08758529109989999,-0.302131491971,0.9515415261679999,-0.0281756827122,0.0499140906064,0.00775070806796,-0.00325812419178,-0.0611528614314,-0.0204814035686,0.019210006753900003,0.029932193586499997,1.1182250976600001,0.92136400938,6.0178155899000005,0.132458209991,0.9689834713940001,0.36183059215499996,2010578.0,1521544266.0,209314598.5,,,,,,2385344.5,1521544267.0,110794716.0,,-0.9440000772495,-1.070999979974,0.924998474121,-0.029500000178850006,-0.177000001073,-0.041500000283150006,8.0,10.5,13.0,14.5,39.0,-91.0,-90.0,-83.5,-77.0,-69.0,4.0,0.054999828337499945,0.21500001847599992,1.6749973297124998,0.012499999254949993,-0.09450000152005,0.02300000004464999,1.7011170683046914,0.18417790424992792,6.189785414766896,1.0427825864714202,0.06172812414168935,0.04104203289950994
9,9,132.359181923,13235.5,1521544267.0,209544539.0,,2881175.5,1521544266.0,302576480.0,,0.5843896373585,-0.160007777515,0.08280255276695,-0.30307134471950004,0.9513400973885,-0.0285732732818,0.04778318600494999,0.0154080284866,0.010300411042300004,-0.06171772818595,0.005469613490600002,0.046326449151949986,-0.034114778706819,3.2054641246799997,2.013227522375,4.524859666825,-0.405860334635,1.4187699556349995,0.224153652787,1139640.0,1521544266.0,303000064.0,,,,,,2385353.5,1521544267.0,200611675.0,,0.810999917982,-2.1959999986,0.4700004577635,-0.0630000010133,-0.189500004053,-0.03350000083445,-10.0,1.5,11.0,43.0,54.0,-96.0,-92.5,-89.5,-80.0,-67.0,4.0,1.7549999952315,-1.125000018626,-0.4549980163575,-0.03350000083445,-0.012500002980000008,0.007999999448700008,2.387684504099298,0.20248827551162304,5.899359314020324,1.492607000620166,0.06444054455014342,0.05779164895536371
10,10,132.46174602600001,13243.5,1521544267.0,287612080.0,,2881184.0,1521544266.0,387581654.0,,0.587646636189,-0.16038664956499998,0.078161410831,-0.3036116462385,0.9512568104445,-0.02903599298025,0.04568754383955,0.06040182100485,-0.0007328824064799996,-0.057032490834449986,-0.027204585929045,0.009172135360450001,0.060971856592750014,3.709592342375,1.706423491237,3.938423633575,-0.19141286611549999,1.4326983988275002,0.2646745443345,2010590.5,1521544266.0,390313786.5,,,,,,2385361.5,1521544267.0,280580814.5,,-0.08399994373300003,-0.33599999547000003,-1.68500022888,-0.037000000476849995,-0.08800000138575001,-0.04700000025329999,1.0,3.5,9.5,30.5,32.5,-97.0,-90.5,-88.5,-83.0,-68.0,4.0,-0.894999861715,1.86000000313,-2.1550006866435,0.02600000053645,0.10150000266724997,-0.013499999418849988,1.720226077824842,0.10640488852956477,5.673106485476437,1.4694611943621063,0.08307600199880401,0.06739276562813018
11,11,132.564310128,13255.5,1521544267.0,407260537.0,,2881197.5,1521544266.0,522583659.5,,0.5964448133215,-0.1582697172025,0.07078114040615,-0.304098961806,0.9511240755079999,-0.0287173531061,0.04540840278005,0.055841447192900004,0.006080057995410001,-0.050115278676450006,-0.0082151941519,0.02038120292645,-0.010733232721420002,1.69012928009,1.69662630558,4.679152488710001,-0.2548699826,0.863787591458,0.2316234856845,2881550.5,1521544266.0,520629574.0,,,,,,2385373.5,1521544267.0,403079041.0,,0.011000084876999994,-0.225999981165,0.6700012207029999,-0.07599999941885001,-0.143000006676,-0.028000000398599997,-2.0,1.5,16.5,23.0,28.5,-94.0,-91.5,-84.5,-74.5,-71.0,4.0,0.09500002861000002,0.11000001430500003,2.355001449583,-0.038999998942000014,-0.05500000529024998,0.018999999854699984,0.7071765190512137,0.16434415670574615,5.256381437529488,0.9299124422804411,0.07527798806187126,0.024455779119355554
12,12,132.666874231,13267.5,1521544267.0,527321457.5,,2881209.0,1521544266.0,637577302.5,,0.5782914140155,-0.1641372970425,0.0591170005959,-0.3036566803405,0.9520671440555,-0.03008896764935,0.02130873744965,-0.0833609297988,-0.005889419028654999,-0.124171576226,-0.0294436401515,0.21849069831,-0.013438700783774998,18.637660026549998,4.9906688928600005,4.49671506882,-0.786049116403,5.433046221730001,0.04101466760054999,2010607.0,1521544266.0,631815912.5,,,,,,2385385.5,1521544267.0,521486874.0,,-0.4490000724795,1.8989998996250002,1.7050010681130001,-0.053999999538050014,-0.09450000152010002,-0.0605000015348,205.0,217.0,247.0,272.5,275.0,61.0,69.0,71.0,76.5,119.5,4.0,-0.4600001573565,2.1249998807900004,1.03499984741,0.0219999998808,0.048500005155899965,-0.0325000011362,2.5912989650229146,0.12452509957080585,19.811350122431662,5.489767450795248,0.14967401316148662,0.22087487831828748
13,13,132.76943833299998,13275.5,1521544267.0,606618404.0,,2881217.5,1521544266.0,722581562.0,,0.5898002077794999,-0.1581391246955,0.0525814635895,-0.305012669669,0.9513705562970001,-0.0271822366912,0.03345933543525,0.250084073627,0.10011934967460001,-0.06330424186195,0.258454314022,-0.485594983371,0.07434051155805001,2.67318034172,1.128246456383,4.239401578900003,0.042432542890305,0.937002316119,0.257053695619,2881570.5,1521544266.0,720632012.5,,,,,,2385393.5,1521544267.0,601122251.0,,1.9410000324250003,1.4389999806895002,-0.43500022888185,-0.033999999985100005,-0.08500000089394999,-0.047000000253300006,197.5,197.5,210.0,232.0,255.0,2.5,5.5,13.0,14.0,22.0,4.0,2.3900001049045003,-0.4599999189354997,-2.14000129699485,0.019999999552950003,0.00950000062615003,0.013500001281499995,2.4550819272328765,0.10290772650665499,5.137252081889586,0.9725484376317168,0.27671890990471876,0.5550924535339828
14,14,132.872002436,13287.5,1521544267.0,727037548.5,,2881229.0,1521544266.0,837661319.0,,0.6142407128949999,-0.148707645888,0.0509750974239,-0.30411316903200003,0.950535631771,-0.021820590026700004,0.0593384782965,0.12449620834799999,0.051165645393900006,-0.0054796190927399995,0.150464947486,-0.140822615422,-0.129321513683,-2.51172685623,1.64005792141,4.54238605499,-1.19485354424,-0.056727014482,0.06931219249960001,2010621.0,1521544266.0,832313544.5,,,,,,2385405.5,1521544267.0,721244546.0,,-0.14899988174399995,-0.8409999907015,0.809998703003,-0.054999998770699984,-0.2129999995235,-0.06399999931455,201.0,237.5,243.0,247.0,259.0,-60.5,-59.0,-55.5,-48.5,-47.5,4.0,-2.089999914169,-2.2799999713909997,1.2449989318848502,-0.020999998785599987,-0.12799999862955005,-0.01699999906124999,1.17710655761753,0.22910696098994984,5.443512915246398,1.1982057946713627,0.1347117492537472,0.2432997396988324
15,15,132.974566538,13296.5,1521544267.0,816635012.5,,2881236.0,1521544266.0,907658630.0,,0.6169699046630001,-0.151320538619,0.0493965767514,-0.301695934746,0.9513606559119999,-0.025282963072000002,0.057037155589500003,0.031825816168,-0.0646770028489,-0.0285480901315,-0.182977191091,0.0432404281364,-0.0161588622406,2.18590760231,1.04424870014,2.62948870659,-0.0700882300735,1.5309689045,0.316501200199,2881590.0,1521544266.0,915706462.0,,,,,,2385414.5,1521544267.0,811160744.0,,-0.649000000954,0.7489999234675001,0.14499969482405,-0.0439999997616,-0.1855000033975,-0.08150000125170001,170.0,175.0,186.5,196.0,216.0,-71.0,-68.0,-65.0,-62.5,-51.0,4.0,-0.5000001192100001,1.5899999141690002,-0.6649990081789501,0.010999999009099988,0.02749999612600001,-0.017500001937150008,1.001612099613259,0.20733668619788545,3.5753123292469264,1.5649125075441672,0.0775305792731629,0.18871008429302918
16,16,133.077130641,13308.5,1521544267.0,936648964.5,,2881248.5,1521544267.0,32650160.0,,0.619394006457,-0.155972494924,0.0395180883474,-0.301632945222,0.9516505271015,-0.0296899349663,0.04997143198275,0.06221812857035,-0.012538834389239998,-0.1082077883915,0.009010708346185,0.029786330172605,-0.054570029155000005,5.6294512748750005,2.33963382244,0.81631785631,-0.3320649415255,1.81637048721,0.267403513193,2881601.0,1521544267.0,25738183.5,,,,,,2385426.5,1521544267.0,931113509.5,,0.12599997520435,0.18400004506105005,-1.515000152585,-0.020499999634900002,-0.103000000119,-0.0785000026226,164.5,167.0,171.0,190.0,195.0,-27.5,-27.0,-22.5,-17.5,-12.0,4.0,0.7749999761583499,-0.5649998784064499,-1.6599998474090503,0.023500000126700005,0.0825000032785,0.002999998629100012,1.5313253973818035,0.13111636214177508,6.150689629775472,1.865736720726101,0.12544817001143155,0.06281963396923766
17,17,133.179694744,13318.5,1521544268.0,36731004.5,,2881258.0,1521544267.0,127657292.0,,0.628353439616,-0.156195236188,0.029904424705599997,-0.302026241777,0.951324551831,-0.028513131185699998,0.054302372979499997,0.08838853436720001,0.011086118135,-0.09828138634479999,0.0192058983782,-0.054918933982499994,0.08383928920599999,1.5024147033700002,1.06762909889,4.20065402985,0.254765570164,0.9904931187630001,0.346858084202,2010641.5,1521544267.0,129375920.0,,,,,,2385436.5,1521544268.0,30988618.0,,0.010999965668000005,-1.325999990105,0.380000305176,-0.04999999888244999,-0.089500002563,-0.034499999135699996,172.0,173.0,174.0,190.0,208.0,-24.0,-23.0,-17.0,-16.0,-16.0,4.0,-0.11500000953635,-1.51000003516605,1.895000457761,-0.029499999247549983,0.013499997555999996,0.0440000034869,1.3794191549115917,0.10816885081845562,4.587218777450459,1.0799502972980397,0.132644886538233,0.10204892090000386
18,18,133.282258846,13328.5,1521544268.0,136816978.0,,2881268.0,1521544267.0,227654694.0,,0.631518420398,-0.156660898996,0.0214839711288,-0.30038090556999997,0.951994240236,-0.0273285052548,0.0522630933493,-0.0119345989381,-0.0263784406283,-0.0805137898994,-0.05925413298830001,0.126639811305,-0.009755210523729999,2.5400722026800002,1.6069798469499998,3.1001074314099997,-0.23462307453200001,1.08218741417,0.287062108517,2881621.0,1521544267.0,225719687.0,,,,,,2385446.5,1521544268.0,132988109.5,,0.611000108719,-0.5660000145435,-0.9399993896484999,-0.05049999989569999,-0.09600000083444996,-0.028500000014900002,138.5,147.0,155.0,159.5,160.5,-29.0,-25.0,-22.5,-10.0,3.0,4.0,0.600000143051,0.7599999755614999,-1.3199996948244999,-0.0005000010132500121,-0.006499998271449967,0.005999999120800004,1.2558964932897234,0.11215391277405079,4.317987622679641,1.1439327955072474,0.08556124792076591,0.1401565489583824
19,19,133.38482294899998,13335.5,1521544268.0,206605434.0,,2881275.0,1521544267.0,297647865.0,,0.632141784774,-0.15749796173299999,0.0171663221896,-0.29843515921,0.9527333942790001,-0.027525218199900003,0.0497784846664,0.00125764624681,-0.027770759901400002,-0.0617013456484,-0.0496755350636,0.0746517493062,-0.0356559179135,3.7748172283199994,2.54921293259,2.88108754158,-0.481174111366,1.47470653057,0.26185318827599996,2010654.0,1521544267.0,305352005.5,,,,,,2385453.5,1521544268.0,200900579.0,,0.8160000324269999,-1.0309999883185,-1.185000228885,-0.07850000075995,-0.0780000016093,-0.02149999979885,117.5,123.0,124.5,128.5,136.0,-33.0,-33.0,-33.0,-26.0,-21.0,4.0,0.2049999237079999,-0.4649999737750001,-0.2450008392365001,-0.02800000086425001,0.017999999225149967,0.00700000021605,1.770040273917832,0.11273198464372702,5.389656492314986,1.5731671776912246,0.06767460996863336,0.0964981188447989
20,20,133.487387051,13347.5,1521544268.0,326587438.0,,2881289.0,1521544267.0,437673936.5,,0.6329071503395,-0.1573378735325,0.01031938875018,-0.299827720163,0.9523822883695,-0.02793663792055,0.04786088436715,0.01018989348401,0.006102324234624999,-0.036636913925550005,0.010086337121235002,-0.021503662686950004,-0.043311014159500005,2.63843858242,1.699923336505,4.406844615935,-0.058709282428,1.19275301695,0.268754884601,2010663.5,1521544267.0,441883465.0,,,,,,2385465.5,1521544268.0,322039548.0,,-0.4740000486375001,0.933999985455,0.16500015258794998,-0.047500001266600006,-0.0989999994635,-0.0595000013709,76.0,83.5,98.0,109.0,122.5,-35.0,-34.0,-32.5,-32.0,-30.0,4.0,-1.2900000810645,1.9649999737735,1.3500003814729502,0.03099999949335,-0.02099999785420001,-0.03800000157205,1.060309893046528,0.12488995226693421,5.410302854017698,1.2240652463342934,0.038514098097555405,0.04939621091745539
21,21,133.589951154,13357.5,1521544268.0,427140473.5,,2881299.5,1521544267.0,542654978.5,,0.6325373740625,-0.1550203565205,0.00792975028664,-0.300472999463,0.9522317392655,-0.02616529991665,0.0478096579021,0.0018110467242150009,0.01217676984235,-0.00599104034354,0.0180757381588,0.0025064441955999998,0.01471595920978,2.857464671135,1.599807202815,4.9840171337150005,-0.227301128209,1.226468980315,0.265269383788,2010670.0,1521544267.0,537374854.0,,,,,,2385475.5,1521544268.0,422590744.5,,-0.999000024798,-0.6459999978545,-1.0450008392355,-0.05049999989569999,-0.05849999934435,-0.0599999986589,65.0,66.5,68.0,70.0,99.5,-43.0,-41.0,-38.0,-33.0,-32.0,4.0,-0.5249999761605,-1.5799999833095,-1.2100009918234498,-0.002999998629099991,0.04050000011915001,-0.0004999972880000009,1.5834594408374716,0.09783915244840713,5.963632636416172,1.275248920225093,0.013691098510666636,0.023442995285480567
22,22,133.692515256,13368.5,1521544268.0,536589503.0,,2881310.5,1521544267.0,652648478.0,,0.6327003495825,-0.155312017197,0.00730200955448,-0.29971650938850003,0.952483174437,-0.0260050780362,0.0476394403568,-0.0064777749629750005,0.003324706082885001,-0.00480394408997,-0.002295790474045,0.0046166541624999965,0.0009921635034450015,2.6174818277350003,1.498698294165,4.924278497695,0.0395497828722,1.41483616829,0.3637805283065,2010678.0,1521544267.0,647851626.0,,,,,,2385486.5,1521544268.0,532473194.0,,1.046000051496,1.8940000236050003,0.8399993896504999,-0.05099999904635,-0.145000003278,-0.0744999982417,30.0,35.5,36.5,41.5,61.0,-47.0,-45.5,-43.5,-41.5,-35.0,4.0,2.045000076294,2.5400000214595004,1.885000228886,-0.0004999991506500004,-0.08650000393365001,-0.014499999582800004,2.3209806487255746,0.17081056931981994,5.774584523436935,1.4613903794680336,0.008723136925904349,0.005250575013692554
23,23,133.795079359,13378.5,1521544268.0,636580586.0,,2881320.0,1521544267.0,747648489.0,,0.63260007223,-0.15485389373400002,0.00743586658999,-0.300260086832,0.952312950059,-0.0260018467267,0.0476217321371,-0.00207819029347,0.00807713863276,0.004529446741770001,-0.0076690944658500005,0.00180435553767,0.0206210606256,2.90459752083,1.9372872114200002,4.0984716415400015,-0.24883596599100002,1.33532476425,0.26345252990699997,2010684.5,1521544267.0,743360133.0,,,,,,2385496.5,1521544268.0,630918328.5,,-0.994000029566,-0.5859999954705001,-0.06000022888199999,-0.05499999970200002,-0.1239999979735,-0.05299999937415,13.5,16.5,27.0,48.0,52.0,-59.0,-50.0,-47.0,-41.0,-37.5,4.0,-2.0400000810620003,-2.4800000190755003,-0.8999996185324999,-0.004000000655650017,0.0210000053045,0.021499998867550003,1.1554358835238445,0.1456365318122754,5.383979782099006,1.3836252380989553,0.009490781378539275,0.022074846548891844
24,24,133.89764346200002,13389.5,1521544268.0,749583482.0,,2881330.0,1521544267.0,847669310.5,,0.6327357952815,-0.15502523122900005,0.0073938816863,-0.299908705562,0.952416656855,-0.0262298634092,0.04763607531494999,0.0016359972285864995,0.006717695836249999,0.0017121356904045,0.0034745178369799995,-0.004195831753504501,0.008591411150639997,2.703855514525,1.21278977394,4.2963409423800005,-0.016464732587345002,1.32979166508,0.2987352460625,2881683.0,1521544267.0,845708782.5,,,,,,2385508.0,1521544268.0,748405584.5,,-1.1239999055855,-0.17600002884850002,-0.949999618528,-0.0400000009686,-0.09400000050650001,-0.048000000417250006,3.5,5.5,12.5,37.0,63.5,-62.0,-58.0,-57.5,-50.0,-44.0,4.0,-0.12999987601949992,0.4099999666220001,-0.889999389646,0.014999998733400015,0.029999997467000012,0.004999998956899995,1.4821778142700122,0.11287160941869308,5.219218252992622,1.363033274419753,0.00712287392157619,0.010172985002571768
25,25,134.000207564,13398.5,1521544268.0,837945938.0,,2881337.5,1521544267.0,922656603.5,,0.632793288275,-0.155079107735,0.007356086657994998,-0.299716759529,0.952484327314,-0.02624844302235,0.0474802357012,-0.00013125459043700002,-0.0011117762209000015,0.00019520683399500008,-0.0007712828939000008,0.0021245710616000016,-0.0003992379721499996,2.844297766685,1.2393016815200002,4.58805847168,0.1020109429954,1.42792034149,0.34365394711450004,2010698.0,1521544267.0,928352670.5,,,,,,2385516.5,1521544268.0,831890678.0,,-0.4389999628065,0.923999994993,-1.1199996948245,-0.07100000046195,-0.0839999988675,-0.0744999982417,0.0,1.5,40.5,49.0,65.0,-64.5,-58.5,-56.5,-47.0,-42.5,4.0,0.6849999427789999,1.1000000238415,-0.17000007629649996,-0.03099999949335,0.010000001639,-0.02649999782445,1.516870552980097,0.1328429509358709,5.5386080365866475,1.4722298629966395,0.0011363889478993648,0.002295227757024858
26,26,134.102771667,13409.5,1521544268.0,950449585.5,,2881348.5,1521544268.0,32651633.5,,0.632989877221,-0.15535723529900006,0.00744413036642,-0.3002462031355,0.9522991906245,-0.026536554791399998,0.047688560118500006,-0.00185104458371,-0.00496519903179,0.0033864566147550003,-0.00447745427761,-0.004255582151770001,0.008794958666105,2.692904829975,1.2907348871200002,4.8486533164950005,0.2300128191705,1.4442875385249998,0.405440300703,2010705.0,1521544268.0,39353473.0,,,,,,2385528.0,1521544268.0,946593380.5,,-0.15400011539449998,0.734000056982,-0.18000106811500002,-0.049000000581150005,-0.119000002742,-0.09149999916555,8.5,14.0,22.0,41.5,44.5,-65.0,-63.0,-62.0,-50.0,-47.0,4.0,0.284999847412,-0.189999938011,0.9399986267095,0.021999999880799998,-0.035000003874499995,-0.017000000923849998,0.7712797830318383,0.15790582812817378,5.694486101105992,1.5176475968931333,0.0062886927003780665,0.010747505487183848
27,27,134.205335769,13419.5,1521544269.0,46674966.5,,2881359.0,1521544268.0,137650518.0,,0.632796980871,-0.154771079508,0.007607215405840002,-0.300258774934,0.9523004373980001,-0.0263399813555,0.04769434336350002,-0.0198669730637,0.020597549049799997,-0.00406677447487,0.00126944865772,0.028650805802400002,0.0414920593455,2.28471016884,1.1369851827600002,4.81955432892,0.23246246576299998,1.27125644684,0.391240417957,2010712.5,1521544268.0,145366652.0,,,,,,2385536.5,1521544269.0,32742630.5,,1.0810001373285,1.90899989009,-0.3050010681155,-0.0434999996796,-0.1189999990165,-0.07750000059605,2.5,6.5,37.0,47.0,62.0,-67.0,-64.0,-61.0,-47.0,-47.0,4.0,1.2350002527230002,1.174999833108,-0.12500000000049996,0.005500000901550006,3.725499991835689e-09,0.013999998569500002,2.21491930526136,0.14852440819757523,5.453507109267228,1.3502595366314003,0.02890491827011715,0.05043878628349337
28,28,134.307899872,13430.5,1521544269.0,156594991.0,,2881370.0,1521544268.0,247657073.0,,0.6324088591829999,-0.1551586093695,0.007136049989445,-0.299795993346,0.9524774315569999,-0.02627448233605,0.047102623380050015,-0.00036630626733500076,0.0040604486036050005,-0.0001186658614949999,0.002752955749275,0.002248129022689999,-0.0028393670042499985,2.628223538395,1.0999047756185,4.985041141510001,0.3373477756975,1.4461652040450002,0.4243646264075,2010720.0,1521544268.0,250852123.0,,,,,,2385548.5,1521544269.0,152978821.0,,-0.7789999961849999,0.6689999997614999,-1.484999465945,-0.06650000065565,-0.0780000016093,-0.06000000238415,17.0,20.0,20.0,24.0,27.0,-65.5,-61.0,-56.0,-55.5,-48.0,4.0,-1.8600001335135,-1.2399998903284999,-1.1799983978295,-0.02300000097605,0.040999997407200006,0.0174999982119,1.805443271774013,0.11876973783060338,5.741775393181907,1.5444360314705639,0.004078664576879429,0.004549159751531153
29,29,134.410463974,13441.5,1521544269.0,266947984.0,,2881381.0,1521544268.0,357656159.0,,0.6332174225639999,-0.155834110263,0.00740643850157,-0.299529459707,0.952519941792,-0.026607308171200002,0.047748449270800006,0.015890667257000002,-0.003615042792,0.0142380904639,-0.00488431446269,-0.0264742280602,-0.030878012913599998,2.50931072235,1.03362619877,5.2051692008999995,0.33800047636,1.4170119762399995,0.426961839199,2881734.0,1521544268.0,355735827.0,,,,,,2385559.5,1521544269.0,263641891.0,,-0.30399997234345005,1.2840000093000001,-1.6700008392299996,-0.07300000265239999,-0.08300000056625,-0.08149999752645,13.5,25.0,27.0,39.5,42.0,-68.5,-64.5,-62.0,-57.5,-47.0,4.0,0.4750000238415499,0.6150000095385,-0.18500137328499955,-0.006500001996749993,-0.004999998956949997,-0.0214999951423,2.1283737477464153,0.1373326256869039,5.870162674924975,1.5180460055477134,0.021640357213292095,0.04096575351005242
30,30,134.513028077,13448.5,1521544269.0,336764096.5,,2881390.5,1521544268.0,452656168.5,,0.6335170950825,-0.1558595364915,0.007644727592165,-0.29951375777050004,0.952516865024,-0.026736768087350003,0.047834254993500004,0.00091487928526,0.006724134679075,0.0020737120923450003,-0.0025532552171800005,-0.005570805386150001,0.017106817747705002,2.33691477776,1.196000277995,4.94867801666,0.195276558399,1.30339616537,0.378384321928,2010733.0,1521544268.0,442352967.5,,,,,,2385566.5,1521544269.0,332864294.5,,-0.7540000200270001,0.4040000140665,-1.7250011444099995,-0.049499999731800005,-0.07349999994039999,-0.06100000068545,10.0,15.0,20.0,49.0,65.0,-73.5,-72.0,-69.0,-67.0,-51.0,-1.0,-0.45000004768354995,-0.8799999952334999,-0.0550003051800001,0.023500002920599984,0.009500000625850005,0.020499996841000002,1.9254508536398058,0.10758020286424404,5.601874816171024,1.3711853241784242,0.0070958630997839,0.018171301502853603
31,31,134.615592179,13461.5,1521544269.0,466587066.5,,2881403.0,1521544268.0,577650406.0,,0.63284368207,-0.155460784403,0.007148773215540001,-0.29940872680999997,0.95258056537,-0.026385266902700003,0.0474183348431,-0.006137551839609999,-0.00394663923931,0.00197177771935,-0.0211472102829,0.00404899560545,0.0260077172439,2.51388597488,1.1195820570000001,5.27905511856,0.34669578075400004,1.4166816473,0.409927964211,2881756.0,1521544268.0,575706859.0,,,,,,2385579.5,1521544269.0,463568509.5,,0.4710000038150001,-0.6559999883175001,-0.5549991607664999,-0.047000000253300006,-0.1130000017585,-0.047499999403949986,8.5,22.5,37.0,37.0,49.0,-68.0,-64.5,-63.0,-56.5,-49.0,-1.0,1.2250000238420002,-1.0600000023840002,1.1700019836434998,0.0024999994784999998,-0.03950000181810001,0.0135000012815,0.9798984930684451,0.13127928383643192,5.953277216949438,1.515000260736427,0.007558664646859694,0.03376388935535713
32,32,134.718156282,13469.5,1521544269.0,547475575.5,,2881411.5,1521544268.0,662664311.5,,0.633296415457,-0.15553612843550002,0.007338978185585,-0.299583544682,0.9525086095790001,-0.0264099361565,0.04774212077195,-0.00048479698992999996,-0.011275584268330002,-0.0031818971361775,0.00181534970994055,0.00484628193719,-0.027633312321310003,2.49302256107,0.9671018123625,5.122922420505001,0.35956832766549995,1.41853672266,0.41997824609300005,1139733.0,1521544268.0,660999936.0,,,,,,2385587.5,1521544269.0,542886009.0,,-0.6390001297019999,1.7240000665200002,-0.5600002288814999,-0.06300000101325,-0.0945000015198,-0.07550000026824999,9.0,13.0,38.5,54.0,69.5,-69.5,-68.5,-68.0,-65.5,-51.0,-1.0,-1.110000133517,2.3800000548374998,-0.005001068115000007,-0.016000000759949992,0.01850000023870001,-0.0280000008643,1.9220035513670286,0.1363799855382653,5.778821811752952,1.5224708676971428,0.011725966830026035,0.02811373139644004
33,33,134.820720385,13483.5,1521544269.0,686625003.5,,2881425.5,1521544268.0,802652307.5,,0.6322688674829999,-0.15551718032950002,0.0071569154740150015,-0.2998883928295,0.9524500645945,-0.02650940217225,0.046935366678300006,-0.010228484069665,-0.003327964541569,-0.00818922304934,0.005741655584749999,0.022899089327565,-0.029039268355299998,2.28155708313,0.8703941404815,5.454743623735,0.4329579770565,1.32020843029,0.42948693037,2010758.5,1521544268.0,803867400.5,,,,,,2385601.5,1521544269.0,683668343.0,,-0.3839998960495,-0.5909999608995,-1.4049995422350001,-0.06200000084935,-0.0894999988377,-0.054999999702,9.0,10.0,20.0,43.5,50.0,-65.5,-61.0,-59.0,-54.0,-50.0,-1.0,0.2550002336524999,-2.3150000274195,-0.8449993133535001,0.0010000001638999986,0.005000002682099991,0.020500000566249992,1.5718653210850468,0.12198053067800493,5.976396630415592,1.4542564879223636,0.013518898198639296,0.03742477798861097
34,34,134.92328448700002,13490.5,1521544269.0,756577968.0,,2881431.0,1521544268.0,856899230.5,,0.6326683299570001,-0.1553161321585,0.0076338263841100006,-0.300163650222,0.9523367558635,-0.0265759538087,0.04743393139415,0.002171931455350001,0.005891266871105,0.0035379264479299993,0.00659634907453,-0.00804390165435,0.0074960409328249985,2.2613042593,0.9006736278534999,5.521399736405,0.4242871403695,1.346841037275,0.431541100144,2881783.5,1521544268.0,849983417.5,,,,,,2385608.5,1521544269.0,752872955.0,,-0.5939999341965,-0.17599996924414998,-0.364998626709,-0.048000000417250006,-0.0960000008345,-0.06550000049175,27.0,37.0,40.0,42.0,70.0,-67.5,-66.0,-65.0,-57.5,-53.0,-1.0,-0.210000038147,0.4149999916553501,1.040000915526,0.014000000432099991,-0.00650000199680001,-0.010500000789750004,0.7190520902541373,0.12573881765270123,6.034116752782656,1.4765595410563095,0.007207026789479878,0.012822121688881888
35,35,135.02584859,13500.5,1521544269.0,856589555.0,,2881440.5,1521544268.0,951905378.5,,0.6328716241585,-0.155907468548,0.007453825230675,-0.2999329118945,0.952404310858,-0.02678266420455,0.0474232313456,-0.0003956413654999986,-0.001735124044375,0.0025653992930650005,-0.0010889323244200003,-0.001535393044100001,0.009242193564985,2.159022927285,1.098464608195,5.43037176132,0.29557877778999997,1.2872716188400002,0.395510613918,2010768.5,1521544268.0,949989129.0,,,,,,2385618.5,1521544269.0,854806719.0,,-1.1440000057245,-0.2510000169275,-0.17499999999999993,-0.06499999761585,-0.10799999907630001,-0.08000000193715,7.5,20.0,23.0,36.0,65.0,-66.5,-64.5,-59.5,-55.0,-49.0,-1.0,-0.5500000715279999,-0.07500004768335003,0.18999862670900008,-0.01699999719859999,-0.011999998241799979,-0.014500001445399991,1.1842136722717151,0.14929500929530537,5.946170361008921,1.3787181293769146,0.003122252563826534,0.00943193232056335
36,36,135.128412692,13512.5,1521544269.0,976671933.5,,2881452.5,1521544269.0,71898252.5,,0.6328721310659999,-0.15580888524949998,0.00764481634786,-0.300089003148,0.9523507451315,-0.026901739032100004,0.047442619459949986,-0.00238806140946,0.0125818023487,0.0028944794681865,0.007512636314895,-0.00050145202206,0.013386912369000002,1.65172868967,0.8122808337215001,6.48477935791,0.3658653944735,1.056840121745,0.3727476596835,2881805.0,1521544269.0,64992227.5,,,,,,2385630.5,1521544269.0,973080599.5,,-0.9440000772495,-0.8210000097754999,-0.244999694824,-0.05750000104309999,-0.1110000014303,-0.07000000029805001,12.5,24.0,37.0,46.0,55.0,-71.0,-67.0,-66.0,-61.0,-53.0,-1.0,0.19999992847499992,-0.569999992848,-0.06999969482400006,0.007499996572750009,-0.0030000023540000115,0.010000001639099991,1.274834111703278,0.14327334183025853,6.740947347212104,1.1788593417379203,0.013129455397268317,0.015359055351993249
37,37,135.230976795,13524.5,1521544270.0,96603512.5,,2881464.0,1521544269.0,186901359.5,,0.633584125327,-0.1555695528135,0.0081481559905,-0.299684481,0.952436294217,-0.026900788492950002,0.04827305454915,-0.0030546275484499997,-0.0033251790816450004,-0.0006945415666399996,0.007834510573184999,0.0033713088317999986,-0.027157818232685003,1.0186941623710002,0.5430291593075001,6.33302760124,0.4676964432,0.8936440646645001,0.4218234717845,2010786.0,1521544269.0,188982247.0,,,,,,2385642.5,1521544270.0,93324795.0,,-0.57399995327,-0.5560000240805,0.384999465942,-0.05399999953805002,-0.130999997258,-0.07200000062584999,8.0,18.5,25.0,49.5,58.5,-69.0,-67.0,-63.0,-59.0,-52.0,-1.0,0.3700001239795,0.26499998569499994,0.629999160766,0.003500001505049977,-0.019999995827699985,-0.0020000003277999834,0.8870380836847447,0.1589370923410511,6.437379673623005,1.0932862016143572,0.004568364408904996,0.02846563490105707
38,38,135.333540897,13534.5,1521544270.0,196625471.0,,2881474.0,1521544269.0,286899765.5,,0.6332176576240001,-0.155870493625,0.00803727056538,-0.299375640988,0.952550805281,-0.02683909675005,0.047966728098,-0.002418017991347,0.00222604130347,-0.00167173811293,-0.0017532031991300007,-0.005333384502635,0.0198687069593,1.1510879993449998,0.4643556028605,6.913138389589999,0.5797755718235,0.9363393187525,0.4377028346065001,2881827.0,1521544269.0,284974052.0,,,,,,2385652.5,1521544270.0,193046955.5,,-1.6240000248,-2.11599999666,-0.82499961853,-0.044999999925499995,-0.1019999980925,-0.062499998137350014,6.0,8.0,29.0,39.5,69.5,-66.0,-64.5,-63.5,-62.0,-47.0,-1.0,-1.05000007153,-1.5599999725795002,-1.209999084472,0.008999999612550012,0.028999999165499987,0.009500002488499977,2.7920344619990214,0.1278094259878111,7.023682232402533,1.1850969601461847,0.003687381077330489,0.020646651736902114
39,39,135.436105,13543.5,1521544270.0,286573528.5,,2881485.5,1521544269.0,401900333.5,,0.633488079659,-0.1554946673455,0.008167076159115001,-0.299706403805,0.952426992075,-0.0269093693022,0.04831929322495,0.0039317364150249995,0.007184584690185,-0.00444439604271,0.01495557413595,-0.006611196645964999,0.006516164825775003,0.9154393076895,0.33345493674250004,6.9494693279299975,0.6526416838169999,0.908325582743,0.4575546830895,2881837.0,1521544269.0,384954054.0,,,,,,2385661.5,1521544270.0,284635122.0,,-0.9240000963215,-0.291000008583,-1.28500061035,-0.057499999180449984,-0.07250000163914999,-0.092000000179,11.0,13.0,34.0,43.5,50.0,-73.5,-71.0,-69.0,-66.0,-51.0,-1.0,0.6999999284784999,1.824999988077,-0.46000099182,-0.012499999254949991,0.02949999645335001,-0.029500002041649983,1.609249437345659,0.13048563206868602,7.017431528753294,1.2084505863865647,0.009318232911455403,0.017602202216318922
