,Unnamed: 0,Unnamed: 0.1,.header.seq,.header.stamp.secs,.header.stamp.nsecs,.header.frame_id,.endpoint_state.header.seq,.endpoint_state.header.stamp.secs,.endpoint_state.header.stamp.nsecs,.endpoint_state.header.frame_id,.endpoint_state.pose.position.x,.endpoint_state.pose.position.y,.endpoint_state.pose.position.z,.endpoint_state.pose.orientation.x,.endpoint_state.pose.orientation.y,.endpoint_state.pose.orientation.z,.endpoint_state.pose.orientation.w,.endpoint_state.twist.linear.x,.endpoint_state.twist.linear.y,.endpoint_state.twist.linear.z,.endpoint_state.twist.angular.x,.endpoint_state.twist.angular.y,.endpoint_state.twist.angular.z,.endpoint_state.wrench.force.x,.endpoint_state.wrench.force.y,.endpoint_state.wrench.force.z,.endpoint_state.wrench.torque.x,.endpoint_state.wrench.torque.y,.endpoint_state.wrench.torque.z,.joint_state.header.seq,.joint_state.header.stamp.secs,.joint_state.header.stamp.nsecs,.joint_state.header.frame_id,.joint_state.name,.joint_state.position,.joint_state.velocity,.joint_state.effort,.wrench_stamped.header.seq,.wrench_stamped.header.stamp.secs,.wrench_stamped.header.stamp.nsecs,.wrench_stamped.header.frame_id,.wrench_stamped.wrench.force.x,.wrench_stamped.wrench.force.y,.wrench_stamped.wrench.force.z,.wrench_stamped.wrench.torque.x,.wrench_stamped.wrench.torque.y,.wrench_stamped.wrench.torque.z,.tactile_values.tactile_values_0,.tactile_values.tactile_values_1,.tactile_values.tactile_values_2,.tactile_values.tactile_values_3,.tactile_values.tactile_values_4,.tactile_values.tactile_values_5,.tactile_values.tactile_values_6,.tactile_values.tactile_values_7,.tactile_values.tactile_values_8,.tactile_values.tactile_values_9,.tag,.delta_wrench.force.x,.delta_wrench.force.y,.delta_wrench.force.z,.delta_wrench.torque.x,.delta_wrench.torque.y,.delta_wrench.torque.z,.wrench_stamped.wrench.force.magnitude,.wrench_stamped.wrench.torque.magnitude,.endpoint_state.wrench.force.magnitude,.endpoint_state.wrench.torque.magnitude,.endpoint_state.twist.linear.magnitude,.endpoint_state.twist.angular.magnitude
0,0,52.118344,5212.5,1521534142.0,63788056.0,,1868693.5,1521534141.0,482441734.0,,0.7691787515170001,-0.1070378721925,-0.06949140358789999,0.055186753751949987,0.9983301870604999,-0.01650371810335,0.004333253355124999,-0.006065518608297,-0.00289258611573,-0.008442872783954999,-0.008119193910764998,0.0107856980241,0.008701353810392,1.73549884558,0.5205467939374999,7.909327507019999,0.4668309241535,0.8996967673299999,0.34117428958400003,1869046.0,1521534141.0,475507144.0,,,,,,1373902.0,1521534142.0,60173599.0,,0.568000000715,1.7490000560900003,-1.71600112915,-0.1009999997915,-0.06100000068545,-0.048499999567850005,169.0,181.0,194.0,216.5,351.0,143.5,172.0,184.5,210.5,285.5,5.0,0.0,0.0,0.0,0.0,0.0,0.0,2.5152107411227274,0.1275705687044992,8.114208946101359,1.0694789763072532,0.01079072153614202,0.016061324657739205
1,1,52.2209081026,5222.5,1521534142.0,163876414.0,,1868703.5,1521534141.0,582439493.0,,0.7691525452914999,-0.1075346456025,-0.06937006279284999,0.0555606580506,0.998305472915,-0.0167382542013,0.00433555586833,0.001858360979425,0.0064977579592000005,-8.670750682999995e-05,0.016557024313092,8.550685488000007e-05,-0.0031809350875000014,1.29528570175,0.405776590109,7.740964889525001,0.481522604823,0.7311768531799999,0.35563519597050003,1869056.0,1521534141.0,575503809.0,,,,,,1373912.0,1521534142.0,160058243.5,,0.903000038862,1.34399996549,-2.051000213625,-0.09649999812245,-0.0534999985248,-0.048499999567850005,159.0,181.0,188.5,214.5,351.0,148.0,183.0,203.5,220.0,285.5,5.0,0.335000038147,-0.4050000906000002,-0.3349990844750001,0.004500001669049999,0.007500002160649992,0.0,2.6131105705101136,0.1205269656046642,7.859068463316584,0.944965609001042,0.006758837342171882,0.016860033023616525
2,2,52.3234722051,5233.5,1521534142.0,273469566.5,,1868712.0,1521534141.0,667511679.0,,0.769484665265,-0.107601960936,-0.0692066852725,0.0557168913314,0.9982983307369999,-0.0165946760276,0.00454836188867,0.0009315413889989999,0.00840305721589,0.00877596059057,0.00987562419075,-0.007498244625,0.005778225022529999,0.890879273415,0.342640519142,7.923962116239999,0.533407151699,0.613030672073,0.36885926127400004,1304096.5,1521534141.0,661790254.5,,,,,,1373922.5,1521534142.0,264286950.0,,-0.952000039814,1.1939999595300002,-1.886001205445,-0.1079999990765,-0.06149999797345,-0.0250000003725,151.0,195.5,205.0,224.0,357.0,140.0,166.0,172.0,219.5,277.0,5.0,-1.855000078676,-0.15000000595999974,0.16499900818000013,-0.011500000954050002,-0.007999999448649995,0.023499999195350004,2.4267139357788947,0.12677243221569648,7.981243263099116,0.8924051484687407,0.012185919096242883,0.013679894371823922
3,3,52.4260363077,5242.5,1521534142.0,365395545.5,,1868721.0,1521534141.0,757518673.0,,0.769412438312,-0.107260305272,-0.0694006243071,0.0552336006642,0.9983294996750001,-0.016343935875,0.00450945630432,-0.020827363087599998,-0.00273618812615,-0.012315746206200002,0.00135632628072,0.033399229429099994,0.0174399441162,1.62674951553,0.556722283363,7.81313419342,0.43701803684199997,0.863280773163,0.345955371857,1304102.5,1521534141.0,752286511.0,,,,,,1373932.0,1521534142.0,360729592.0,,1.2830000340899999,0.623999996483,-1.9909988403299999,-0.09899999946360001,-0.0599999986589,-0.0410000011325,160.0,184.0,198.5,225.5,355.5,158.0,187.0,190.0,238.0,274.0,5.0,2.235000073904,-0.5699999630470002,-0.10499763488500014,0.008999999612900003,0.001499999314549992,-0.016000000759999997,2.4493961429873137,0.12280879376382542,8.00008247529104,1.0275814211802672,0.02435042881059668,0.03770278236700323
4,4,52.528600410299994,5254.5,1521534142.0,483893990.5,,1868734.0,1521534141.0,887515628.0,,0.7698414578464999,-0.1077040594775,-0.06917370026389999,0.055666297290600006,0.9983018263465,-0.016487193454850002,0.004766899779489999,0.00890849577924,0.0021882365216350005,0.0077694160274460015,0.0033919987764,-0.015720728316165,0.0032420565584435003,1.47391664982,0.2944525480275,7.787543296815,0.5669469535355001,0.8264696598055,0.35015702247599995,1304111.5,1521534141.0,872798627.5,,,,,,1373944.0,1521534142.0,479909805.0,,0.48299984335900004,0.124000003934,-1.91100082397,-0.09600000083450001,-0.05099999904630001,-0.029999999329400007,151.0,184.0,198.5,205.0,368.5,140.0,169.0,176.0,220.0,282.0,5.0,-0.8000001907310001,-0.499999992549,0.07999801636000002,0.002999998629099998,0.008999999612599993,0.011000001803099992,1.9749908857699747,0.11276967687596966,7.93126491761716,1.0616453678566404,0.0120213768567036,0.01640603197662121
5,5,52.6311645128,5263.5,1521534142.0,573533415.0,,1868742.0,1521534141.0,967518433.0,,0.7700009675985,-0.1077744965355,-0.06900339579535,0.0557124932373,0.9982997908195,-0.016365690545350003,0.005079629878075,-0.005151667448774999,-0.006571836801649999,-0.006038919578849999,0.007745167214554999,0.01041348438691,-0.01439170052928,1.21963876486,0.2081286162139,7.820863008494999,0.6542456150055,0.7352897822855,0.3771975785495,1304117.5,1521534141.0,963802304.0,,,,,,1373952.5,1521534142.0,567230144.5,,-0.37700005173699996,1.2040000096,-1.776000595095,-0.097500000149,-0.0530000012368,-0.04700000025329999,150.0,192.0,201.0,223.0,357.0,158.0,167.5,170.0,223.0,276.0,5.0,-0.8599998950959999,1.080000005666,0.13500022887500007,-0.0014999993145000112,-0.0020000021904999915,-0.017000000923899982,2.1785139834080236,0.12051659713071058,7.918126952460524,1.054023909572733,0.01030520577815441,0.019379094828766236
6,6,52.7337286154,5274.5,1521534142.0,684980034.0,,1868754.0,1521534142.0,87513663.0,,0.7690874357155,-0.108123298786,-0.06970937466739999,0.0559538410083,0.998290027319,-0.0164565757419,0.003915982048895,0.00041030714929149984,0.0019553544090300003,0.00043090795840000027,0.009137914399444998,0.00041404753679000027,-0.004237743960550001,1.54783260822,0.2941018790005,7.839249610905,0.6193752586845,0.8482627272605,0.3803288638595,1869106.0,1521534142.0,75572810.0,,,,,,1373964.0,1521534142.0,681760724.5,,0.7379999578,0.4239999935025001,-2.011001205445,-0.10600000247400004,-0.058999998495,-0.0689999982715,158.0,189.0,207.0,214.0,369.0,160.0,163.0,189.5,230.0,292.0,5.0,1.115000009537,-0.7800000160974998,-0.23500061035,-0.00850000232500002,-0.005999997258199996,-0.02199999801820001,2.1837000207226644,0.1395636059593081,7.996006263152559,1.1170610593045356,0.002043879764145933,0.010081239448078004
7,7,52.8362927179,5281.5,1521534142.0,754466533.0,,1868762.5,1521534142.0,172522794.5,,0.7697372373665,-0.10888459945999998,-0.06933268710175,0.05673052266925,0.9982451521369999,-0.016364382461000002,0.004507382218119999,0.004584298101224999,0.002785390790240001,0.0011392581030150008,0.008243046623905,-0.008485966691449999,0.0053957470157000005,1.645644187925,0.7559437751770001,7.8063132762950005,0.354684859514,0.8740894496439999,0.34473101794699995,1869115.5,1521534142.0,170577936.0,,,,,,1373971.0,1521534142.0,749027321.0,,1.66299991012,1.00399999171,-2.35099945068,-0.09499999880789999,-0.052000001072899996,-0.052999999374199996,160.5,173.0,200.0,225.0,378.0,152.0,162.5,183.5,236.0,304.0,5.0,0.92499995232,0.5799999982074999,-0.3399982452349999,0.01100000366610003,0.006999997422099996,0.01599999889729999,3.0497185282432984,0.12057362820595471,8.013621076151516,1.0043272326698063,0.005483803421033096,0.01300282793048135
8,8,52.9388568205,5295.5,1521534142.0,893598079.5,,1868776.5,1521534142.0,312518208.5,,0.769973022801,-0.109206308039,-0.06931608980144999,0.056992458880099996,0.9982306799765,-0.01631081802505,0.004615207373475001,0.007625520471730002,0.002330444352290001,0.0018963617745469,0.020230811227115,-0.013363110934405,-0.0159173118417,1.275442779065,0.7309336662295001,7.742508172989999,0.3028191328045,0.7314457297325,0.322498083115,1304141.5,1521534142.0,313784724.0,,,,,,1373984.5,1521534142.0,885662114.5,,1.0779998719715,0.983999980984,-1.44600067139,-0.109999999404,-0.06599999777975,-0.0815000012517,162.0,183.0,212.0,221.0,346.0,164.5,167.5,191.0,234.0,304.5,5.0,-0.5850000381484999,-0.020000010726,0.9049987792899998,-0.015000000596100004,-0.013999996706850005,-0.028500001877499993,2.0545699375313107,0.151981083625016,7.880828072982793,0.8548200374050834,0.008196079631375988,0.02900378032288722
9,9,53.041420923100006,5304.5,1521534142.0,983561515.5,,1868785.5,1521534142.0,402520256.5,,0.7703296620000001,-0.1089193760865,-0.06915320442549999,0.0569185685969,0.9982369815105,-0.01607260306285,0.004986137032134999,-0.01577518993945,0.004018521838859999,-0.008581300773225001,0.003174142837160001,0.033261574813349994,-0.0032802105061750003,2.1786360144600003,0.7679613828659999,7.028223991395,0.35863530635799995,1.108954846855,0.3439966887235,1869137.5,1521534142.0,390585663.0,,,,,,1373994.0,1521534142.0,980377894.5,,2.23299996257,2.1640000179400003,-1.721000289915,-0.10649999976169999,-0.07250000163914999,-0.05700000002980001,150.0,181.0,200.0,229.0,339.0,160.0,163.5,191.0,247.0,284.5,5.0,1.1550000905985,1.1800000369560002,-0.2749996185249999,0.0034999996422999946,-0.006500003859399986,0.024500001221899992,3.5540156032816537,0.14088115626412231,7.398118141953121,1.2152093882053518,0.018402278618575234,0.03357331265722216
10,10,53.1439850256,5312.5,1521534143.0,63500523.5,,1868793.5,1521534142.0,482533874.0,,0.7695109024654999,-0.1090946904245,-0.07004507361949999,0.056646081468399986,0.998250972799,-0.0163653669108,0.00416316934979,-0.00230924759333,-0.007308404032755002,-0.00719953772516,-0.01023437424355,0.008873621563275001,-0.006203534956742,2.113807439805,0.7518662214274999,7.4522974491100005,0.3368959128855,1.0632349252700002,0.3255841732025,1869146.0,1521534142.0,475573867.0,,,,,,1374001.5,1521534143.0,55257177.0,,0.9279998958110001,1.608999951185,-1.931001281735,-0.1060000024735,-0.06450000032785,-0.0565000008792,153.5,182.5,196.5,230.5,366.0,143.5,165.0,184.0,212.0,283.5,5.0,-1.3050000667590005,-0.5550000667550004,-0.2100009918200001,0.0004999972882000077,0.008000001311299992,0.0004999991506000057,2.6793339843328177,0.13633965184796482,7.782687323637643,1.1618831336553659,0.010515642510531251,0.014898571131648119
11,11,53.246549128199995,5325.5,1521534143.0,193421959.5,,1868806.5,1521534142.0,612516223.5,,0.7688094239485,-0.108875652265,-0.07063457562629999,0.056544742073100014,0.998259643004,-0.016354874731499998,0.00357899609349,-0.00439049537015,-0.0085603257704,0.00016600141559999955,-0.009362641426220002,0.0099803118416595,-0.00932292184825,2.6708699464800003,1.4342261552850002,7.2650473117850005,0.04958781227465,1.226925313475,0.2905754446985,1304162.5,1521534142.0,612795717.0,,,,,,1374014.5,1521534143.0,185946859.5,,0.287999910116,0.9439999818785,-1.546001052855,-0.0930000022054,-0.05199999921025,-0.04550000093874999,156.0,183.5,188.0,216.5,338.5,133.0,136.0,175.0,223.0,273.0,5.0,-0.6399999856949999,-0.6649999693065001,0.3850002288800001,0.013000000268099998,0.012500001117600005,0.010999999940450013,1.8341753377041685,0.11585875199352294,7.8721955881436365,1.2618394371050716,0.009622015556039398,0.016558458585306694
12,12,53.3491132308,5336.5,1521534143.0,303423523.0,,1868815.0,1521534142.0,697006553.0,,0.768409279567,-0.108794100507,-0.0698559985212,0.0560241545902,0.998287994932,-0.0164007757045,0.0036589389179099998,0.00145042045922,-0.000504716557815,0.0061437850029399995,-0.0060986776361800004,-0.033009719449999995,0.0205181769287,-0.717254161835,0.32601800561,8.13657951355,0.654132306576,0.211941704154,0.385796904564,1869168.0,1521534142.0,695104899.0,,,,,,1374025.5,1521534143.0,297540622.0,,1.1379999339565,3.02399997264,-1.72100028992,-0.1009999997915,-0.07200000062584999,-0.07000000029805001,160.5,179.5,202.0,219.5,348.5,141.5,155.5,179.5,237.5,291.0,5.0,0.8500000238404999,2.0799999907615,-0.1749992370650002,-0.007999997586099997,-0.020000001415599995,-0.024499999359300025,3.6608006886631292,0.1424254193946165,8.17463561591421,0.7884463279369774,0.006332815525073111,0.03934248380002446
13,13,53.4516773333,5345.5,1521534143.0,393436550.5,,1868824.0,1521534142.0,787002435.0,,0.7650637396500001,-0.110373141765,-0.0683021332612,0.05757033165569999,0.998171528221,-0.0182279449515,0.0026455973624200002,-0.0732769809611,-0.0264190939513,0.028706519227299998,-0.06250810879390001,0.063845600549,-0.131056933902,3.4592013359099996,1.02696597576,8.07743358612,0.411354601383,1.8763169050200001,0.273008048534,1869177.0,1521534142.0,785073914.0,,,,,,1374035.0,1521534143.0,393493278.0,,1.70799998641,2.798999948795,-1.266000366212,-0.1290000006555,-0.135999996215,-0.06350000202655001,181.0,196.0,216.0,243.0,345.0,153.0,193.0,194.0,250.0,285.5,5.0,0.5700000524535,-0.22500002384500029,0.4549999237080002,-0.028000000863999997,-0.06399999558915001,0.006499998271499996,3.5148857156641515,0.19791222649692683,8.846788475820455,1.940183272453183,0.08301535225564229,0.15861728877472878
14,14,53.5542414359,5356.5,1521534143.0,503471970.0,,1868835.0,1521534142.0,897019500.0,,0.7570469747390001,-0.1124621129065,-0.06049838965645001,0.05923104126055,0.998008699493,-0.021666550343200003,-0.000933556972215,-0.06950327559069999,-0.033343258530599995,0.08685108782279999,-0.07782262624564999,0.041450614026949995,-0.0012558718748450007,4.7083158493049995,1.4923142194749999,7.4509100914,0.5985192060469999,2.128966927525,0.2645862698555,1869188.0,1521534142.0,895103501.0,,,,,,1374045.5,1521534143.0,495846106.0,,0.29299990534750003,2.683999939265,-1.321000671389,-0.0925000011921,-0.036500000394850005,-0.0764999985695,150.0,199.5,204.0,219.0,345.0,171.0,173.0,187.0,257.0,288.0,5.0,-1.4150000810625,-0.11500000952999967,-0.05500030517700005,0.036499999463399976,0.09949999582015,-0.01299999654294999,3.0057856530894473,0.12546214580699652,8.93931211316566,2.2272699236281213,0.1161274716132188,0.08818215110297174
15,15,53.6568055385,5364.5,1521534143.0,583891987.5,,1868843.0,1521534142.0,977009312.0,,0.753191509958,-0.11408009028300001,-0.052311794632199995,0.0602907533522,0.997912989796,-0.0231123987752,-0.0007119542263860001,-0.021069537570700004,0.00433516518488,0.12387845544199999,0.0189592075534,-0.0672906541371,-0.00576355667572,3.92726373672,1.88523876667,7.05235767365,0.43304470181500004,1.8291232585900004,0.260984122753,739180.0,1521534142.0,975000064.0,,,,,,1374053.5,1521534143.0,576057227.0,,1.0029999434965,1.298999978601,-1.67100105286,-0.1000000014903,-0.061500001698699985,-0.054999999701950006,139.0,183.5,194.0,215.0,337.5,163.0,175.0,200.0,259.5,288.0,5.0,0.7100000381489999,-1.384999960664,-0.3500003814710002,-0.007500000298199984,-0.025000001303849988,0.02149999886755,2.342147380016597,0.12964278026259157,8.289347044381808,1.8977176610903153,0.12573221859698058,0.07014771750246725
16,16,53.759369641000006,5372.5,1521534143.0,663463950.0,,1868850.5,1521534143.0,52009636.0,,0.750415996699,-0.113550717756,-0.04362336761885,0.0591338797563,0.9979867602545001,-0.022919929777250003,0.0004400220866125,-0.0417884752675,0.00418308492459,0.124778780284,-0.006841381483689999,-0.03143035252125,0.04673446953985,3.7616151571300014,2.05294406414,6.508318901065,0.140034891665,1.7421231269849995,0.1894749179485,1304193.5,1521534143.0,63549698.5,,,,,,1374061.5,1521534143.0,656322522.0,,1.6430000484,1.394000037015,-1.14600143433,-0.10000000149035003,-0.08049999922515,-0.042500000447,128.0,177.0,192.0,195.5,331.0,170.0,191.0,198.0,263.0,283.0,5.0,0.6400001049035,0.09500005841400004,0.5249996185300001,-5.0015547259363296e-14,-0.01899999752645001,0.012499999254950005,2.4404926858580507,0.1352275867244334,7.79246705728024,1.7579827942819042,0.1316568223596162,0.05673431239899352
17,17,53.8619337436,5387.5,1521534143.0,813443422.0,,1868868.5,1521534143.0,232005036.5,,0.7459929359515,-0.111561672418,-0.02385172578775,0.056543855922849995,0.9981009659669999,-0.0239047624473,0.005052023181550001,-0.015791527785585,0.00648537767949,0.0967135617822,-0.03753591135405,-0.03556468051225,0.0697220802,6.408623695369999,2.1113997697799998,3.658298015595,0.20329555124045,2.641700029375,0.20628800243099998,1869221.5,1521534143.0,230094595.0,,,,,,1374076.5,1521534143.0,807752832.0,,1.0129999339600002,1.4389999941,-1.061000442503,-0.132999997586,-0.0819999985397,-0.062499998137350014,121.0,177.0,194.5,209.0,323.0,170.0,177.0,208.0,244.0,300.5,5.0,-0.6300001144399998,0.04499995708499993,0.08500099182700005,-0.032999996095649985,-0.001499999314549999,-0.01999999769035001,2.054899459393166,0.16828324006137857,7.675389959317453,2.657529466685366,0.0982086834554254,0.08680414511146772
18,18,53.9644978462,5394.5,1521534143.0,883450030.5,,1868875.5,1521534143.0,302004806.5,,0.7461957427070001,-0.108343263882,-0.0188079343583,0.05573319291195,0.9981842877045,-0.02182018221465,0.006734960160815,0.024484743298150004,0.0517217613499,0.0721666716302,0.08930166511460001,-0.07523632205775001,0.0029183129099080002,8.091133356095,2.4647977352100003,1.474967956545,0.03812678717095,2.9912897348400005,0.2136262506245,1869227.0,1521534143.0,285071593.0,,,,,,1374083.5,1521534143.0,877012260.0,,1.3829999387299998,1.499000056085,0.299000167847,-0.09099999815224999,-0.08000000193715,-0.05750000104309999,127.0,186.5,189.0,192.0,333.0,170.0,188.0,203.0,250.0,308.0,5.0,0.3700000047699996,0.060000061985000075,1.36000061035,0.04199999943375,0.00199999660255,0.004999997094250024,2.0613323601599403,0.13411655413710122,8.58587196121885,2.9991505638455402,0.09210142097543027,0.11680671256078473
19,19,54.0670619487,5406.5,1521534143.5,503440975.5,,1868887.5,1521534143.0,422007516.5,,0.7235103286750001,-0.1167724673135,-0.010829584177749998,0.057464603848,0.997637416905,-0.03450164159105,-0.014718885581450004,-0.2584749646375,-0.11645863230655,0.05753627380505001,-0.248128859022,0.4509723246685,-0.1522021932255,32.464183807350004,9.8380060196,-6.4138619899750005,-1.107389360666,9.448161363605,0.032301113009499983,1304219.0,1521534143.0,421546212.0,,,,,,1374095.5,1521534143.5,497461531.0,,9.72300032975,7.643999858200001,-0.5960002899181001,0.505000010133,0.8274999856955001,-0.0480000004172,132.0,187.0,203.0,221.0,344.0,338.0,356.0,361.5,369.0,400.5,5.0,8.34000039102,6.1449998021150005,-0.8950004577651001,0.59600000828525,0.9074999876326499,0.009500000625899991,12.38235379845297,0.970610754422407,34.523140331457945,9.512891658730073,0.28927900578237403,0.5367583030742263
20,20,54.1696260513,5414.5,1521534144.0,90181469.5,,1868896.0,1521534143.0,507008851.0,,0.727351709895,-0.114887131341,-0.0101582693394,0.0574520043798,0.997862724171,-0.0302369430265,-0.00741472711555,0.141965761927,0.0809726403332,-0.018280522692,0.245298709066,-0.413112769473,0.022607748366,11.601097106900001,4.77226066589,1.94368040562,-0.17783749103500002,3.6331746578199993,0.331494748592,1869247.0,1521534143.0,485108900.0,,,,,,1374104.5,1521534144.0,87452831.0,,3.192999881505,-0.421000020206,0.6489986419680001,-0.05099999997765002,-0.10450000315880001,-0.011500000255205001,132.0,187.0,203.0,221.0,344.0,283.0,290.0,297.5,312.0,357.0,5.0,-6.5300004482450005,-8.064999878406,1.2449989318861,-0.55600001011065,-0.9319999888543,0.036500000161995005,3.2853749401827343,0.11684819495302111,12.694007226487448,3.652598121308607,0.16445371249058544,0.48098308416957714
21,21,54.272190153800004,5426.5,1521534144.0,203479528.0,,1868907.5,1521534143.0,622006203.0,,0.7386155972300001,-0.1092006911645,-0.013171072679649998,0.05739968622280001,0.9981310252215,-0.02004875791705,0.006107163998664999,-0.0346630214114,0.001142000034300001,0.0202344827458,-0.035449487943794995,0.0934046209939,0.0040787149539855,-5.091249465940001,-0.02928971126675,13.358759403249998,-0.14344127848729998,-0.31647315621350003,0.328841343522,1869260.0,1521534143.0,615076713.0,,,,,,1374115.5,1521534144.0,197157415.0,,0.4879999578,4.67900006324,0.9389995574925,-0.3219999969005,-0.4864999949935001,-0.08500000089404999,132.0,187.0,203.0,221.0,344.0,279.0,301.0,305.0,339.0,352.0,5.0,-2.7049999237050004,5.100000083446,0.2900009155244999,-0.27099999692284993,-0.3819999918347001,-0.07350000063884499,4.797176848896009,0.5895686925919542,14.296087989570458,0.47840076106456975,0.040153001250661124,0.09998862602399952
22,22,54.3747542564,5434.5,1521534144.0,286160468.5,,1868913.0,1521534143.0,677091722.0,,0.731452208213,-0.112876656674,-0.0103776188185,0.0568868311874,0.99804214328,-0.025913618076400004,-0.00206229799036,-0.173146042055,-0.0697020308117,0.0429496277336,-0.239502897386,0.37886269814499995,0.0383411811176,4.7746591568,1.75818920135,6.18249225616,0.0908442884684,2.03789424896,0.272975981236,1304237.0,1521534143.0,677594459.0,,,,,,1374124.0,1521534144.0,283272919.0,,2.26799992919,2.9089999631050003,0.8239997863785,-0.0554999988526,-0.16849999874850002,-0.07299999892714999,132.0,187.0,203.0,221.0,344.0,299.0,319.5,342.0,373.0,378.0,5.0,1.7799999713900003,-1.770000100135,-0.11499977111399995,0.2664999980479,0.3179999962450001,0.012000001966899999,3.7795608358779664,0.1918371686984746,8.006985064856572,2.0581014408972482,0.19152700984728455,0.44985400750853693
23,23,54.477318358999995,5449.5,1521534144.0,433518528.0,,1868926.0,1521534143.0,807076891.0,,0.71931519382,-0.11874363908600001,-0.0057800425067099995,0.055866575154900004,0.9976866739390001,-0.0355224356115,-0.015439656534,-0.00022330953099999998,-0.00782550361072,0.021192163832400003,-0.0141833803626,-0.015402533681399997,0.006172553526289999,7.140287399289999,2.1145982742299996,3.4757118225099997,0.248076617718,2.2336974144,0.261173963547,739213.0,1521534143.0,828999936.0,,,,,,1374138.5,1521534144.0,427427632.5,,3.033000034095,2.408999963105,0.4289993286134,-0.0985000021757,-0.07400000095369999,-0.033999999985100005,132.0,187.0,203.0,221.0,344.0,151.5,184.0,187.5,227.0,267.5,5.0,0.7650001049049999,-0.5000000000000004,-0.3950004577651,-0.04300000332309999,0.09449999779480003,0.03899999894204999,3.8969745255789023,0.1278055185379227,8.218016955383568,2.262555631711737,0.022591949491075576,0.021829034320183835
24,24,54.5798824615,5458.5,1521534144.0,523658513.5,,1868935.0,1521534143.0,897077291.0,,0.7249892899410001,-0.115682454125,-0.00618335609389,0.0551800151453,0.997951655043,-0.0313719199175,-0.00796635207211,0.0874051072171,0.0454570032878,-0.00596794887417,0.142856049571,-0.22208691336800002,-0.018135119520900002,3.7176156044,1.51595938206,5.7433142662,0.295826941729,1.5681216716799995,0.279437482357,1304253.0,1521534143.0,918067603.0,,,,,,1374147.5,1521534144.0,516163278.0,,3.132999938725,2.643999977405,0.038999938964835,-0.1259999983013,-0.11450000107275002,-0.0560000017285,132.0,187.0,203.0,221.0,344.0,161.5,172.0,180.5,213.0,234.0,5.0,0.09999990462999976,0.23500001430000014,-0.38999938964856495,-0.027499996125599988,-0.04050000011905003,-0.022000001743399996,4.0997494425644785,0.17922681164150459,7.0074572699710815,1.6200631046941436,0.09869958626713951,0.26468723155527335
25,25,54.6824465641,5465.5,1521534144.0,593713998.0,,1868944.0,1521534143.0,987077124.0,,0.729962237608,-0.11353731317299999,-0.00674142942576,0.0559753724512,0.9980426726189999,-0.027774843420700003,-0.00247777800823,0.0059978049036,-0.00169916000447,-0.00317455031253,-0.0207937196787,-0.022282127707400002,0.0334766463777,-0.6005959510800001,0.59319627285,7.659109592439999,0.141089558601,0.542968332767,0.324246644974,1304258.5,1521534143.0,984066962.0,,,,,,1374155.0,1521534144.0,591678065.0,,0.48299984335900004,2.57399992496,-0.19099960327100002,-0.17700000107299999,-0.125,-0.046999998390699994,132.0,187.0,203.0,221.0,344.0,129.5,139.5,191.5,203.5,231.0,5.0,-2.650000095366,-0.07000005244500017,-0.22999954223583502,-0.051000002771700026,-0.010499998927249982,0.009000003337799996,2.6258799117302725,0.22172731051579506,7.705488762147618,0.647963548906029,0.006995611343494078,0.04527204265264395
26,26,54.7850106667,5479.5,1521534144.0,733725070.5,,1868958.0,1521534144.0,127086991.0,,0.7274425232539999,-0.11427584827,-0.005322588251689999,0.055095461541800006,0.998023070355,-0.0298029862964,-0.00512085578052,-0.0246716510858,0.00530928565452,-0.007730170109220002,-0.0152283156012,0.0662457626626,0.0154209333954,4.68188428879,1.9853163957599997,5.61675882339,-0.123749524355,2.10247969627,0.28930413723000004,1304268.5,1521534144.0,134067860.0,,,,,,1374168.5,1521534144.0,729119317.0,,1.80800001025,0.7740000098925001,-1.331000900265,-0.1044999994335,-0.0949999988079,-0.044999999925499995,132.0,187.0,203.0,221.0,344.0,124.5,137.0,177.0,202.0,216.0,5.0,1.3250001668909999,-1.7999999150674997,-1.1400012969939999,0.0725000016395,0.03000000119210001,0.0019999984651999994,2.3747638722373705,0.14822364739945343,7.576905790955931,2.125895505857255,0.026393832828489054,0.06970084542948272
27,27,54.8875747692,5488.5,1521534144.0,823571085.5,,1868969.5,1521534144.0,242099063.0,,0.7264348917425001,-0.1151026657335,-0.006773130036945,0.0558245475845,0.997965184134,-0.03010818723245,-0.0065191017872100005,0.011004954668344998,0.0041398414993750006,0.0015612072764785,0.010660957864889999,-0.02113137297609,-0.00426877540886,3.322332024575,1.78518915176,6.934624671935,-0.08821678906675,1.658387303355,0.2779804319145,1869322.5,1521534144.0,240164975.0,,,,,,1374177.5,1521534144.0,819166985.0,,2.32299975753,0.6989999994634999,0.829000854492,-0.0854999981821,-0.1640000045295,-0.04700000025329999,132.0,187.0,203.0,221.0,344.0,115.5,119.0,179.0,204.0,212.0,5.0,0.5149997472799999,-0.07500001042900017,2.1600017547570003,0.01900000125140001,-0.06900000572160002,-0.0020000003277999834,2.563624638960017,0.19082780509827527,7.893909660598341,1.6838360283381777,0.01186105741712792,0.02405022640107312
28,28,54.990138871800006,5498.5,1521534144.0,924872994.0,,1868979.5,1521534144.0,342094849.0,,0.7264329977685,-0.1148490193605,-0.00608504703565,0.05601605161719999,0.997949918235,-0.030261192266450007,-0.00650760985871,-0.006272383127445,0.0025687058822235,0.00138727334493,-0.004691321852313,0.012530072604525,0.006546658961390001,3.442738890645,1.7386943101900003,6.206710338590001,0.03129944391551,1.5207320451750002,0.281643733382,1869332.5,1521534144.0,340148999.0,,,,,,1374187.5,1521534144.0,919387496.0,,3.657999795675,1.084000004827,-0.641000366211,-0.07799999788405,-0.1285000033675,-0.0369999986142,132.0,187.0,203.0,221.0,344.0,117.0,145.0,172.0,207.5,227.0,5.0,1.335000038145,0.3850000053635001,-1.4700012207030002,0.007500000298049994,0.035500001162,0.010000001639099991,3.868707792675212,0.15480713947622093,7.307445668672922,1.5469094352821402,0.006918494586279561,0.014895300055836586
29,29,55.0927029744,5510.5,1521534145.0,43579458.5,,1868991.5,1521534144.0,462098920.5,,0.7272520344069999,-0.11423608997,-0.0056738663298150005,0.0556860313177,0.997993651258,-0.02961331040535,-0.0055468497642250005,-0.01316498248974,0.011007978179114999,-0.00234549904531,-0.00515782698897,0.015328859959720003,0.0147357975202,2.8190288543700004,1.84340697527,6.152218341825,-0.15776862949114998,1.48138076067,0.2677811086175,1869344.0,1521534144.0,455174979.0,,,,,,1374199.5,1521534145.0,38870635.0,,0.932999891043,1.51899997741,-1.2609992980949998,-0.1494999974965,-0.107000000775,-0.0340000018477,-1681.0,-1584.0,-1553.0,-1467.5,-1433.5,123.5,165.0,171.5,196.5,218.0,5.0,-2.724999904632,0.4349999725830001,-0.6199989318839998,-0.07149999961244999,0.0215000025925,0.002999996766499993,2.1835679421199408,0.18696323045707974,7.013905009602901,1.5136335820360096,0.01732032659387758,0.021879690479282083
30,30,55.195267076899995,5518.5,1521534145.0,123489498.5,,1868999.0,1521534144.0,537096822.0,,0.7267505165474999,-0.1143557277915,-0.006162956741270001,0.05530472286825,0.9980018476885,-0.0299482193758,-0.00603923576748,-0.0189121615995,0.006910694790004999,-0.0090378441812415,-0.0026395428901915003,0.032304767070650005,0.02908311542775,3.748379230495,2.1457258462900004,6.251268863675,-0.2614217698575,1.792329669,0.26583591103549997,1869351.0,1521534144.0,525162501.0,,,,,,1374207.5,1521534145.0,118614184.0,,2.538000148535,2.564000053705,-0.6860004425049999,-0.1150000020865,-0.11100000143100001,-0.07250000163914999,-421.0,-412.0,-399.0,-393.5,-341.5,122.0,143.0,169.0,207.5,217.5,-1.0,1.605000257492,1.045000076295,0.5749988555899999,0.034499995410000005,-0.004000000655999994,-0.03849999979144999,3.672347700923754,0.1755057008625468,7.598213518255179,1.8306981498131119,0.022070572858233776,0.04354759195572062
31,31,55.2978311795,5531.5,1521534145.0,253509402.0,,1869010.5,1521534144.0,652419014.0,,0.7259818111855,-0.113885110449,-0.00648401480062,0.054759063023150006,0.998019473069,-0.03022304770765,-0.006707908352385,-0.0038784169388190004,-0.000704935852358,-0.008562523435654999,-0.003964044216395,0.00771033899291,0.010782413654525001,4.490866899489999,2.1054651737250003,6.248917341235001,-0.223996318877,2.016814768315,0.240949437022,1869363.0,1521534144.0,645283876.0,,,,,,1374220.5,1521534145.0,248501838.5,,1.532999914885,1.92899994403,-1.136001205445,-0.118000000715,-0.09349999949340004,-0.04450000077485,-22.5,-12.0,16.0,26.5,173.5,126.0,168.0,189.0,200.0,218.0,-1.0,-1.00500023365,-0.635000109675,-0.45000076294,-0.0029999986284999923,0.017500001937599968,0.0280000008643,2.7132320692999436,0.15699203847000479,7.978084798013322,2.0434707709593387,0.009426338636681738,0.01383558521177945
32,32,55.4003952821,5539.5,1521534145.0,333576082.5,,1869018.0,1521534144.0,726992508.0,,0.7269030527295,-0.113951588025,-0.00596639826292,0.05489939851185,0.998024808702,-0.0299874897284,-0.005762045423595001,0.0028142889385349996,-0.0017566971852135,0.00269209238289,-0.0027484702825649994,-0.008397484237200003,-0.0021515577510149994,3.72107541561,1.874295771125,6.314460515975,-0.1419652216135,1.803096711635,0.266918078065,1304309.5,1521534144.0,728020614.0,,,,,,1374228.5,1521534145.0,327938526.0,,1.41299991012,1.6740000084050002,-0.8609996795675,-0.1304999999705,-0.14400000125149998,-0.06699999794365,26.0,27.0,30.0,66.0,217.0,131.0,133.0,172.0,198.5,227.5,-1.0,-0.12000000476500006,-0.2549999356249999,0.27500152587749993,-0.012499999255499994,-0.05050000175809995,-0.022499997168800003,2.3537555570522626,0.20556081843868396,7.565170090230719,1.8282661556935944,0.0042724195285706494,0.00909401073037184
33,33,55.5029593846,5549.5,1521534145.0,433450937.0,,1869028.5,1521534144.0,832005240.5,,0.7270887654885001,-0.1136231449335,-0.006033619444565,0.055187210577,0.9980137878315,-0.02985507337155,-0.0056030067202299996,0.0007845408064099997,-0.00951949162386,-0.0044415085996700005,-0.0012480451482151,0.008957267553840001,-0.035226683546650005,4.882848739625,2.1613471508,6.082991600040001,-0.27625194191950003,2.16023635864,0.23291168361900005,1304316.5,1521534144.0,829031113.5,,,,,,1374238.5,1521534145.0,427678324.5,,1.347999972105,0.7589999943975,-0.4059997558590001,-0.127500001341,-0.119500003755,-0.05250000022355,45.0,53.0,63.0,78.0,232.0,127.0,136.0,187.5,197.5,228.5,-1.0,-0.06499993801499993,-0.9150000140075002,0.4549999237084999,0.002999998629499984,0.02449999749649999,0.014499997720099994,1.599381354789424,0.18246301341058896,8.094221403352266,2.1902475003913917,0.010533908282048298,0.03636907329612456
34,34,55.6055234872,5561.5,1521534145.0,553491949.5,,1869040.0,1521534144.0,947012287.0,,0.7284051006535,-0.113388728333,-0.005284416783519999,0.055801652100300005,0.9980026336865,-0.02923150574215,-0.004682569610989999,-0.0010687104003999984,0.001870484316975,-0.0010482016032999997,-0.0014204274484000009,0.0058120542851999996,0.001933253471200002,4.424473762509999,2.019780397415,6.28811454773,-0.25591194629700004,2.030130267145,0.2276688963175,1304325.5,1521534144.0,944531502.5,,,,,,1374250.5,1521534145.0,547858662.0,,1.73299996257,1.883999986945,-1.2709995269749998,-0.1474999934435,-0.127999998629,-0.0560000017285,39.5,42.5,44.0,75.0,243.0,122.0,147.0,195.0,209.0,211.5,-1.0,0.3849999904649999,1.1249999925475,-0.8649997711159998,-0.019999992102500003,-0.008499994874000008,-0.003500001504949994,2.858003607178804,0.2031655677235898,7.94958272453938,2.05882319595107,0.002395742077339138,0.006287691001805566
35,35,55.7080875897,5571.5,1521534145.0,653566002.0,,1869050.0,1521534145.0,47005909.0,,0.72957206689,-0.113547027804,-0.00463423667864,0.056108777973800004,0.9979880228229999,-0.0293005915315,-0.00363134579305,0.02424735966,0.0187227690141,0.0131531350556,0.028883301251599998,-0.0511695070469,0.0029153593981900002,3.21311783791,1.6596777439100001,5.95065546036,-0.09966118633749999,1.58652496338,0.246101886034,1304332.5,1521534145.0,45037587.5,,,,,,1374260.5,1521534145.0,647771564.0,,0.907999914883,0.924000008402,-1.1260009765649999,-0.1199999973175,-0.10949999839050001,-0.032500000670550006,61.0,72.5,79.0,81.5,232.0,142.0,148.0,179.5,194.5,200.0,-1.0,-0.8250000476870001,-0.959999978543,0.14499855040999976,0.027499996126,0.0185000002385,0.02350000105794999,1.71642595534435,0.16566984954210967,6.963401242341123,1.6085894285987337,0.03333888858116887,0.058830798592523305
36,36,55.8106516923,5580.5,1521534145.0,743563055.5,,1869059.5,1521534145.0,142004587.0,,0.729556845002,-0.1130080516735,-0.00451893825879,0.056102265197,0.9979995091314999,-0.0288805686758,-0.00391154519459,-0.005215107343664999,0.00483218257897,-0.0018535181041700005,0.002373502382526,0.016576082762475,0.010603995737775,4.22732400894,2.046342551705,5.913630485535,-0.275539726019,1.94446772337,0.2358981519935,1304339.0,1521534145.0,145058579.0,,,,,,1374269.5,1521534145.0,739407681.0,,2.217999738455,2.17899994403,-0.6260009765625,-0.115499999374,-0.10850000381465,-0.0420000012964,50.5,58.5,64.0,73.5,227.5,151.0,165.0,194.0,210.5,211.0,-1.0,1.3099998235720005,1.2549999356280002,0.5000000000025001,0.004499997943500006,0.0009999945758499967,-0.009500000625849991,3.171662153907064,0.1639405404165506,7.551742291347607,1.9780103149266652,0.00734730307289251,0.01982031177643348
37,37,55.9132157949,5588.5,1521534145.0,823461532.0,,1869069.5,1521534145.0,242008338.0,,0.7297082037645001,-0.11295535382099997,-0.004637666182285,0.055759745690800014,0.9980217665375,-0.02879803854145,-0.003729175688755,-0.011121397270639998,-0.008689596115270001,-0.010354220461899998,-0.017124738560615,0.02420064289805,0.0055718139974499994,4.33973956108,2.115487575535,6.001761913299999,-0.2831235975025,1.9919749498400003,0.2445681095125,1304346.0,1521534145.0,241048627.0,,,,,,1374277.5,1521534145.0,818962809.0,,1.407999914885,0.7290000043789999,-0.6909996032715,-0.106499999762,-0.119999997318,-0.020500000566250003,52.0,57.0,61.0,86.0,227.0,130.0,143.5,183.5,212.0,221.5,-1.0,-0.8099998235700001,-1.4499999396510002,-0.06499862670900003,0.008999999612000016,-0.01149999350335,0.021500000730149998,1.7295621464469324,0.1617482591215196,7.702582242610867,2.0268045619751667,0.017504411994452795,0.03016575705449031
38,38,56.015779897399995,5600.5,1521534145.0,943502545.0,,1869081.5,1521534145.0,362009045.0,,0.7299766753949999,-0.112817451897,-0.004662741733219999,0.05563728698535,0.998025461969,-0.02892662444865,-0.003571530061650001,-0.00136215979013,-0.00041573542047499985,-0.001276147375816,0.00499183515921,-1.692783695000574e-06,0.0023562567353600005,4.635994672774999,2.07726931572,5.85035562515,-0.266635365784,2.1594214439400004,0.24043154716499998,1869434.0,1521534145.0,355089025.0,,,,,,1374289.5,1521534145.0,939125056.5,,1.947999995945,1.4189999833700002,-0.8060012817380001,-0.1140000000595,-0.1294999979435,-0.0670000016689,46.5,59.0,67.0,85.0,228.0,184.5,185.5,246.5,250.5,269.5,-1.0,0.5400000810600001,0.6899999789910003,-0.11500167846650013,-0.007500000297500017,-0.009500000625500007,-0.046500001102649985,2.541240445760511,0.1850817379012989,7.748171097540003,2.189064348005065,0.0019122937427305967,0.005519997004090775
39,39,56.11834399999999,5613.5,1521534146.0,73439001.5,,1869094.5,1521534145.0,492007450.5,,0.7311371556849999,-0.113265353926,-0.00411160352076,0.056538790887,0.9979839709245,-0.028704873753250006,-0.002679072934125,0.00248264419004,0.00622200165247,-0.0005179000038675,0.006284727282549999,-0.001868509433097,-0.004156443031149999,4.14220249653,1.9196774959550005,5.711612463,-0.1981087476015,1.90417569876,0.236299082637,1304363.5,1521534145.0,492561968.0,,,,,,1374302.5,1521534146.0,67722412.0,,1.652999800445,2.69900004417,-0.7760005950929999,-0.114500001073,-0.154500000179,-0.07249999791385,54.5,56.5,72.5,94.0,219.5,217.0,277.0,296.0,314.0,322.5,-1.0,-0.2950001955000001,1.2800000607999995,0.03000068664500022,-0.0005000010134999927,-0.0250000022355,-0.005499996244950012,3.258709330745159,0.20551581447308687,7.312012044453452,1.9289814473134408,0.006719006411046557,0.007763062745385752
