,Unnamed: 0,.header.seq,.header.stamp.secs,.header.stamp.nsecs,.header.frame_id,.endpoint_state.header.seq,.endpoint_state.header.stamp.secs,.endpoint_state.header.stamp.nsecs,.endpoint_state.header.frame_id,.endpoint_state.pose.position.x,.endpoint_state.pose.position.y,.endpoint_state.pose.position.z,.endpoint_state.pose.orientation.x,.endpoint_state.pose.orientation.y,.endpoint_state.pose.orientation.z,.endpoint_state.pose.orientation.w,.endpoint_state.twist.linear.x,.endpoint_state.twist.linear.y,.endpoint_state.twist.linear.z,.endpoint_state.twist.angular.x,.endpoint_state.twist.angular.y,.endpoint_state.twist.angular.z,.endpoint_state.wrench.force.x,.endpoint_state.wrench.force.y,.endpoint_state.wrench.force.z,.endpoint_state.wrench.torque.x,.endpoint_state.wrench.torque.y,.endpoint_state.wrench.torque.z,.joint_state.header.seq,.joint_state.header.stamp.secs,.joint_state.header.stamp.nsecs,.joint_state.header.frame_id,.joint_state.name,.joint_state.position,.joint_state.velocity,.joint_state.effort,.wrench_stamped.header.seq,.wrench_stamped.header.stamp.secs,.wrench_stamped.header.stamp.nsecs,.wrench_stamped.header.frame_id,.wrench_stamped.wrench.force.x,.wrench_stamped.wrench.force.y,.wrench_stamped.wrench.force.z,.wrench_stamped.wrench.torque.x,.wrench_stamped.wrench.torque.y,.wrench_stamped.wrench.torque.z,.tactile_values.tactile_values_0,.tactile_values.tactile_values_1,.tactile_values.tactile_values_2,.tactile_values.tactile_values_3,.tactile_values.tactile_values_4,.tactile_values.tactile_values_5,.tactile_values.tactile_values_6,.tactile_values.tactile_values_7,.tactile_values.tactile_values_8,.tactile_values.tactile_values_9,.tag,.delta_wrench.force.x,.delta_wrench.force.y,.delta_wrench.force.z,.delta_wrench.torque.x,.delta_wrench.torque.y,.delta_wrench.torque.z
0,44.385579,4438.5,1521534273.0,326933502.5,,1881816.5,1521534272.0,712289299.5,,0.7621138073825,-0.10054263347829999,0.1470998578835,-0.08172659584139999,0.9958832547015,-0.03137422193875,0.02351117515125,-0.01386403829825,0.041787908828800006,0.0197674565465,0.04512173577885,-0.02969541558215,0.06358838127090001,1.4022129178049998,1.0504184961299998,1.9423699975,0.2678841501475,0.7894717752929999,0.371250599623,1313241.5,1521534272.0,717694246.0,,,,,,1387014.5,1521534273.0,320726886.0,,0.45999999046350004,2.14800009727,-1.893999099735,-0.055499998852600006,-0.1284999996425,-0.060499999672149994,3.5,6.5,9.0,21.0,51.0,-284.0,-277.0,-234.0,-230.0,-228.0,4.0,0.0,0.0,0.0,0.0,0.0,0.0
1,44.488143102600006,4446.5,1521534273.0,406887412.0,,1881825.0,1521534272.0,797287433.5,,0.760040671531,-0.09884648933094999,0.14558337053300002,-0.08252877278935,0.995819564167,-0.030679406711150003,0.02430863610205,-0.02894958970495,0.01312852412961,-0.026038265447400004,0.019945194243625,0.010856290479735001,-0.011224328180100005,0.247624725104,-0.04336917400350005,3.764994382855,0.643952012062,0.4818733632565,0.3468098789455,1313246.0,1521534272.0,792179451.0,,,,,,1387022.5,1521534273.0,398860778.5,,1.100000095367,0.7330000162125,-0.548999786377,-0.06799999997020001,-0.142999999225,-0.03900000080465,6.5,7.5,13.5,21.0,45.0,-277.0,-269.0,-240.5,-230.0,-224.0,4.0,0.6400001049034999,-1.4150000810575003,1.344999313358,-0.012500001117600003,-0.014499999582500006,0.021499998867499995
2,44.5907072051,4459.5,1521534273.0,537117480.5,,1881838.5,1521534272.0,932290092.0,,0.751442333178,-0.09979796958730001,0.1383548467975,-0.08514567230915003,0.9957221649519999,-0.0318511854907,0.0165202355106,-0.08128066422045001,-0.011040643139135,-0.0708938479602,-0.034092543644500005,0.1669219260695,0.04278780815375,2.378387987615,-0.284363888204,6.521723508835,0.7765685617925,1.165423154835,0.319369405508,1882191.0,1521534272.0,925368442.0,,,,,,1387035.5,1521534273.0,529487075.5,,1.29500002861,0.66300008297,-2.01899909973,-0.08499999716880001,-0.10300000011915,-0.0265000006184,6.0,8.0,13.0,23.0,55.0,-286.0,-278.0,-235.0,-234.0,-219.5,4.0,0.19499993324300013,-0.06999993324249998,-1.4699993133529998,-0.0169999971986,0.039999999105850004,0.012500000186249999
3,44.6932713077,4470.5,1521534273.0,646919488.5,,1881848.5,1521534273.0,32288120.5,,0.7468294727889999,-0.09949162420430001,0.13368584837449998,-0.08491623926459999,0.9957933859810001,-0.032148913243749994,0.01227954594785,-0.02017266187825,0.009672482200455,-0.0393061087763,0.026790564030499998,0.0426546575358,-0.0883235412771,1.8713914752,-0.7650452926744999,7.160971641539999,1.0552974641314998,0.8698253035535001,0.34242208302050003,1882202.0,1521534273.0,35364844.0,,,,,,1387046.5,1521534273.0,640608906.0,,0.685000014305,2.3480001449600003,-2.22900009155,-0.08499999716880001,-0.07699999772010001,-0.033499998971800005,3.0,11.0,13.0,21.0,57.0,-300.0,-298.0,-234.0,-232.0,-226.5,4.0,-0.6100000143050001,1.6850000619900003,-0.21000099182000032,0.0,0.026000002399049996,-0.006999998353400004
4,44.7958354103,4478.5,1521534273.0,726997613.5,,1881857.5,1521534273.0,122294174.5,,0.7468687546955,-0.09858235400085,0.13086742989949998,-0.0852167655263,0.9958027604085,-0.0308765157816,0.0127004896591,0.01434472816765,0.006344341613305,-0.029231043439900007,0.04120498189895,-0.039270812748,-0.00811924335365,3.200845241545,1.2152470350245,6.202138185500001,0.33252751827219995,1.39812374115,0.2997002452615,1882211.0,1521534273.0,125389070.5,,,,,,1387054.5,1521534273.0,720436034.0,,0.8050000190735,0.7629999876025,-1.024000167848,-0.06550000049175,-0.1059999987481,-0.033000001683800004,4.0,10.0,17.0,26.0,35.0,-295.5,-294.5,-237.5,-233.0,-228.0,4.0,0.12000000476850003,-1.5850001573575003,1.2049999237020002,0.019499996677050005,-0.02900000102799999,0.0004999972880000009
5,44.8983995128,4486.5,1521534273.0,808224558.5,,1881867.5,1521534273.0,222292444.5,,0.7493443562784999,-0.09665103426235001,0.12637930228150002,-0.08266848877465,0.996066617527,-0.02791849095025,0.01541969646215,0.03461595527275,0.02608640243085,-0.06221345574165001,0.08001590653235001,-0.06737325361659999,-0.060650681696800005,5.383659601214999,2.529091000555,3.911449551585,-0.26408579945550004,2.17841601372,0.2068933472035,1882220.5,1521534273.0,220383057.5,,,,,,1387063.0,1521534273.0,804075198.0,,0.175000143051,0.8880001068119999,-2.72399902344,-0.0680000036955,-0.0430000014603,-0.019999999553,3.5,5.0,14.5,21.0,25.5,-299.0,-295.5,-243.0,-242.0,-239.5,4.0,-0.6299998760225001,0.12500011920949994,-1.6999988555919998,-0.0025000032037499897,0.0629999972878,0.013000002130800003
6,45.000963615399996,4499.5,1521534273.0,936837434.5,,1881880.5,1521534273.0,352291779.0,,0.753011729351,-0.09407256437755003,0.115802401412,-0.08210195313650001,0.996151592901,-0.0235630245377,0.01964755760425,0.0026531119388649997,0.028522781499349996,-0.0952295734538,0.0528287559667,-0.005738478408599998,0.0553452674813,1.107816398143,0.223220333457,4.89920520782,0.244608424604,0.6331913471225,0.196843132377,1882232.0,1521534273.0,335392804.0,,,,,,1387075.5,1521534273.0,931323835.0,,0.7,0.423000013828,-2.3689994812,-0.06399999931455,-0.0769999995828,-0.0439999997616,2.5,4.5,6.0,12.0,49.0,-307.5,-303.5,-250.0,-247.0,-234.5,4.0,0.524999856949,-0.4650000929839999,0.35499954223999985,0.004000004380949995,-0.0339999981225,-0.024000000208600002
7,45.1035277179,4507.5,1521534274.0,16826987.0,,1881888.5,1521534273.0,432299767.5,,0.7515814341414999,-0.0943289186542,0.109179063231,-0.08309272631914999,0.996105408966,-0.02357553646095,0.01770260957895,-0.0396298961555,0.0004343323113000005,-0.102707428966,-0.006333287664395001,0.08344171551425,0.03721647252785,1.7270782589899998,0.6925580203530001,3.44491863251,0.09571982547654999,0.8432805538175001,0.224423505366,1313291.5,1521534273.0,432194741.5,,,,,,1387083.5,1521534274.0,11989701.5,,1.525000166895,-0.4269999504085,-3.213998794555,-0.0769999995828,-0.0455000009388,-0.0285000009462,7.5,10.0,25.0,35.0,42.5,-297.0,-289.5,-260.0,-246.5,-246.5,4.0,0.825000166895,-0.8499999642364999,-0.8449993133550002,-0.013000000268250003,0.031499998644,0.015499998815400002
8,45.2060918205,4519.5,1521534274.0,136832475.5,,1881900.5,1521534273.0,552290978.0,,0.7484640654915,-0.09578220548195,0.09683358991035003,-0.08208175695639999,0.9962598191405,-0.0236313249248,0.013055595820450001,-0.01130254915777,-0.017347472404135,-0.1142677342385,0.007520513050315002,0.06384045768455003,-0.004908812154085,2.128150701525,0.8050551116464999,4.223051071165,-0.06577038764955001,0.6594740748404999,0.13587570935499999,1882252.0,1521534273.0,535381975.0,,,,,,1387095.5,1521534274.0,130543363.5,,1.165000033378,0.7880000233630001,-1.733999252315,-0.0620000008494,-0.0670000016689,-0.0439999997616,11.5,12.5,14.0,20.0,39.0,-319.5,-305.5,-273.0,-264.5,-253.5,4.0,-0.360000133517,1.2149999737715,1.47999954224,0.014999998733400001,-0.021500000730099993,-0.015499998815400002
9,45.308655923100005,4531.5,1521534274.0,256873011.0,,1881910.0,1521534273.0,647307651.5,,0.7481851537209999,-0.0947038340727,0.08512065180644998,-0.08211934008010001,0.9963378162119999,-0.0212027973592,0.0108392425107,0.005469865097635001,-0.0012541780881599998,-0.125570691451,0.0411261875309,0.043356201510349995,-0.003251439953249998,4.559725284574999,1.7547489404700003,3.015773653985,-0.7596879899505,1.5934385657299996,0.052313443273300016,1882263.0,1521534273.0,645426271.0,,,,,,1387107.5,1521534274.0,250305433.5,,1.9999999523199998,0.06800005435950003,-2.43400001526,-0.07750000059605,-0.04849999956785,-0.03800000064075,6.5,9.0,13.5,16.0,33.0,-339.0,-323.0,-283.5,-281.0,-268.5,4.0,0.8349999189419999,-0.7199999690035,-0.700000762945,-0.01549999974665,0.018500002101049996,0.0059999991208500025
10,45.4112200256,4541.5,1521534274.0,356865047.5,,1881920.0,1521534273.0,747304628.0,,0.7479791910570001,-0.0977745055407,0.0757927927539,-0.081417822799,0.9963809581,-0.0230753192069,0.00797835255276,-0.0122625696769,-0.0401177975887,-0.0919684394851,-0.0246854255632,0.0922879585408,-0.05678696803360001,0.0568287856877,1.1796208620100002,7.42670631409,-0.22270783782,-0.0581333562732,0.154881298542,1882273.0,1521534273.0,745386219.0,,,,,,1387117.5,1521534274.0,351367029.5,,3.4249999046350004,-1.381999978425,-2.513999938965,-0.08050000295045,-0.035499999299650004,-0.030000000260800005,4.0,7.0,11.5,36.0,45.0,-309.0,-301.0,-271.0,-249.0,-247.0,4.0,1.4249999523150005,-1.4500000327845002,-0.07999992370499998,-0.003000002354399997,0.013000000268199995,0.008000000379949995
11,45.513784128199994,4548.5,1521534274.0,428712486.5,,1881927.5,1521534273.0,822300848.5,,0.747090162792,-0.0997643161805,0.0684367472229,-0.08054783906425,0.9964527416455,-0.023700884834500002,0.005670818811194999,-0.0123925565716,-0.015366323299100001,-0.09845470081119999,-0.02436618534935,0.052564246848200005,-0.007693959692240002,6.238216876985001,2.854769945145,1.6234131306420003,-0.824391394854,2.12839257717,0.014092824421800003,1882280.0,1521534273.0,815394180.0,,,,,,1387124.5,1521534274.0,421714156.5,,2.0450000286099996,-0.5219999790195,-4.41899871826,-0.06950000114739999,-0.0605000015348,-0.0415000002831,4.5,5.0,27.0,32.0,48.0,-306.5,-300.5,-256.5,-250.0,-241.0,4.0,-1.3799998760250007,0.8599999994055001,-1.904998779295,0.01100000180305001,-0.025000002235149997,-0.011500000022299992
12,45.6163482308,4560.5,1521534274.0,546879052.5,,1881939.0,1521534273.0,937296778.0,,0.7489373077339999,-0.100307619892,0.0582249327086,-0.0806725632835,0.99643668901,-0.023645441993,0.00683779216612,0.0235367630484,0.0311962177648,-0.091289090828,0.07038712448319999,-0.0283498438338,0.027021483597900003,1.88306379318,2.07671666145,2.90124225616,-0.671273827553,0.5958532094960001,0.0558525137603,1313327.0,1521534273.0,939188551.0,,,,,,1387136.5,1521534274.0,541164947.5,,2.440000009535,-0.8720000028595001,-2.99400138855,-0.102499999106,-0.044999999925499995,-0.01250000018625,6.0,7.5,8.0,22.0,52.0,-82.5,-79.0,-77.0,-72.0,-65.0,4.0,0.3949999809250002,-0.35000002384000006,1.42499732971,-0.03299999795860001,0.015500001609300006,0.029000000096849998
13,45.7189123333,4568.5,1521534274.0,627112507.5,,1881946.0,1521534273.5,507305875.5,,0.7506625816799999,-0.10121529757000002,0.0526522268707,-0.08064178732395,0.996429238843,-0.02372093556,0.007904162401319999,0.0266114004832,-0.01318560519575,-0.06234016486525,-0.009930520174215002,-0.031697440872578,-0.009472862527897,3.331587135795,2.093283116815,4.23797404766,-0.707477092743,1.1983689963835,0.0471073854715,1882300.0,1521534274.0,15394683.0,,,,,,1387144.5,1521534274.0,620851814.0,,2.6700000286099996,-1.276999989155,-1.6739997863799998,-0.058000000193699996,-0.1205000020565,-0.004500000155529999,16.5,21.5,31.0,37.5,43.5,-33.0,-32.5,-22.5,-17.5,-6.0,4.0,0.23000001907499978,-0.4049999862954998,1.3200016021700003,0.0444999989123,-0.075500002131,0.008000000030720001
14,45.8214764359,4581.5,1521534274.0,756832480.0,,1881962.5,1521534274.0,172305075.5,,0.7502438496105001,-0.104390401261,0.0420121163239,-0.07943184202095,0.9964883186485,-0.02630001542065,0.0031157577951550003,-0.0066849115887105005,-0.019716277307865,-0.062379110813250004,-0.04051125795575,0.08544505578325,-0.03806024709375,5.612764835355001,2.56062924862,4.32489514351,-0.620421111584,2.00690472126,0.07689977064725001,1313342.0,1521534274.0,165695018.0,,,,,,1387157.5,1521534274.0,750545162.0,,1.120000076292,0.2729999780655,-3.538999557495,-0.0744999982417,-0.0530000012368,-0.039000000804650006,16.5,17.5,23.0,25.0,47.0,-41.0,-38.5,-34.0,-28.0,-22.5,4.0,-1.5499999523179997,1.5499999672204998,-1.8649997711150001,-0.01649999804800001,0.06750000081969999,-0.03450000064912001
15,45.9240405385,4591.5,1521534274.0,856827973.5,,1881972.5,1521534274.0,272305806.5,,0.7539624782345,-0.103842861328,0.036262177778,-0.07825711954375,0.9965873870205,-0.026078773978249998,0.0030272142484600003,0.0364940362426,0.005314672296545001,-0.06871728802004999,-0.013232928022554996,0.015425048084465,-0.013419770059235,6.09524297714,2.72549879551,2.970413565635,-0.9335578084,2.116755485535,0.0673087947071,1313349.0,1521534274.0,266693409.0,,,,,,1387167.5,1521534274.0,851791171.0,,1.7100001096700002,0.3180000543593,-2.6189994812000004,-0.09099999815244998,-0.0625,0.003999999957155,11.0,25.0,32.0,44.0,52.0,-173.0,-167.0,-149.0,-141.0,-134.0,4.0,0.5900000333780002,0.045000076293799984,0.9200000762949996,-0.016499999910749977,-0.009499998763199999,0.043000000761805005
16,46.026604641000006,4603.5,1521534274.0,976837396.0,,1881984.5,1521534274.0,392304582.5,,0.7560813416609999,-0.103863999867,0.029678156812650004,-0.0755825182898,0.9967810984535,-0.026711122451650002,0.0009378863171745002,-0.018022514530980003,-0.01382748426862,-0.04619255883305,-0.02413841984545,0.10757054936164999,-0.1477923075625,7.222178697585,2.570032000545,2.09044235945,-0.6704557240010001,2.1941869258900004,0.2699442729355,1313358.5,1521534274.0,391201336.5,,,,,,1387179.5,1521534274.0,970921288.5,,2.6849998950950003,0.3829999923685,-1.4789981842050002,-0.12100000306945,-0.09949999861435002,-0.008500000229095,18.5,21.0,26.5,49.5,52.0,-197.0,-194.0,-174.0,-165.0,-162.0,4.0,0.9749997854250001,0.06499993800920001,1.1400012969950002,-0.030000004917000014,-0.03699999861435002,-0.01250000018625
17,46.1291687436,4610.5,1521534275.0,46846508.5,,1881991.5,1521534274.0,462302934.0,,0.7371776126080001,-0.1070109989305,0.025955144634350003,-0.07819428756784999,0.9962397848385,-0.030051655637150003,-0.022055991192900002,-0.2809990372805,-0.01644065486119,-0.06670044662420001,-0.1196562607763,0.6123187767860001,-0.1399840467953,32.05450344085,9.526161193835,-3.9329714775100006,-3.2486016750349997,8.4033408165,-0.09713413938860001,1882344.0,1521534274.0,455353911.0,,,,,,1387186.5,1521534275.0,42421077.0,,11.265000295650001,3.62300012112,-1.3390007019065,0.053500004112500034,0.340499997139,-0.0534999985248,128.5,133.5,147.5,151.5,170.5,-152.5,-150.5,-143.0,-129.5,-116.0,4.0,8.580000400555,3.2400001287515,0.13999748229850018,0.17450000718195002,0.43999999575335,-0.044999998295705
18,46.231732846199996,4621.5,1521534275.0,157878994.5,,1882002.5,1521534274.0,572301911.5,,0.739687509632,-0.1094297814885,0.0123403192443,-0.0823435935503,0.995720530958,-0.0368686670115,-0.01998551688165,0.25746314448700003,0.058917612098050014,-0.1487805163965,0.1494789678865,-0.5787366955969999,0.0907535707092,10.972050666805,2.36850172281,1.4078404009345,0.43380769342200004,2.93887114525,0.25921291857949996,1313370.0,1521534274.0,568683534.0,,,,,,1387197.5,1521534275.0,151184515.5,,3.33000011444,-1.341999983045,1.4910011291549998,-0.04399999976155001,-0.051999999210249996,-0.01600000075995,146.0,150.5,157.0,169.0,179.5,-184.5,-178.5,-164.0,-160.0,-153.0,4.0,-7.93500018121,-4.965000104165,2.8300018310615,-0.09750000387405004,-0.39249999634925,0.03749999776485
19,46.3342969487,4630.5,1521534275.0,246855973.5,,1882009.0,1521534274.0,637302473.0,,0.762585633599,-0.102060761176,0.00368919890836,-0.083067332102,0.996133072417,-0.0275274403495,0.007807714277749999,0.364880115452,0.15518169152699998,-0.133601113176,0.458473033336,-0.8750341452320001,0.066104728905,-0.8421155214309999,0.37372803688,10.0277824402,0.407794058323,-0.0638299137354,0.325468838215,1313375.0,1521534274.0,632695329.5,,,,,,1387206.5,1521534275.0,241468313.0,,2.02500004768,-0.9319999549526999,-1.154001235962,-0.05350000038745,0.01599999982865,-0.01050000032412,128.0,140.0,145.5,151.5,159.5,-107.0,-98.0,-88.0,-83.0,-77.0,4.0,-1.3050000667600004,0.4100000280923001,-2.6450023651169996,-0.009500000625899993,0.0679999990389,0.0055000004358299985
20,46.4368610513,4644.5,1521534275.0,386852025.5,,1882023.0,1521534274.0,777301993.5,,0.773604693547,-0.102481740925,-0.0056011161550900005,-0.07803711797410001,0.996568636532,-0.02369557355665,0.01393444759665,-0.07289602493365,-0.06476002662725,-0.0515374742241,-0.1391021008845,0.2976778627655,-0.052673238741750006,5.295311212534999,2.2112550735500003,3.34031021595,-0.6689842343329999,2.213133096695,0.1455636918545,1313384.5,1521534274.0,775190391.0,,,,,,1387220.5,1521534275.0,383754015.0,,3.50500006676,-0.541999959946,-1.8839988708450002,-0.03800000064075,-0.157999999821,-0.02249999996275,106.0,107.0,113.0,132.5,142.0,-247.5,-237.5,-230.5,-219.0,-188.5,4.0,1.4800000190800002,0.3899999950066999,-0.7299976348830002,0.0154999997467,-0.17399999964965,-0.01199999963863
21,46.5394251538,4650.5,1521534275.0,446953057.5,,1882028.0,1521534274.0,827298046.0,,0.769623507264,-0.104601002602,-0.00914393590768,-0.0773196634177,0.99665317415,-0.0253288356408,0.00791013221053,-0.045452746595300006,-0.0166340073122,-0.0535220926657,-0.0679170624647,0.0974092040142,-0.0023924145771300003,-2.7264995575,0.239000290632,6.2110080719,0.409470796585,-1.35392868519,0.316896349192,1882381.0,1521534274.0,825396362.0,,,,,,1387226.5,1521534275.0,442903038.0,,2.185000133515,0.59300003051715,-0.9389991760245,-0.04049999942071,-0.09750000014895,-0.05900000035765,96.0,98.0,111.0,129.0,139.0,-352.0,-318.0,-301.0,-294.5,-283.0,4.0,-1.319999933245,1.13499999046315,0.9449996948205002,-0.0024999987799600026,0.06049999967205,-0.03650000039489999
22,46.6419892564,4662.5,1521534275.0,566842913.0,,1882040.5,1521534274.0,952297602.5,,0.7713110962,-0.102525907709,-0.01372879162845,-0.07764251413260001,0.9966711901270001,-0.022350305682450004,0.010876354460050001,0.04268219212205,0.031511885705850014,-0.008217213317375002,0.06401932995330001,-0.11541198869345,0.023304061348299997,6.050993204115,2.873819231985,5.702152252195001,-0.9299949407585,2.347816467285,0.11442036926735001,1882393.0,1521534274.0,945352037.0,,,,,,1387238.5,1521534275.0,564038636.0,,1.2399999618550002,-0.1170000076295,-2.19899940491,-0.08650000020859999,-0.0965000018475,-0.033999999985100005,91.0,100.5,101.0,112.0,129.5,-401.0,-366.0,-331.0,-329.5,-306.5,4.0,-0.9450001716599998,-0.71000003814665,-1.2600002288855,-0.04600000078788999,0.000999998301449992,0.025000000372549992
23,46.744553358999994,4673.5,1521534275.0,676891565.0,,1882051.0,1521534275.0,57296688.0,,0.7754187881419999,-0.100233011004,-0.0120205450252,-0.07779191621389997,0.996624581257,-0.0206915982651,0.0161158172989,0.042273107792499987,0.012392746288299998,0.0267991478374,0.0416821571044,-0.076888813874,-0.0184215999968,1.28963196278,1.0273435115799998,5.11581277847,-0.0783530548215,0.705725610256,0.265898287296,1882404.0,1521534275.0,55354814.0,,,,,,1387249.5,1521534275.0,673037472.0,,0.139999938011,-1.141999983785,-3.1339988708499997,-0.07299999892709999,-0.044500000774849995,-0.0230000000447,89.5,96.0,99.0,103.0,128.0,-343.0,-330.0,-289.0,-283.0,-280.0,4.0,-1.1000000238440002,-1.0249999761555,-0.9349994659399998,0.013500001281500001,0.05200000107265001,0.010999999940400004
24,46.8471174615,4684.5,1521534275.0,786911964.0,,1882065.0,1521534275.0,197302656.5,,0.77505016242,-0.10023202498950001,-0.010880125612050002,-0.07847642091275,0.9965653345029999,-0.0213315569875,0.015616549568799999,0.00788820778836,0.0017742764493665,-0.00595650058294,0.005649535313132,-0.01773057351985,-0.00486783233595,3.0679484605800003,1.0998057127,4.147688627245,0.05287865549324999,1.2932488322250002,0.2605098485945,1313414.0,1521534275.0,191177439.5,,,,,,1387260.5,1521534275.0,782495272.5,,1.0200000524500001,-0.1819999456405,-2.953998565675,-0.07750000059605,-0.0634999983013,-0.055999999865900006,73.0,75.0,77.5,84.5,100.0,-315.0,-314.0,-273.5,-255.5,-255.0,4.0,0.8800001144390002,0.9600000381444999,0.18000030517499965,-0.00450000166895001,-0.018999997526450006,-0.032999999821200006
25,46.9496815641,4694.5,1521534275.0,887534498.5,,1882074.5,1521534275.0,292301583.5,,0.7737204117975001,-0.100851025771,-0.0125407937139,-0.07804781826555,0.9966184176895,-0.021487475282900004,0.01408675005685,-0.02284716229545,-0.006041894175225,-0.0141906984397,-0.022595496281800003,0.04940605216735,0.014202013941200001,3.5780403614050003,1.4282148480399999,5.167361497880001,-0.01952335983515001,1.416435301305,0.2678735405205,1882428.0,1521534275.0,295368210.5,,,,,,1387270.5,1521534275.0,882128065.5,,1.89000005722,0.6029999613745001,-3.413999557495,-0.0799999982119,-0.049499999731800005,-0.04650000110265,37.0,39.0,40.5,43.0,75.5,-323.0,-311.5,-280.0,-266.0,-262.5,4.0,0.8700000047699998,0.7849999070150001,-0.46000099181999987,-0.00249999761585,0.013999998569499995,0.009499998763250007
26,47.0522456667,4704.5,1521534275.0,987527489.0,,1882085.0,1521534275.0,397299547.0,,0.774001302369,-0.1001044024231,-0.011741155611849999,-0.07846625741794999,0.9965892554054999,-0.0210126340949,0.01453373391665,0.0036396372307399994,-0.005774607118060001,0.0076600112355399985,-0.009278594385709998,-0.010206946775799999,-0.0029461656798,3.2661805152900003,1.34028214216,4.95740675926,-0.061635863035900004,1.27366876602,0.256759211421,1882438.5,1521534275.0,400365304.0,,,,,,1387280.5,1521534275.0,983826213.0,,2.76500005722,-0.23200001716630006,-3.208999633785,-0.0710000023246,-0.0460000000894,-0.0255000004545,15.0,20.0,22.0,32.0,69.0,-337.5,-317.0,-287.0,-270.5,-265.5,4.0,0.875,-0.8349999785408001,0.20499992370999998,0.008999995887299994,0.003499999642400005,0.02100000064815
27,47.1548097692,4715.5,1521534276.0,96951484.0,,1882096.0,1521534275.0,507300125.5,,0.774454288564,-0.10028275667115,-0.011910670014550002,-0.07832481677969999,0.996592086964,-0.02106394864755,0.0150137239857,-0.00569745487748,-0.00694823053877,-0.002329759151151,-0.0028697387590400003,0.01147079388586,-0.014144183925855,1.946715652945,1.0263974666595,4.90615105629,0.07488614320755001,0.922211229801,0.312628224492,1882449.0,1521534275.0,505392709.0,,,,,,1387291.5,1521534276.0,92573961.0,,2.66499991417,-1.4219999691499998,-3.5639991760250003,-0.07699999958275,-0.049000000581149984,-0.0265000006184,14.0,17.5,19.5,27.0,27.5,-397.0,-351.5,-322.0,-317.5,-310.5,4.0,-0.10000014304999993,-1.1899999519836997,-0.3549995422400003,-0.005999997258149994,-0.0030000004917499837,-0.001000000163900002
28,47.257373871800006,4725.5,1521534276.0,197880029.5,,1882104.0,1521534275.0,587304364.0,,0.773983062536,-0.100825769357,-0.012213033615299998,-0.0780160227975,0.996622101652,-0.0212361183422,0.014384504291,0.014258324021299998,-0.00231181885167,0.011620852007799998,-0.0103116413448,-0.0256982995002,-0.00670783360306,3.0127291679400003,1.3443864584,5.04051780701,0.0317358523607,1.24221622944,0.30864152312300003,744426.0,1521534275.0,595000064.0,,,,,,1387301.5,1521534276.0,192193289.5,,1.54500014782,0.2329999566075,-3.6539993286150003,-0.07100000232455,-0.039000000804650006,-0.03100000042465,15.0,15.0,18.0,25.0,48.0,-412.5,-364.0,-341.0,-332.0,-325.0,4.0,-1.11999976635,1.6549999257574999,-0.09000015259000005,0.005999997258199996,0.009999999776499978,-0.004499999806249998
29,47.3599379744,4733.5,1521534276.0,276862024.5,,1882110.0,1521534275.0,647298225.0,,0.773767190547,-0.100179035045,-0.0120381601213,-0.0784938511962,0.996590585318,-0.020974202662400004,0.0143528186085,-0.0228989742509,0.013850402202,-0.00940062557167,0.000516016496382,0.0367979175704,0.029288196254,3.4471347332,1.4382517337799998,5.23676967621,-0.0131371617317,1.4163768291499998,0.278766036034,1882464.5,1521534275.0,660395448.0,,,,,,1387309.5,1521534276.0,272504696.5,,1.63500006199,-0.562000000477,-2.6240005493150003,-0.0744999982417,-0.0429999995977,-0.0504999998957,14.0,15.5,18.0,19.5,26.5,-409.0,-369.0,-343.0,-338.0,-334.0,4.0,0.08999991417000008,-0.7949999570845001,1.0299987793,-0.0034999959171500006,-0.003999998793049991,-0.019499999471049998
30,47.462502076899995,4745.5,1521534276.0,397346496.0,,1882124.0,1521534275.0,787307236.0,,0.7739227367085,-0.101177704415,-0.011451738979299998,-0.07827820702260001,0.9965852262525,-0.0218282579857,0.0146238514434,0.0120880277101,0.0142689437882,0.01897910429155,0.012051983190375001,-0.0372003611427,0.012125301623079995,1.4157538414,0.9967933297175,5.53584218025,0.1001084521415,0.6205958724025,0.29408410191550005,1313455.5,1521534275.0,791677946.0,,,,,,1387321.5,1521534276.0,393683279.0,,1.3150001287450002,-0.766999953985,-3.21899986267,-0.06650000065565001,-0.0839999988675,-0.05799999833105001,5.0,7.0,21.0,27.0,33.0,-408.0,-363.0,-353.0,-345.0,-338.0,4.0,-0.31999993324499987,-0.20499995350799993,-0.5949993133549998,0.007999997586049995,-0.0409999992698,-0.007499998435350014
31,47.5650661795,4756.5,1521534276.0,507017016.0,,1882135.0,1521534275.0,897304844.0,,0.774347755097,-0.100276100638,-0.0106393882392,-0.07870274937169999,0.996537975348,-0.0217274297618,0.0156799147672,-0.0173421739104,0.0135734062975,-0.00101861668994,-0.00382390588771,0.0256347839798,0.0202958352801,-1.02452862263,0.300728946924,6.6054263114900005,0.316525757313,-0.340356528759,0.31906807422600003,744438.5,1521534275.0,901000064.0,,,,,,1387331.5,1521534276.0,502223115.0,,3.14000005722,-1.07699998617,-1.99899864197,-0.03949999995530001,-0.110999997705,-0.036000000312949997,4.0,4.0,17.0,18.0,25.0,-409.0,-355.0,-340.0,-333.0,-324.0,-0.5,1.8249999284749998,-0.31000003218499994,1.2200012207,0.027000000700350003,-0.02699999883750001,0.021999998018100014
32,47.6676302821,4767.5,1521534276.0,616831421.5,,1882145.0,1521534275.5,497297360.0,,0.7736567394459999,-0.1007593200065,-0.010361567760540001,-0.07886061795464999,0.996530078069,-0.02198968092585,0.0150027401777,-0.004717337987150001,0.014082059934435,0.0016384670636525002,0.008247740517019998,-0.0003500293990999978,0.016582645083300002,0.5014126598834999,0.7457073926925001,6.143488168719999,0.20472070574749998,0.2762078791855,0.305066436529,744442.5,1521534276.0,2499968.0,,,,,,1387342.5,1521534276.0,612606954.5,,1.3550000905950002,-1.37199998051,-4.10899925232,-0.07300000265239999,-0.042499998584400005,-0.01699999999255,-1.0,1.5,13.0,15.0,29.5,-413.0,-361.5,-345.5,-330.0,-317.0,-1.0,-1.7849999666249998,-0.2949999943400001,-2.11000061035,-0.03350000269709998,0.06849999912060001,0.019000000320399998
33,47.7701943846,4775.5,1521534276.0,696878432.5,,1882154.0,1521534276.0,87303112.0,,0.773218690996,-0.100552067491,-0.0100975018338,-0.07878860369919999,0.996546249751,-0.021720677121900005,0.014701708081700003,-0.00994505061466,0.0141968589363,-0.00495467987054,0.0180582442613,0.00507096352151,0.0347391035938,-0.1114256531,0.644199609756,6.82409954071,0.229020774364,0.0753430575132,0.3224632442,1882507.0,1521534276.0,85401786.0,,,,,,1387350.5,1521534276.0,692312445.0,,1.825,0.6980000495925001,-1.7889995574949995,-0.05299999937415,-0.119999997318,-0.053500000387399986,0.5,3.0,7.5,28.0,39.0,-398.0,-365.5,-341.0,-327.5,-294.0,-1.0,0.4699999094049998,2.0700000301025003,2.319999694825001,0.020000003278249988,-0.0774999987336,-0.03650000039484999
34,47.8727584872,4788.5,1521534276.0,826840996.5,,1882169.5,1521534276.0,242303980.5,,0.773612644216,-0.10052730089400001,-0.00980482327821,-0.078043406109,0.996592586229,-0.021844429438650004,0.015334344353149999,0.002314578260455001,0.008015967087225,-0.0017119327192400002,0.01170240399166,-0.006925181647274997,0.0032052080643999985,-0.11475929617894999,0.5177401453255,6.325202941894999,0.28320666402600003,0.05579624325035,0.2857955098155,1882521.5,1521534276.0,230395288.5,,,,,,1387363.5,1521534276.0,822384917.0,,1.1450000524500001,-0.1770000100135,-4.08399963379,-0.05700000002980001,-0.0384999997914,-0.049999998882449985,7.0,12.5,16.0,35.0,57.0,-396.5,-359.0,-345.0,-325.0,-315.5,-1.0,-0.6799999475499998,-0.875000059606,-2.295000076295001,-0.00400000065565001,0.0814999975266,0.003500001504950001
35,47.9753225897,4796.5,1521534276.0,907801985.5,,1882177.5,1521534276.0,322307469.0,,0.7730241970180001,-0.10025990313899999,-0.01011478210903,-0.07822233791485,0.9965901204695,-0.0216887474719,0.0147901528401,-0.01316299910474,-0.0052645460284,-0.0038148808828715,-0.01186599469682,0.028369046348450003,0.0062383805966,-0.1538789793845,0.551518023014,6.449173212050001,0.2925814539195,0.02025628834964,0.31137934327100003,1882530.0,1521534276.0,315371619.0,,,,,,1387371.5,1521534276.0,903901384.5,,0.300000023842,-1.091999986769,-3.534000396725,-0.07950000092389999,-0.04250000044705,-0.02749999985095,-0.5,2.0,5.5,32.0,33.5,-407.0,-359.0,-334.0,-330.0,-320.0,-1.0,-0.8450000286080002,-0.9149999767555,0.5499992370650002,-0.022500000894099974,-0.004000000655649996,0.022499999031499986
36,48.0778866923,4804.5,1521534276.0,986840486.5,,1882185.5,1521534276.0,402303350.5,,0.7727585750345001,-0.1000964281025,-0.009709323015905002,-0.07859075779845001,0.996560366858,-0.021708516306950004,0.01481966118085,-0.00785575515633,0.011576435215315,0.007934177446775,0.008385989858839999,0.004324530520045,0.029963235222700002,-0.358928605914,0.43464091420199996,7.674407482145,0.2826290279625,-0.0862995386124,0.283341735601,1313498.5,1521534276.0,401197369.5,,,,,,1387379.5,1521534276.0,983450145.0,,2.160000038145,0.588000035286,-2.128999710085,-0.08899999782445,-0.054999999702,-0.029000000096850005,3.0,6.0,6.5,24.0,37.0,-420.5,-363.0,-343.0,-330.5,-329.5,-1.0,1.8600000143030002,1.680000022055,1.4050006866400002,-0.00949999690055002,-0.012499999254950003,-0.0015000002459000066
37,48.1804507949,4815.5,1521534277.0,96843957.0,,1882196.5,1521534276.0,512308181.5,,0.7732994879689999,-0.09993338045635,-0.008587653616285,-0.07896742342905,0.9965179293844999,-0.021814931953900003,0.01549935791585,0.01586549513905,0.011364843700585,0.0196914855125,0.02284826085105,-0.033063076094,0.0113174873855985,-0.539876714349,0.5119015574454999,6.913120746615,0.491435214877,-0.08249589800835,0.365548312664,1313506.5,1521534276.0,511680775.5,,,,,,1387390.5,1521534277.0,93969349.5,,1.69499988556,0.0480000138285,-3.45899963379,-0.07899999991060001,-0.04550000093875,-0.04849999956785,4.0,6.5,12.0,16.0,35.0,-402.5,-362.0,-339.0,-329.5,-326.0,-1.0,-0.46500015258500027,-0.5400000214575,-1.329999923705,0.009999997913849992,0.00949999876325,-0.019499999470999993
38,48.2830148974,4828.5,1521534277.0,226958036.0,,1882207.0,1521534276.0,617557337.0,,0.773946732016,-0.0985891372372,-0.00759992338187,-0.07911508616660001,0.996503318504,-0.0211407644557,0.0165833479566,-0.0113359050426,0.00946966531486,-0.0006936718836989999,0.000371391731579,0.0129354902179,0.010980685843200002,-0.29978042841,0.383650779724,5.91303491592,0.383849263191,0.0197604522109,0.340340435505,1313514.0,1521534276.0,616807778.0,,,,,,1387403.5,1521534277.0,224455944.0,,1.405000042915,0.158000028133,-3.0540008544950004,-0.07950000092389999,-0.04849999956785,-0.04350000061095,0.5,4.0,15.0,19.5,36.0,-405.5,-359.0,-335.0,-331.0,-330.0,-1.0,-0.2899998426449999,0.11000001430449999,0.4049987792949996,-0.0005000010132999722,-0.002999998629099998,0.004999998956899995
39,48.385579,4839.5,1521534277.0,336823463.0,,1882218.0,1521534276.0,727552606.0,,0.7737202173150001,-0.0988809862785,-0.00789667538159,-0.0795270572152,0.9964711670145,-0.02134198492405,0.016278441881500003,-0.0166937672934,-0.0033244222724500005,-0.012889816229100001,-0.008851671654800001,0.03508860587435,0.0173807678411,0.799120157957,0.7477867603299999,6.28131341934,0.2319867387415,0.3808840066195,0.303864389658,1313521.5,1521534276.0,722804378.5,,,,,,1387414.5,1521534277.0,334517730.0,,2.209999990465,0.35800001621250005,-2.713998794555,-0.08650000020859999,-0.0530000012368,-0.05100000090895,-2.0,4.5,17.0,27.0,29.0,-412.0,-368.0,-337.0,-325.0,-322.5,-1.0,0.80499994755,0.19999998807950006,0.3400020599400002,-0.006999999284700006,-0.004500001668950003,-0.007500000297999999
