,Unnamed: 0,Unnamed: 0.1,.header.seq,.header.stamp.secs,.header.stamp.nsecs,.header.frame_id,.endpoint_state.header.seq,.endpoint_state.header.stamp.secs,.endpoint_state.header.stamp.nsecs,.endpoint_state.header.frame_id,.endpoint_state.pose.position.x,.endpoint_state.pose.position.y,.endpoint_state.pose.position.z,.endpoint_state.pose.orientation.x,.endpoint_state.pose.orientation.y,.endpoint_state.pose.orientation.z,.endpoint_state.pose.orientation.w,.endpoint_state.twist.linear.x,.endpoint_state.twist.linear.y,.endpoint_state.twist.linear.z,.endpoint_state.twist.angular.x,.endpoint_state.twist.angular.y,.endpoint_state.twist.angular.z,.endpoint_state.wrench.force.x,.endpoint_state.wrench.force.y,.endpoint_state.wrench.force.z,.endpoint_state.wrench.torque.x,.endpoint_state.wrench.torque.y,.endpoint_state.wrench.torque.z,.joint_state.header.seq,.joint_state.header.stamp.secs,.joint_state.header.stamp.nsecs,.joint_state.header.frame_id,.joint_state.name,.joint_state.position,.joint_state.velocity,.joint_state.effort,.wrench_stamped.header.seq,.wrench_stamped.header.stamp.secs,.wrench_stamped.header.stamp.nsecs,.wrench_stamped.header.frame_id,.wrench_stamped.wrench.force.x,.wrench_stamped.wrench.force.y,.wrench_stamped.wrench.force.z,.wrench_stamped.wrench.torque.x,.wrench_stamped.wrench.torque.y,.wrench_stamped.wrench.torque.z,.tactile_values.tactile_values_0,.tactile_values.tactile_values_1,.tactile_values.tactile_values_2,.tactile_values.tactile_values_3,.tactile_values.tactile_values_4,.tactile_values.tactile_values_5,.tactile_values.tactile_values_6,.tactile_values.tactile_values_7,.tactile_values.tactile_values_8,.tactile_values.tactile_values_9,.tag,.delta_wrench.force.x,.delta_wrench.force.y,.delta_wrench.force.z,.delta_wrench.torque.x,.delta_wrench.torque.y,.delta_wrench.torque.z,.wrench_stamped.wrench.force.magnitude,.wrench_stamped.wrench.torque.magnitude,.endpoint_state.wrench.force.magnitude,.endpoint_state.wrench.torque.magnitude,.endpoint_state.twist.linear.magnitude,.endpoint_state.twist.angular.magnitude
0,0,41.720741,4172.5,1521544548.0,265555977.0,,2909282.5,1521544547.0,372241852.0,,0.7302330630130001,-0.08837790053790001,0.101820208553,-0.317140221062,0.9472656566855,0.0019702566587599998,0.04588785857155,0.009036407219040001,0.0016619072837149992,0.00519482745439,-0.00042229423918500007,-0.0228683620514,-0.00355000490185,-0.2935009002685,0.127891406417,6.736354351045001,0.3747904598715,0.07465382665405003,0.4668553471565,1150758.0,1521544547.0,366000128.0,,,,,,2413430.5,1521544548.0,259262834.0,,-2.308000004295,1.505999987945,-4.106001281739999,-0.0764999985695,-0.05900000035765,-0.08049999922515,40.0,41.5,46.5,50.5,56.5,-52.5,-46.0,-45.5,-40.0,-37.0,4.0,0.0,0.0,0.0,0.0,0.0,0.0,4.945113396997745,0.1257517383521411,6.743957957545158,0.6033199796239136,0.010554848342295937,0.023146119548242194
1,1,41.8233051026,4181.5,1521544548.0,355152010.5,,2909291.5,1521544547.0,462247689.5,,0.7302377222544999,-0.08787268720989999,0.102408135089,-0.317283308691,0.947204072611,0.001836493517535,0.04617702336865,-0.0083718961158,0.0009512394627999993,-0.00601026440889,-0.005218790088929999,0.017379669730694998,0.017706981150485,-0.481605410576,-0.006683260202449998,6.6837854385350015,0.4347457140685,0.01373984664681,0.477713301778,2030203.0,1521544547.0,461148519.0,,,,,,2413439.5,1521544548.0,351094912.5,,-1.7179999709150002,2.4160000141699998,-2.375999832155,-0.0835000015795,-0.055500000715250006,-0.10249999910595,39.5,46.0,46.5,52.5,61.0,-51.0,-39.0,-38.5,-32.0,-27.0,4.0,0.59000003338,0.9100000262250004,1.730001449584999,-0.0070000030099999925,0.003499999642399991,-0.021999999880799998,3.7992045444979623,0.14338322830752906,6.701117535593263,0.6460670383036471,0.010349723636605232,0.02535401095298298
2,2,41.9258692051,4192.5,1521544548.0,465156435.5,,2909302.5,1521544547.0,572240794.0,,0.7301639455154999,-0.0879020664165,0.10181292761949999,-0.3175833338405,0.9470996388575,0.0020272519681949997,0.046248180030300005,-0.00507263471818,-0.0014149987620500001,0.00032608033782500004,-0.0014454242075500007,0.005821263812249999,-0.001713086309749999,-0.271844536066,1.264216542245,6.476074695585001,-0.01186031103132,0.12068372964850002,0.4298961162565,1150766.0,1521544547.0,568000000.0,,,,,,2413450.5,1521544548.0,459560778.0,,-0.923000073432,2.166000014175,-0.9559997558595,-0.0920000001788,-0.0645000003278,-0.08800000324844999,37.0,39.0,43.0,47.0,53.5,-71.0,-67.5,-63.0,-61.5,-58.0,4.0,0.7949998974830003,-0.24999999999500044,1.4200000762954996,-0.008499998599300005,-0.008999999612549991,0.014499995857500003,2.5411455546987076,0.14271738032528697,6.603914474027597,0.4466720277251017,0.005276378764588853,0.006237870487292583
3,3,42.0284333077,4201.5,1521544548.0,554985999.5,,2909311.5,1521544547.0,662263870.0,,0.7284518561639999,-0.08925692348684999,0.1035924574075,-0.3176497834175,0.9470900507485,0.0008570601435295001,0.046023831332200005,-0.02966515252245,-0.03340211528455,0.0278050811356,-0.06082405711685,-2.0507476750000066e-05,0.015321515848569996,-2.63890624046,-1.8815483450900001,9.904438018794998,1.613624215125,-0.22008018940702004,0.8252951204775001,2030217.0,1521544547.0,662155167.0,,,,,,2413459.5,1521544548.0,549656148.0,,-1.1329999923685,1.25600004755,-1.685999298095,-0.10199999809245,-0.0525000002235,-0.055500000715250006,44.5,48.0,51.0,53.0,61.5,-84.0,-82.0,-80.5,-78.0,-44.0,4.0,-0.20999991893649994,-0.9099999666249998,-0.7299995422355001,-0.00999999791365,0.012000000104299996,0.032500002533199984,2.388266889468063,0.12743821920334597,10.42122558958405,1.8257410641411267,0.052619816767258784,0.06272411970373451
4,4,42.130997410300004,4212.5,1521544548.0,665194034.0,,2909320.0,1521544547.0,747242841.0,,0.7214820692270001,-0.0909333939572,0.1084894722475,-0.3185783167735,0.9469574947595,0.0035298294297500007,0.042022428966,-0.11382440761,-0.0106196918541,0.0827278461083,0.07838115115745001,0.17228306004500002,-0.0424527013516,0.3763752430675,-1.56197673082,9.019716739655,1.6383340358750005,0.8293918669225,1.0039458274835,2909673.0,1521544547.0,745332748.0,,,,,,2413470.5,1521544548.0,660274156.0,,-0.8880001068125001,1.22100002132,-0.9909996032695,-0.0605000015348,-0.10949999839050001,-0.08500000089404999,45.5,54.0,54.5,55.5,72.0,-60.0,-55.0,-49.0,-44.5,-24.0,4.0,0.24499988555599986,-0.03500002622999987,0.6949996948255001,0.04149999655765,-0.056999998166999986,-0.029500000178799987,1.8059527832816555,0.15124648751365702,9.16169851582281,2.0928297844175447,0.14111226078750927,0.19397754892585958
5,5,42.2335615128,4222.5,1521544548.0,764985442.0,,2909330.0,1521544547.0,847248023.0,,0.7124654526369999,-0.09504727849469999,0.11998465646800001,-0.31508664906100003,0.9482881002820001,0.006255500767,0.037827915058400004,-0.0717060259192,-0.0625507777921,0.124881742646,-0.0329228789849,0.033438576926599996,0.00698730260179,3.50812649727,0.249599486589,6.2745923996,0.65110373497,1.43002986908,0.926738023758,2909683.0,1521544547.0,845326378.5,,,,,,2413480.5,1521544548.0,761690357.5,,-1.6929999947549998,1.305999999865,-0.0709995269775,-0.100499998778,-0.110999997705,-0.0835000015795,50.0,52.5,54.5,60.0,63.0,168.5,180.0,186.0,192.0,204.5,4.0,-0.8049998879424998,0.08499997854499998,0.920000076292,-0.0399999972432,-0.0014999993145000112,0.001499999314549999,2.139375122487601,0.17144532512922162,7.193035604365618,1.8242162330249474,0.15700255922061726,0.04744340612961402
6,6,42.3361256154,4231.5,1521544548.0,855120539.0,,2909339.0,1521544547.0,937241720.0,,0.711887585712,-0.1035583455035,0.13123504502299999,-0.31731056295800003,0.9474168145555,-0.0017242169527729994,0.04135832843665002,0.010452283444180002,-0.0988277079793,0.13203756893100002,-0.1342260905795,-0.168474317901,0.007896377998395,1.59081566334,-0.6067374646665,6.498797655104999,1.398602843285,1.0284163355815,1.0146678686139998,1150781.0,1521544547.0,943000064.0,,,,,,2413489.5,1521544548.0,850718475.5,,-1.4330000042949995,0.145999994129,-1.2210010528575,-0.110500000417,-0.08900000154974999,-0.08200000226500001,58.5,60.0,61.0,62.0,67.0,100.0,102.5,103.0,118.0,134.0,4.0,0.25999999046000033,-1.160000005736,-1.15000152588,-0.010000001639,0.02199999615525001,0.0014999993144999837,1.8882925042678793,0.16387571735761375,6.718124424849249,2.0107911269282654,0.16525763432546123,0.2155518312841644
7,7,42.4386897179,4243.5,1521544548.0,975463032.0,,2909351.0,1521544548.0,57249956.0,,0.7142109479054999,-0.10880644342,0.14642509544350002,-0.31506396730200004,0.947682132494,-0.00384912338016,0.05116054192205001,0.0004739703785994376,-0.016417717878925,0.12386385353849999,0.0880562940525,-0.123192379205,-0.02974965664477,2.34112599491975,0.07336527109150004,5.436109542844999,0.9471426308130001,1.4459138810624999,0.935744583606,2030245.0,1521544548.0,63659405.5,,,,,,2413501.5,1521544548.0,971874670.0,,-1.0229999780655,1.93100005947,-1.79100074768,-0.09350000321839999,-0.1315000019965,-0.09600000083455,54.0,55.0,57.0,60.0,74.0,78.0,83.0,85.5,87.5,97.5,4.0,0.4100000262294996,1.785000065341,-0.5699996948225001,0.0169999971986,-0.042500000446750015,-0.01399999856954999,2.8254156973771978,0.18775116853738597,5.919251671360307,1.9655442097039075,0.12494807050002309,0.15432211535269522
8,8,42.5412538205,4251.5,1521544549.0,55021047.0,,2909359.5,1521544548.0,142241747.0,,0.7146660983935,-0.1106009737005,0.15430910388250002,-0.309775025785,0.9492156846305,-0.0018754139711950001,0.055001852862500006,0.02623633399015,-0.036553040329849996,0.07968604966185001,0.0036641462783500033,-0.1204167468815,-0.08284290939545,7.0167460441600005,4.03227186203,1.63714504242,-0.6437956392765,2.632687568665,0.739454060793,2909712.0,1521544548.0,135339193.0,,,,,,2413509.5,1521544549.0,52242882.5,,-1.903000032905,0.050999997183499984,-3.285999679565,-0.06700000166895,-0.08999999985110001,-0.053999999538050014,56.5,58.0,62.5,67.5,73.0,76.0,79.5,82.5,86.5,100.5,4.0,-0.8800000548395001,-1.8800000622865,-1.4949989318849997,0.02650000154945001,0.041500002145399985,0.042000001296499986,3.7976050372636743,0.12451907543403422,8.256766032017275,2.809325358049139,0.091511400870652,0.14620727250918514
9,9,42.6438179231,4261.5,1521544549.0,154981493.5,,2909370.5,1521544548.0,252242202.5,,0.7186007719215,-0.114337673195,0.15778849399800002,-0.3151760162055,0.9470172624745,-0.01114046276765,0.06080265202985,0.006417006246450002,-0.015874447325810004,0.007613076666015,-0.17057520268415,-0.11459856484089999,0.15652408998700001,0.18884301185600005,-0.190779104829,4.25517106056,1.08347424865,0.8468895554545001,0.8029199242589999,2030258.5,1521544548.0,250177527.0,,,,,,2413519.5,1521544549.0,152432725.0,,-1.1879999995219999,0.8109999801970001,-0.8960002899149999,-0.1154999993743,-0.1575000062585,-0.06799999997020001,52.5,54.0,58.0,68.0,76.0,83.5,84.0,86.5,93.0,110.0,4.0,0.7150000333829998,0.7599999830135001,2.3899993896500002,-0.04849999770535,-0.06750000640739999,-0.014000000432150002,1.6946626467446464,0.20681030395712405,4.263629803887002,1.5924254366838282,0.01873859608907553,0.2583186435017637
10,10,42.7463820256,4275.5,1521544549.0,295532583.5,,2909385.5,1521544548.0,402241811.0,,0.7067772743490001,-0.1069860126145,0.15285554299249998,-0.312087769816,0.948510911218,-0.00529353678091,0.053852510950300005,-0.09344854398165,0.06541744077789999,-0.05022560232445,0.08196824742475001,0.15014537473099998,-0.0751539442498,1.8239030241950005,3.09976375103,6.118216991425,-0.392892867327,1.056788027285,0.476071894169,2030269.0,1521544548.0,401667141.0,,,,,,2413533.5,1521544549.0,291934626.5,,0.2219999074935,1.4560000356299998,-1.5809997558600002,-0.09099999815224999,-0.0854999981821,-0.0815000012517,52.0,58.5,66.0,68.5,80.0,87.0,89.0,91.0,98.0,119.0,4.0,1.4099999070155,0.6450000554329997,-0.6849994659450003,0.02450000122205,0.07200000807639999,-0.013500001281499988,2.160736052994688,0.14910901903263835,7.097023087748047,1.2238505579632726,0.12463820866441488,0.18684363108037558
11,11,42.848946128200005,4284.5,1521544549.0,385262966.0,,2909394.5,1521544548.0,492241195.5,,0.6974062176575001,-0.104444263759,0.1494383906065,-0.30242467361450004,0.952118451346,-0.00234820400246,0.044591550351,-0.15758104892995,-0.014262125272150001,-0.044011862730300014,-0.0725078729259,0.3538993375235,-0.9808844983149999,1.1833759546300002,-1.5364530086550001,4.007152378560002,2.24441695213,-0.657135128975,2.527853012085,2030275.0,1521544548.0,492147028.0,,,,,,2413542.5,1521544549.0,380989490.0,,4.927000188829352,7.116000181065,3.898999786375,0.22699999809250004,0.4129999950525,0.4244999848305001,45.5,49.0,54.0,73.0,86.0,62.0,68.0,74.0,85.0,114.0,4.0,4.705000281335852,5.660000145434999,5.4799995422349985,0.3179999962447501,0.4984999932346,0.5059999860822001,9.492891486359353,0.6342698417617338,4.451779046942979,3.443729792455952,0.16423227228572515,1.0452925579810084
12,12,42.9515102308,4293.5,1521544549.0,475819944.5,,2909403.5,1521544548.0,582243869.5,,0.6600209593215001,-0.1282821814605,0.136491695502,-0.31123718278900003,0.9502304596269999,-0.0136093256949,-0.0026014408169950003,-0.18882885030000002,-0.1208496361545,-0.1125144203876,-0.12845528871775,0.5063627263645,0.0378997050168645,26.5365552902,11.29360342027,7.58781456947,-1.08779719472,6.79506540298,0.552917301655,2030281.5,1521544548.0,582164462.0,,,,,,2413551.5,1521544549.0,471889521.0,,3.502000236515,5.340999847275,3.4190002441400003,0.035499999299650004,0.16149999946370006,0.18650000169865,63.0,65.0,75.5,79.0,87.5,9.5,16.5,19.0,23.5,40.0,4.0,-1.4249999523143517,-1.7750003337899996,-0.4799995422349994,-0.19149999879285004,-0.2514999955888,-0.2379999831318501,7.244297598426784,0.24924837092877203,29.821287276454665,6.90376231558459,0.2508395185361597,0.5237751039245903
13,13,43.0540743333,4305.5,1521544549.0,594990014.5,,2909415.0,1521544548.0,697249276.0,,0.67462520042,-0.123872913224,0.129986440754,-0.310315527197,0.9504326835269999,-0.00427226998959,0.019071847664700003,0.35011769062,0.104481388562,-0.0444292324599,0.37851823251999994,-0.723277234834,0.050880064611999995,0.923201203346,3.75790429115,9.40724945068,-0.104928851128,-1.10002923012,0.8549867272380001,2030289.5,1521544548.0,698651954.0,,,,,,2413563.5,1521544549.0,591617754.0,,5.601999902725001,6.95099998079,2.6739994049050004,-0.6140000075104999,0.402999997139,0.2405000030995,76.5,82.5,88.0,93.0,95.5,97.5,107.5,114.0,123.5,126.5,4.0,2.099999666210001,1.6100001335149994,-0.7450008392349998,-0.6495000068101499,0.24149999767529995,0.05400000140085001,9.319285190426665,0.7728164454822292,10.172044403689076,1.3971673753242981,0.36806618227962956,0.8179210180415363
14,14,43.1566384359,4313.5,1521544549.0,675917505.5,,2909421.0,1521544548.0,757245264.0,,0.6852586012334999,-0.1179186051835,0.127771105619,-0.31096732173700004,0.949801059213,-0.00015712596620599998,0.03419944623835,0.14854498954599998,0.07985803998544999,-0.03859487436914999,0.186704447361,-0.43591362607649997,0.13233858555050002,9.402299880985003,2.510132074355,8.917400121684999,-0.1101774871345,3.4872500896450003,0.8062033355235,2909774.0,1521544548.0,755353915.0,,,,,,2413571.5,1521544549.0,671831338.5,,-0.933000004292,2.411000078545,0.6139999389649999,-0.14149999618550002,-0.1264999993145,-0.08100000023845,76.0,77.5,86.5,95.5,98.5,129.5,137.5,160.0,174.0,182.5,4.0,-6.534999907017001,-4.539999902245,-2.0599994659400007,0.4725000113249999,-0.5294999964535,-0.32150000333795004,2.657142508749181,0.20636254210901242,13.199395100265162,3.5809239149428396,0.1730100713747886,0.4923339733240497
15,15,43.259202538500006,4326.5,1521544549.0,804994463.5,,2909434.5,1521544548.0,892250844.0,,0.7039857216484999,-0.1073944610165,0.1284298537305,-0.3179086776175,0.9463783430255001,-0.00037300645231025,0.05746074994065,0.0908220391778,0.03290448077625,0.01772787938025,-0.06897324276945,-0.256739338004,0.15955229002100002,4.4531754255300005,1.807227134705,4.484226942059999,-0.16896951198559995,2.52885568142,0.717469871044,2030303.0,1521544548.0,894168139.5,,,,,,2413584.5,1521544549.0,801688718.0,,-0.8230000495909999,-0.538999993354,-1.146000289919,-0.05300000030545,-0.1635000035165,-0.03299999982115,63.5,68.5,71.5,79.0,81.5,46.0,50.0,65.0,70.5,95.0,4.0,0.109999954701,-2.950000071899,-1.760000228884,0.08849999588005003,-0.037000004201999975,0.04800000041730001,1.5103531835159723,0.17501500270110876,6.57306112514216,2.6340889827959035,0.09821214468124162,0.3100473014683581
16,16,43.361766641,4337.5,1521544549.0,915047526.0,,2909445.0,1521544548.0,997242168.0,,0.701778425102,-0.10453772022199999,0.128197475335,-0.31930664937,0.946022701795,-0.0023921546276,0.0554850335886,-0.049508638762300015,0.0752004377752,-0.0159286259063,0.129774336072,0.074775576712,-0.188661644832,5.3429350853,2.12086391449,3.0586726665499997,0.310042619705,1.75494039059,0.61065775156,2030311.0,1521544549.0,5163629.0,,,,,,2413595.5,1521544549.0,911297691.0,,-1.1679999589899999,-0.023999998346000032,0.15399894714380002,-0.1044999994336,-0.06100000068545,-0.06600000150505,1.5,1.5,5.5,10.0,19.0,-60.5,-57.0,-50.0,-45.0,-28.5,4.0,-0.34499990939900016,0.5149999950079999,1.2999992370628002,-0.051499999128150016,0.10250000283105,-0.033000001683900014,1.1783529097187517,0.13783051245611003,6.511566443691997,1.88383786194514,0.09143266526215067,0.24088582649515994
17,17,43.464330743599994,4346.5,1521544549.5,505015491.5,,2909454.0,1521544549.0,87241016.0,,0.701319255525,-0.09600076531549999,0.12614810936899998,-0.31878073730900003,0.9461397434890001,0.00292410124915,0.056478995594,0.017985310329599997,0.09492502046839996,-0.029800647247900002,0.0959044255953,-0.0271885019215,0.047463175429600005,1.63206827641,1.8149368763,2.6353342533099995,-0.644690930843,0.23702332377399998,0.316412746906,2909807.0,1521544549.0,85345851.0,,,,,,2413604.5,1521544549.5,501297624.5,,-1.0029999971405,1.120999997483,-0.5459999084475,-0.146999999881,-0.08549999818205001,-0.0439999997616,-14.5,-11.0,-10.0,-7.5,-1.0,-44.0,-30.0,-28.0,-18.5,-5.5,4.0,0.16499996184950014,1.144999995829,-0.6999988555912999,-0.04250000044739997,-0.024499997496600014,0.02200000174345,1.6002393223032008,0.1756566242222745,3.592023016419366,0.7562562255801195,0.10110543741546217,0.11040664159080661
18,18,43.5668948462,4354.5,1521544550.0,85011482.0,,2909462.0,1521544549.0,167247231.0,,0.705278260458,-0.09322935143750001,0.121552105977,-0.321892608651,0.944932047524,0.000101695703641,0.0590640645046,0.06237548176940001,0.0489793571986,-0.0801354225127,-0.05033868502830001,-0.09295260008339999,0.11712789455999999,0.272775053978,-0.062430411577199994,5.09887838364,0.533912062645,0.261383205652,0.438806205988,2030322.5,1521544549.0,175167785.5,,,,,,2413612.5,1521544550.0,82129013.5,,-1.47799996138,0.8310000058265,-3.106001281735,-0.09449999779475,-0.06250000186265,-0.05750000104310001,-30.5,-29.5,-24.5,-20.0,-13.0,-10.0,-7.0,1.0,8.0,9.0,4.0,-0.4749999642395,-0.28999999165650003,-2.5600013732875,0.05250000208624998,0.0229999963194,-0.013500001281500008,3.5386846225204054,0.12705412207400243,5.106551141182634,0.738873573250754,0.11274468545719461,0.15777551380585444
19,19,43.6694589487,4367.5,1521544550.0,214982032.0,,2909477.5,1521544549.0,322249064.0,,0.7078955153045,-0.08448543949095,0.1079411876245,-0.323399000605,0.9444212385690001,0.003651837789985,0.0588902190086,0.012780554056215,0.030727769723099995,-0.10075190317015,0.04053426401855,0.026797677632830003,-0.012868053067150002,1.9746260046950002,1.0606047213095,3.61723268032,-0.2530495896935,0.6756716966625,0.2387674748895,2909830.0,1521544549.0,315338503.0,,,,,,2413625.5,1521544550.0,211726781.0,,-1.6729999542250005,1.746000057085,-0.50599899292,-0.1035000011325,-0.0725000016391,-0.06900000199675001,-60.0,-59.0,-56.5,-49.0,-20.0,16.5,25.0,32.5,38.5,46.0,4.0,-0.1949999928450004,0.9150000512585,2.6000022888150003,-0.009000003337750001,-0.009999999776449995,-0.011500000953649996,2.470522217470171,0.1439774313830071,4.255396867139039,0.7599843706155661,0.10610600542168655,0.05026657811884139
20,20,43.7720230513,4375.5,1521544550.0,295225023.5,,2909485.5,1521544549.0,402240632.0,,0.7060910727420001,-0.0835016752768,0.1007765931461,-0.3233797542965,0.9446554076015,0.005192929346599999,0.054992671687900015,-0.027004755350900002,0.02273666894615,-0.08583618463694999,-0.0037287652632949993,0.1136951481695,0.0374991938717,3.750412225725,1.19564950466,3.521564483645,-0.15975657105430002,1.1088559031475,0.338606312871,2030338.5,1521544549.0,401651452.5,,,,,,2413633.5,1521544550.0,292299721.5,,-0.5729999303815,1.060999995099,0.208999252319,-0.10099999979145,-0.09049999713895003,-0.06899999827145001,-72.0,-70.0,-64.0,-61.0,1.5,30.0,33.5,42.0,43.0,45.5,4.0,1.1000000238435002,-0.6850000619859999,0.7149982452389999,0.002500001341050009,-0.017999995499850027,3.725299999035592e-09,1.2238180409224169,0.15215863170219088,5.2817218795891865,1.1703579841468075,0.09281197939575124,0.11977762707910296
21,21,43.8745871538,4388.5,1521544550.0,425034046.0,,2909498.5,1521544549.0,532243560.5,,0.7026979741889999,-0.08320517383664999,0.09567466019355,-0.3246737115675,0.9444701391654999,0.006158558214359999,0.050247763467300005,-0.012716020833005,-0.0016731956186,-0.0062747319599300005,0.00931733523856,0.040726287786249996,-0.00790766176964475,3.1590833663950004,1.59957921505,7.325302839280001,-0.06632967293257,1.1902074217799998,0.499102950096,2030347.5,1521544549.0,532163208.5,,,,,,2413646.5,1521544550.0,423876317.0,,-0.13299999237049998,2.9509999807950003,-0.2159980773928,-0.1019999980928,-0.0965000018479,-0.112500000745,-79.0,-77.0,-73.5,-62.5,-47.0,77.5,83.0,88.5,98.0,104.0,4.0,0.439999938011,1.889999985696,-0.4249973297118,-0.0009999983013500163,-0.006000004708949971,-0.04350000247354999,2.961882012177398,0.17992359527088408,8.136247480762687,1.2923223619384083,0.014278271273949322,0.04252028183654559
22,22,43.977151256400006,4395.5,1521544550.0,495270013.0,,2909505.5,1521544549.0,602242555.5,,0.703916115947,-0.08267876468759999,0.09661065822574999,-0.32456081977150003,0.9444283254585,0.00609165074242,0.05174978403865002,0.03376901309,0.0049136476863000005,0.0309234978963,0.00989717035703,-0.07755697904385,-0.01259575737925,2.94787764549,1.47301316261,5.334385633469999,0.1941556930545,1.161102056505,0.5663779079915,2030352.5,1521544549.0,602646914.5,,,,,,2413653.0,1521544550.0,486533912.0,,-1.2779999733,1.60099995695,-0.0760005950928,-0.104999996722,-0.0839999988675,-0.0540000014007,-85.0,-79.5,-75.5,-64.0,14.0,38.0,42.0,50.0,55.0,58.0,4.0,-1.1449999809295002,-1.3500000238450005,0.1399974823,-0.0029999986291999875,0.012500002980400007,0.0584999993443,2.0499416782833513,0.144903413598975,6.27020099172053,1.3063836930344934,0.04605163298733437,0.07919401545218674
23,23,44.079715359,4407.5,1521544550.0,615306496.0,,2909516.0,1521544549.0,707569636.0,,0.7059331397640001,-0.0819081355067,0.09814935861030001,-0.324372694392,0.9443639895010001,0.0062149597809200005,0.054040584211,0.0214573626315,-0.0054437823981,0.0126979188102,0.00502339513292,-0.029274102702900005,-0.022152056699900002,1.26211166382,0.5039078593249999,4.62848138809,0.475965797901,0.7530176043510001,0.600894987583,2909869.0,1521544549.0,705647235.0,,,,,,2413665.5,1521544550.0,613318436.5,,-1.73300001621,1.4060000237099999,-1.98099937439,-0.0949999988079,-0.0669999998063,-0.07000000029799999,-84.0,-82.0,-81.5,-79.5,-8.5,75.0,85.0,86.5,88.5,100.5,4.0,-0.4550000429099999,-0.19499993323999987,-1.9049987792971999,0.009999997914100014,0.01699999906119999,-0.01599999889729999,2.984038143889912,0.13569819375830028,4.823866596676936,1.0745481558945735,0.02552039027930386,0.037052951350155176
24,24,44.182279461499995,4416.5,1521544550.0,705256581.0,,2909523.0,1521544549.0,777566284.0,,0.706080047526,-0.08329968115389999,0.0980364603371,-0.323577262348,0.944665319815,0.00581912703552,0.0535847608119,-0.00291216972559,0.00170064039027,0.000870419178106,-0.00497734708728,0.0100892232055,0.0102055654864,2.32353115082,1.0873308181799999,4.97483730316,0.290320932865,1.0651253461799999,0.5721808671949999,2909877.0,1521544549.0,785621027.0,,,,,,2413674.5,1521544550.0,703303134.5,,-0.8080000638965,2.94099999033,-0.325998687744,-0.10200000181800001,-0.08749999850985,-0.10249999910595,-84.5,-83.5,-83.0,-82.0,2.0,60.5,65.0,69.5,98.0,111.0,4.0,0.9249999523135,1.5349999666199998,1.655000686646,-0.00700000301010001,-0.02049999870355,-0.03249999880795,3.067347419316667,0.16901627118953816,5.597328962094971,1.243450518484226,0.0034828924464122284,0.015189469240722444
25,25,44.2848435641,4429.5,1521544550.0,835043549.5,,2909536.0,1521544549.0,907563698.0,,0.705512151537,-0.0827933551743,0.09750280372539999,-0.324001842716,0.9445473345350001,0.00602755666447,0.0530736026717,0.0008831514840989998,-0.0038218143019499995,-0.00433187377955,-0.006367277822100001,-0.005554389614319999,-0.00254203305216,2.2871057987200003,1.0497982502,5.66517400742,0.311829686165,1.03059768677,0.563942432404,2909889.0,1521544549.0,905618328.0,,,,,,2413687.5,1521544550.0,833653720.5,,-2.1679999589950003,1.86099994741,-1.750999832155,-0.09899999946344999,-0.082499999553,-0.06949999928475001,-86.5,-83.5,-83.0,-81.0,-31.0,187.0,190.5,197.5,202.0,217.0,4.0,-1.3599998950985004,-1.0800000429199998,-1.425001144411,0.0030000023545499878,0.0049999989568500075,0.03299999982119998,3.3510513333384173,0.14641550368928952,6.1989616739425655,1.2154836124831867,0.005843915771501899,0.008823570869537247
26,26,44.3874076667,4436.5,1521544550.0,907467484.0,,2909544.0,1521544549.0,987570934.0,,0.705595544102,-0.0819921142066,0.0980297760259,-0.324218844999,0.944449249279,0.0063354555123400005,0.053456693573,0.00857490523101,0.00290178562058,0.009093576402889998,0.009326607909540001,-0.0240635807674,-0.0069761258747000005,1.922316432,0.881963431835,5.306651592250001,0.41126036644,0.9025570154189999,0.578611969948,2909897.0,1521544549.0,985618835.0,,,,,,2413694.5,1521544550.0,903094120.5,,-0.9079999685285,1.9359999951,-1.1910003662100002,-0.1030000001195,-0.08050000295045,-0.062499998137350014,-94.0,-93.0,-89.0,-83.0,-43.0,221.0,228.0,238.5,250.0,255.0,4.0,1.2599999904665002,0.0750000476899999,0.5599994659449998,-0.004000000656049982,0.00199999660255,0.007000001147399994,2.44766047404196,0.14489824107561905,5.712592325850046,1.148275257442013,0.012831309025341308,0.02673402077255002
27,27,44.489971769200004,4449.5,1521544551.0,35092472.5,,2909557.0,1521544550.0,117566766.0,,0.705864464208,-0.08176647400739999,0.09856956224230001,-0.324323087795,0.94438573265,0.00604543435226,0.0539775454578,0.00652645312671,-0.0011155952695799999,0.00812247180814,0.009777570239510001,-0.007911958898249999,0.00437874706979,1.1227227449400001,0.6959567070010001,5.972558975219999,0.433992266655,0.573341012001,0.531156539917,2030389.0,1521544550.0,120811082.0,,,,,,2413707.5,1521544551.0,32415068.5,,-1.95799998045,1.591000026095,-0.465999984741,-0.10200000181800001,-0.09349999949335,-0.06600000150505,-93.0,-91.0,-88.0,-85.0,6.0,188.5,203.0,218.0,219.0,227.5,4.0,-1.0500000119214998,-0.3449999690050001,0.7250003814690001,0.0009999983014999936,-0.012999996542900016,-0.00350000336769999,2.5655800498630135,0.1533044372312656,6.116888327614478,0.8939778931580328,0.01047920280816633,0.013318160507267644
28,28,44.5925358718,4457.5,1521544551.0,115154027.5,,2909565.0,1521544550.0,197565694.0,,0.7063816080140001,-0.0823577581149,0.0986695175708,-0.32421943681800003,0.944398207622,0.0058061767235799994,0.0544065303234,-0.00857869078839,0.00805897405164,-0.004720702366439999,0.012292339567799999,0.0130189870799,-0.00649456354183,0.858303308487,0.546491861343,5.8053817749,0.512260437012,0.4946970045570001,0.549154281616,2909918.0,1521544550.0,195639436.0,,,,,,2413715.5,1521544551.0,112695264.5,,-2.2230000257449998,1.3109999951,-1.39600028992,-0.10000000149,-0.08399999886750001,-0.07349999994039999,-87.0,-86.0,-84.5,-81.0,19.5,260.0,262.0,271.0,286.5,338.5,4.0,-0.2650000452950003,-0.2800000309949999,-0.930000305179,0.00200000032799999,0.009500000625850005,-0.007499998435349986,2.934155229545839,0.14986076904573392,5.893877796172478,0.8992809942740805,0.0126817202792179,0.01904665304549784
29,29,44.695099974399994,4467.5,1521544551.0,215002536.5,,2909577.0,1521544550.0,317573889.0,,0.7057576505159999,-0.0823768120412,0.0980713971421,-0.323948904545,0.9445254106119999,0.006103438216,0.053773636616500003,0.00310379599258,0.000270866332694,0.00771116620081,0.00756013211574,-0.011299959838399999,-0.022878139452,0.851184606552,0.48225921392399995,6.010990619659999,0.510705828667,0.53670167923,0.566808640957,2030402.5,1521544550.0,316808813.5,,,,,,2413724.0,1521544551.0,199352041.0,,-1.43800005913,2.14100003801,-1.43600120544,-0.097999997437,-0.0729999989271,-0.0799999982119,-90.0,-87.0,-83.0,-75.0,-41.0,214.0,220.0,246.0,302.0,310.0,4.0,0.7849999666150003,0.8300000429100001,-0.04000091551999985,0.002000004053000007,0.010999999940400004,-0.00649999827150001,2.9519188326987984,0.1460582043396146,6.090081888898226,0.9328135780456192,0.008316790385133997,0.026613041065275782
30,30,44.7976640769,4479.5,1521544551.0,335029482.5,,2909589.5,1521544550.0,442570381.5,,0.7057101863140001,-0.0825993746445,0.09836991058425,-0.32395821086550003,0.94454146499,0.005944527571015001,0.053452355567700005,0.0026875777340300004,0.007320570292550002,-0.006872759252780001,0.01108728343108,-0.0017356346341100006,0.0064566798692500035,1.260550618175,0.6724069714550001,5.964549064635,0.4798779189585,0.649626761675,0.572073370218,2030411.0,1521544550.0,441309591.5,,,,,,2413737.5,1521544551.0,332853481.0,,-1.9829999864099996,1.89100003801,-2.67600097656,-0.0840000025928,-0.07100000232459999,-0.09450000151995,-92.5,-91.0,-88.5,-82.0,37.5,138.5,151.5,161.5,163.0,172.0,-1.0,-0.5449999272800001,-0.25,-1.2399997711199997,0.013999994844200005,0.001999996602500012,-0.01450000330805,3.830032808789757,0.14500776204380977,6.133267036472562,0.9897301084138387,0.010394644930505927,0.012947161712058805
31,31,44.9002281795,4489.5,1521544551.0,434988975.0,,2909599.5,1521544550.0,542574893.5,,0.706398829626,-0.08292990496444999,0.09918292058900001,-0.3237467502175,0.9445711547665,0.005403620237510001,0.05425947005065001,0.020611092765,-0.0018968276075099991,0.016510360146399998,-0.00893506860627,-0.040973571289449985,0.00254847090045,0.369598433375,0.3458730578425,6.1756396293649995,0.581943362951,0.29707911610599996,0.546589910984,2909952.5,1521544550.0,540623502.5,,,,,,2413747.5,1521544551.0,432761506.0,,-1.9679999709150002,1.781000083315,-1.19099845886,-0.1035000011325,-0.08049999922515,-0.08350000157955001,-92.0,-89.5,-81.0,-79.0,9.0,-1.0,1.0,5.0,15.5,37.0,-1.0,0.015000015495000074,-0.10999995469500012,1.4850025176999997,-0.019499998539700008,-0.009499996900550006,0.01099999994039999,2.909203071512261,0.15545015398339593,6.196350216528924,0.8518653706417104,0.02647653852194204,0.042013851277178015
32,32,45.0027922821,4501.5,1521544551.0,555006503.5,,2909611.5,1521544550.0,661705253.0,,0.7061282382549999,-0.08258909625210001,0.0993530030866,-0.32413353678,0.944437502344,0.005434038397175,0.054273720782450005,0.00042046106250499983,-0.007702191489225,-0.0065961225487750005,-0.0028795669355690004,0.002086047054595,-0.009873364254985,0.6477188766005,0.294598132372,6.014860391615,0.648389786482,0.4862640202045001,0.606248021126,2030426.5,1521544550.0,662893641.5,,,,,,2413759.5,1521544551.0,552779734.5,,-2.113000011445,1.590999966485,-1.03599967957,-0.1015000008045,-0.07800000160935,-0.08100000023845,-87.0,-84.5,-84.0,-78.0,-25.5,-17.5,-14.0,-11.5,-7.0,1.0,-1.0,-0.14500004053000004,-0.19000011683000007,0.15499877929000005,0.002000000328000004,0.002499997615799998,0.002500001341100011,2.840659303364447,0.15148349894625818,6.056803887639142,1.01212582008306,0.010149353374487996,0.010494132635050037
33,33,45.1053563846,4508.5,1521544551.0,624996542.5,,2909616.5,1521544550.0,711951722.5,,0.7067086275954999,-0.08225082557645,0.0997768354997,-0.3242561044255,0.944353698145,0.005347076604339999,0.05500390466735,0.0035521123491465494,-0.006717082379265001,-0.0027055866311900003,-0.008060831338605001,-0.0068013736602299995,-0.00100412158686,0.215275682509,0.2847200483085,6.013585329055001,0.590237110853,0.304202482104,0.5577626526355,2030430.0,1521544550.0,713527197.5,,,,,,2413766.0,1521544551.0,618046092.0,,-1.5479999542200005,1.3409999664899999,-0.7760013580320001,-0.104999996722,-0.07400000095369999,-0.0869999974966,-91.0,-88.0,-87.0,-83.0,1.0,-19.5,-16.0,-15.0,-12.0,-6.0,-1.0,0.5650000572249996,-0.24999999999499975,0.25999832153799984,-0.0034999959174999984,0.00400000065565001,-0.005999997258150007,2.190151336337015,0.155145090212923,6.024169456050689,0.867189814182178,0.00806578556928374,0.010594524326117958
34,34,45.20792048720001,4521.5,1521544551.0,755063533.5,,2909629.0,1521544550.0,836948815.0,,0.7064495600059999,-0.0823164503964,0.09962909746210001,-0.324389550821,0.9443240920720001,0.005422784041149999,0.054717655874500004,0.000170705322572,-0.008316409852689999,0.00233126671853,-0.011472185020700002,-0.0011277220295000002,-0.0066396442194200005,0.796468257904,0.5319897532460001,5.92279291153,0.5086165666579999,0.4198403954510001,0.5278890132899999,2909982.0,1521544550.0,835030298.0,,,,,,2413779.5,1521544551.0,753236820.5,,-1.618000006675,0.515999978408,-0.521000289917,-0.1025000028315,-0.07700000330805,-0.038999998942,-93.0,-93.0,-92.0,-87.0,32.0,-19.0,-15.0,-10.5,-7.5,10.0,-1.0,-0.07000005245499953,-0.824999988082,0.2550010681150001,0.0024999938904999987,-0.003000002354350009,0.047999998554600014,1.7764068513184006,0.13400093659140305,5.999737548949737,0.8447624399106021,0.008638669900974302,0.01330291928433269
35,35,45.3104845897,4528.5,1521544551.0,825006007.5,,2909636.0,1521544550.0,906976674.0,,0.7062964508480001,-0.0824544794398,0.0992646448068,-0.324238762811,0.944382180574,0.00532089361332,0.0546187677996,-0.00131113727284,0.00818798874398,0.000866547994391,0.00630486925326,-0.00187302173255,0.00215745346452,0.33066439628600003,0.238281041384,6.106943607330001,0.637360930443,0.314045131207,0.550886750221,2030444.0,1521544550.0,914516084.0,,,,,,2413786.5,1521544551.0,822495370.0,,-1.913000023365,2.101000016555,-2.4760002136200003,-0.08850000053644999,-0.06450000032780001,-0.049499999731800005,-100.5,-99.0,-98.0,-96.0,33.5,-18.5,-12.0,3.0,5.0,24.0,-1.0,-0.29500001669,1.585000038147,-1.954999923703,0.01400000229505001,0.012500002980249987,-0.010500000789800006,3.768865507922097,0.12017799345423458,6.120529145487585,0.8990714719414931,0.008337454410451462,0.006922007812974301
36,36,45.413048692299995,4542.5,1521544551.0,965059995.0,,2909650.0,1521544551.0,46953581.0,,0.7061165615620001,-0.08235588819680001,0.09904220346239999,-0.3244011453,0.9443425929170001,0.00570758218111,0.054299057419499995,-0.010108514256200001,-0.0018842985118199998,-0.00021341832703599997,-0.020741046714,0.011377382470799998,0.000168518384473,0.392932265997,0.298152595758,6.1516909599300025,0.65721309185,0.367936193943,0.580159664154,1150904.0,1521544551.0,56000000.0,,,,,,2413800.0,1521544551.0,958401639.0,,-1.1580000877399999,2.01099992357,-0.646000289917,-0.107000000775,-0.0810000002384,-0.06499999761580001,-94.0,-93.0,-90.0,-88.0,8.0,-10.5,-4.5,4.0,7.5,17.5,-1.0,0.7549999356249999,-0.090000092985,1.829999923703,-0.018500000238550016,-0.01649999991059999,-0.01549999788400001,2.408817400795926,0.14911404995681932,6.171433577581735,0.9507319952665838,0.010284852392317577,0.02365722403675255
37,37,45.5156127949,4549.5,1521544552.0,35021543.0,,2909657.0,1521544551.0,116956245.0,,0.706544564594,-0.08298422670410001,0.0997842077059,-0.32383857666,0.9445086398039999,0.00503006894516,0.054833420539,0.0009345727138960001,-0.0028852087962700002,0.006077415746729999,0.0008903917234489999,-0.005608278185010001,-0.000322882927771,-0.026655882596999997,0.416166871786,7.28124666214,0.39934438467,0.135870277882,0.44410872459399997,2030458.5,1521544551.0,121025717.5,,,,,,2413806.5,1521544552.0,25658180.5,,-0.5680000543595001,2.63100004755,-0.5359996795655,-0.10049999877795,-0.0920000001788,-0.07250000163914999,-99.0,-96.5,-93.0,-90.0,8.0,-13.5,-12.5,-11.0,-4.0,9.5,-1.0,0.5900000333805,0.6200001239800002,0.11000061035150001,0.006500001997050003,-0.010999999940400004,-0.007500004023349979,2.7444636941404084,0.1543389128669238,7.293178892374303,0.6125105952060765,0.006792115879034638,0.005687691535824664
38,38,45.6181768974,4562.5,1521544552.0,165076493.5,,2909672.5,1521544551.0,271951274.0,,0.7072023155485001,-0.08219184022704999,0.101089214283,-0.32441718215750004,0.94424269611,0.004724595406875,0.056007264312500006,-0.0029585475426405004,-0.002655908256825001,-0.00391414203492,-0.007583792181210002,-7.107539593500037e-05,0.00826077467459,-0.5045104026795,-0.0031517222523499977,5.659356832505001,0.6969395875929999,0.046015720814450004,0.5396436452865,1150912.5,1521544551.0,267500032.0,,,,,,2413820.0,1521544552.0,158204459.0,,-1.78799996376,2.07100010477,-0.846001052856,-0.10400000214600001,-0.0790000036359,-0.07400000095369999,-90.0,-88.5,-86.0,-78.0,21.5,-6.0,15.5,17.0,20.0,25.0,-1.0,-1.2199999094004998,-0.5599999427800002,-0.31000137329050004,-0.003500003368049995,0.012999996542900004,-0.001499999314549999,2.863861568895496,0.15010996356667275,5.681800809372502,0.8826423393506998,0.0055791899143390914,0.011214247802863855
39,39,45.720741,4572.5,1521544552.0,265031456.5,,2909682.5,1521544551.0,371951599.5,,0.706795714692,-0.08304340970105,0.1012139222895,-0.324243066846,0.944337534941,0.0042115369710700006,0.05545295300945,0.0037151759729885,-0.007356658381710002,0.006685719919005,-0.00322893079903,-0.005954272532120001,-0.0041816756644,-0.07838889956470001,0.06872241199025,6.4310131073,0.7171796262260001,0.0471257008612,0.532525599003,1150916.5,1521544551.0,369500032.0,,,,,,2413830.5,1521544552.0,264439649.5,,-0.36800000667595,2.115999942645,-0.0959991455076,-0.105000000447,-0.0925000011921,-0.06400000117719999,-98.0,-97.0,-93.5,-85.0,19.0,3.0,6.0,7.0,9.5,16.0,-1.0,1.4199999570840502,0.04499983787499984,0.7500019073484001,-0.0009999983010000046,-0.013499997556200016,0.0099999997765,2.1499059509953757,0.1538741383894321,6.4318579878406155,0.8945115770904413,0.010612342149159877,0.00796026173275216
