,Unnamed: 0,Unnamed: 0.1,.header.seq,.header.stamp.secs,.header.stamp.nsecs,.header.frame_id,.endpoint_state.header.seq,.endpoint_state.header.stamp.secs,.endpoint_state.header.stamp.nsecs,.endpoint_state.header.frame_id,.endpoint_state.pose.position.x,.endpoint_state.pose.position.y,.endpoint_state.pose.position.z,.endpoint_state.pose.orientation.x,.endpoint_state.pose.orientation.y,.endpoint_state.pose.orientation.z,.endpoint_state.pose.orientation.w,.endpoint_state.twist.linear.x,.endpoint_state.twist.linear.y,.endpoint_state.twist.linear.z,.endpoint_state.twist.angular.x,.endpoint_state.twist.angular.y,.endpoint_state.twist.angular.z,.endpoint_state.wrench.force.x,.endpoint_state.wrench.force.y,.endpoint_state.wrench.force.z,.endpoint_state.wrench.torque.x,.endpoint_state.wrench.torque.y,.endpoint_state.wrench.torque.z,.joint_state.header.seq,.joint_state.header.stamp.secs,.joint_state.header.stamp.nsecs,.joint_state.header.frame_id,.joint_state.name,.joint_state.position,.joint_state.velocity,.joint_state.effort,.wrench_stamped.header.seq,.wrench_stamped.header.stamp.secs,.wrench_stamped.header.stamp.nsecs,.wrench_stamped.header.frame_id,.wrench_stamped.wrench.force.x,.wrench_stamped.wrench.force.y,.wrench_stamped.wrench.force.z,.wrench_stamped.wrench.torque.x,.wrench_stamped.wrench.torque.y,.wrench_stamped.wrench.torque.z,.tactile_values.tactile_values_0,.tactile_values.tactile_values_1,.tactile_values.tactile_values_2,.tactile_values.tactile_values_3,.tactile_values.tactile_values_4,.tactile_values.tactile_values_5,.tactile_values.tactile_values_6,.tactile_values.tactile_values_7,.tactile_values.tactile_values_8,.tactile_values.tactile_values_9,.tag,.delta_wrench.force.x,.delta_wrench.force.y,.delta_wrench.force.z,.delta_wrench.torque.x,.delta_wrench.torque.y,.delta_wrench.torque.z,.wrench_stamped.wrench.force.magnitude,.wrench_stamped.wrench.torque.magnitude,.endpoint_state.wrench.force.magnitude,.endpoint_state.wrench.torque.magnitude,.endpoint_state.twist.linear.magnitude,.endpoint_state.twist.angular.magnitude
0,0,42.354235,4234.5,1521533982.0,396863579.5,,1852724.0,1521533981.0,787358531.0,,0.7293037156919999,-0.0985927644214,0.165852602741,-0.0413737066347,0.9981867455750001,0.0008180703789439997,0.0437123337217,-0.00514934871348,-0.056014998971800005,0.133730800097,-0.09834407167430001,-0.150712270062,0.0248782924757,3.5432472229000003,2.53127503395,6.2954559326199995,-0.20223340392099998,1.7619698047599999,0.527227044106,1292941.0,1521533981.0,802727460.5,,,,,,1357951.5,1521533982.0,390323399.0,,0.4849999904635,2.1310000481099998,-1.911000442505,-0.08399999886755001,-0.0814999975264,-0.04250000044705,8.5,10.0,14.0,19.0,56.5,-69.0,-68.5,-65.5,-59.0,-43.5,4.0,0.0,0.0,0.0,0.0,0.0,0.0,2.903154988464915,0.12451706487285531,7.6547187786128035,1.8502443888806193,0.14507971187098337,0.18167188614980456
1,1,42.4567991026,4244.5,1521533982.0,496798515.0,,1852735.5,1521533981.0,902358509.5,,0.7280221980585,-0.1053649048885,0.17872113023400002,-0.04179617505185,0.997878182263,-0.005709107436755001,0.049593498534550015,-0.0167780064724,-0.0243576714052,0.110726642496,-0.07369050975260001,-0.09781671020265,0.03260515485025,3.8006274700150002,2.725404262545,3.9043006897000003,-0.1213058494034,1.66602450609,0.414400354028,1292947.5,1521533981.0,898716053.5,,,,,,1357961.5,1521533982.0,490728755.5,,-0.4249999761585,0.12599999327200004,-1.04099960327,-0.066499998793,-0.12099999934450001,-0.05700000002985,-1.0,0.5,4.0,12.0,32.0,-64.0,-63.5,-61.5,-52.5,-50.5,4.0,-0.909999966622,-2.0050000548380003,0.870000839235,0.01750000007455001,-0.0395000018181,-0.014499999582799997,1.1314509057168884,0.14937285457619434,6.09230345893267,1.7210695562383413,0.11460884353272477,0.1267339581378094
2,2,42.559363205100006,4256.5,1521533982.0,616787075.5,,1852747.0,1521533982.0,17365626.0,,0.7284141156999999,-0.102115393986,0.18651909424199997,-0.0429683396801,0.997512759613,-0.00427727541386,0.055711050151500005,-0.00114641630157,0.049873554961,0.0332745515219,-0.00303373755038,-0.12250896531300001,0.12999961968,3.76117157936,2.0779936313599996,3.1469960212700014,-0.101237110794,1.8711669444999999,0.40675345063199997,1292956.0,1521533982.0,16227868.0,,,,,,1357973.5,1521533982.0,611698045.0,,1.0099999666235,1.931000000425,0.018999862670999984,-0.07650000229475,-0.135499998927,-0.07750000059605,13.0,16.0,20.5,29.5,59.5,-64.0,-63.5,-62.5,-61.5,-58.0,4.0,1.434999942782,1.805000007153,1.059999465941,-0.010000003501749996,-0.01449999958249999,-0.0205000005662,2.179270962730963,0.17383541110113757,5.32616683359124,1.917540887801984,0.05996566962661195,0.1786548383406704
3,3,42.6619273077,4267.5,1521533982.0,726804494.0,,1852758.0,1521533982.0,127365008.0,,0.7230741806775001,-0.09790479955935,0.1858949090795,-0.045799392496699995,0.9974185351604999,-0.00329881723368,0.0552015874686,-0.0733816481225,0.0467419649745,-0.025559773940249997,0.04575930746309999,0.05345774834554999,-0.02489544323225,1.5521256923699998,1.1020845770799998,4.153653144835,0.29335167259,0.9492893517010002,0.42180775105949997,1853111.0,1521533982.0,125459899.5,,,,,,1357984.5,1521533982.0,720423707.5,,-2.3150000363550003,1.74100000281,-2.261000823975,-0.10150000080485,-0.0920000001788,-0.04299999959765,-0.5,1.5,2.5,15.5,92.0,-70.5,-68.5,-61.0,-59.5,-55.0,4.0,-3.3250000029785003,-0.189999997615,-2.2800006866460003,-0.024999998510100013,0.04349999874819999,0.034500000998400004,3.6745654034353095,0.1435801175709285,4.569082952579253,1.0794106058021335,0.09068064630740386,0.07464200004962925
4,4,42.7644914103,4275.5,1521533982.0,806813001.5,,1852765.0,1521533982.0,197364205.0,,0.717553660888,-0.0946624669772,0.183593952749,-0.046856611767600004,0.997509951605,-0.00221102413568,0.0526637043385,-0.10028448635500001,0.0479808822668,-0.046203784949500004,0.0364673288895,0.13737549986300002,0.0172920961193,1.3170875310899999,0.8206221461300001,4.57069063187,0.4583518505100001,0.658264398575,0.4525563120840001,1292969.0,1521533982.0,207723385.5,,,,,,1357992.5,1521533982.0,801180557.5,,-0.6749999761579999,1.090999996846,-0.946000289917,-0.0799999982119,-0.08650000020865001,-0.04650000110265,-0.5,2.0,4.5,11.5,39.0,-70.0,-69.5,-66.5,-61.0,-59.0,4.0,1.6400000601970004,-0.6500000059639999,1.315000534058,0.021500002592950013,0.0054999999701499935,-0.0035000015049999962,1.5939957683301174,0.12666688538267176,4.82694034803994,0.9209808102801702,0.12039075134845845,0.143181390645374
5,5,42.8670555128,4284.5,1521533982.0,896866559.5,,1852777.5,1521533982.0,322371515.5,,0.7090841946274999,-0.09176100194025,0.1777837952005,-0.0519221838589,0.997533128134,-0.002971516433685,0.04714735653345,-0.05323916244345,0.02909772658525,-0.04353612602395,-0.0113757060801,0.0657291938119,0.07658015316450001,3.352638840675,1.95938664675,6.4426181316400015,-0.09626187803216,1.44546842575,0.3480010032655,1853130.5,1521533982.0,320454638.5,,,,,,1358001.5,1521533982.0,891262835.5,,-0.7500000238414999,0.6559999981894999,-0.8660003662110001,-0.09050000086425,-0.07400000095369999,-0.03150000050665,-5.5,-5.5,3.5,9.0,65.0,-72.0,-69.0,-66.5,-64.0,-59.0,4.0,-0.07500004768349999,-0.4349999986565001,0.07999992370599984,-0.010500002652350002,0.012499999254950015,0.015000000596,1.3201487293727403,0.12107229381446359,7.522413948833268,1.4898825515040626,0.07467583531024798,0.10155911316411452
6,6,42.9696196154,4298.5,1521533983.0,36792993.0,,1852791.5,1521533982.0,462365612.0,,0.705646671226,-0.091101150985,0.1729241576465,-0.052063891608150004,0.9976240542795,-0.00264455405676,0.04503802498645,-0.023941856302150004,-0.0031906398692649997,-0.03223483363705,-0.0021835785413850005,0.0462268064625,0.008207569882589999,-0.8517087996030002,0.14837472699589999,7.1874389648450006,0.7242858707905,-0.2221374958755,0.4614555984735,1853144.5,1521533982.0,460451696.5,,,,,,1358015.5,1521533983.0,31229133.5,,0.00499997138949998,0.6360000060869999,-1.545998764035,-0.08650000020865001,-0.05450000055134999,-0.0595000013709,-18.5,-15.5,-12.5,-8.0,75.0,-72.0,-66.0,-62.0,-59.5,-56.0,4.0,0.7549999952309998,-0.01999999210250003,-0.6799983978239998,0.0040000006555999945,0.019500000402350004,-0.02800000086425,1.6717156414457297,0.11829095594901035,7.239247323603778,0.8870605160095486,0.04027998467696374,0.047000530362384496
7,7,43.072183717899996,4305.5,1521533983.0,106985926.5,,1852798.5,1521533982.0,532364735.0,,0.7064453004260001,-0.08988951840885,0.17109176900899994,-0.05247871145280001,0.9975533752065,-0.001067564710049,0.046174367937050015,0.0257086499143,0.0165874381971,-0.03792308848155,0.06186365802080001,-0.047235932327,0.007853145232555002,2.757968723775,0.480735704303,4.18856191635,0.697498977184,1.0878965258605002,0.528013974428,1853151.0,1521533982.0,525492071.0,,,,,,1358022.5,1521533983.0,100714576.0,,0.295000052452,1.2960000099599998,-0.625998687744,-0.1299999989565,-0.09149999916555,-0.0364999994636,-6.5,-3.0,-2.0,2.0,96.0,-73.5,-66.0,-65.0,-59.0,-51.0,4.0,0.29000008106249997,0.6600000038729998,0.920000076291,-0.04349999874784999,-0.036999998614200016,0.0230000019073,1.4691886923810067,0.16310885793490326,5.0380104432018,1.396002303487829,0.04872615751665752,0.07823053992245622
8,8,43.1747478205,4315.5,1521533983.0,206884979.5,,1852808.5,1521533982.0,632360176.5,,0.7099703213769999,-0.08756959245255001,0.16832379974300002,-0.052664450950150016,0.9973176543790001,0.0018997021874,0.05079553521545,0.03325782470495,0.0166388999983,-0.03650518996535,0.05370095929455,-0.096075266815,0.0004981505496000002,0.834646791222,0.2606201618910001,5.0705134868599995,0.458811275661,0.5086073167599999,0.39674790203599997,1853161.0,1521533982.0,625452486.0,,,,,,1358032.5,1521533983.0,200931773.0,,1.889999961855,1.001000023076,-1.065999221805,-0.09349999949340004,-0.066499998793,-0.05650000087915,-1.0,1.0,6.0,9.0,44.0,-74.0,-71.0,-67.0,-61.5,-58.0,4.0,1.5949999094029998,-0.29499998688399964,-0.440000534061,0.036499999463099966,0.02500000037255,-0.02000000141555001,2.3896558837830435,0.12789350978090624,5.145353744429086,0.7915794888104721,0.05211108127514627,0.1100658806201923
9,9,43.2773119231,4328.5,1521533983.0,336789011.5,,1852819.5,1521533982.0,742360252.0,,0.7102949691580001,-0.08744614134405003,0.16233091309199998,-0.05011891439145,0.997358526874,0.003138273069895,0.052480133740050006,-0.01171365031857,-0.0052248806468499975,-0.05997689076309999,-0.008166320760400001,-0.005607964157650001,-0.0243674235728,2.335162460805,0.9916036427,4.031288385390002,0.07118748826883001,0.929511040449,0.2866782844065,732840.0,1521533982.0,728000000.0,,,,,,1358045.5,1521533983.0,332205636.0,,-0.4299999713899,3.3710000576450003,-1.4760009765650002,-0.09900000318864999,-0.09600000083435,-0.0914999991655,-8.5,-7.5,-7.0,-6.5,31.5,-73.0,-70.0,-69.0,-63.0,-60.5,4.0,-2.3199999332449,2.370000034569,-0.4100017547600001,-0.005500003695249972,-0.029500002041350008,-0.03499999828634998,3.705012853804794,0.16549698075443675,4.763144712135996,0.9753168057369163,0.06133299607200346,0.02630417055015186
10,10,43.379876025600005,4337.5,1521533983.0,426807045.5,,1852828.0,1521533982.0,827372266.0,,0.7086774464319999,-0.08950191050029999,0.1582123247505,-0.05085963117795,0.9974371394515,0.0013933258671250002,0.05030319111795002,-0.0249874278246,-0.0075579444336450015,-0.0508553088238,-0.0435623397085,0.06718798497445,0.039753433698100006,0.028410553932000038,0.25759507715700003,4.3014004230500005,0.510616764426,-0.13929523900170002,0.314440831542,1293013.0,1521533982.0,832226582.0,,,,,,1358054.5,1521533983.0,422073866.5,,1.475,3.210999971815,-0.901000213623,-0.10099999979145,-0.08449999988080001,-0.07799999788405,-16.5,-15.5,-10.5,4.5,135.0,-77.0,-74.5,-67.5,-60.5,-57.5,4.0,1.9049999713899,-0.16000008583000014,0.5750007629420002,-0.0019999966027999944,0.01150000095355,0.013500001281449986,3.646635052201498,0.15305309408058337,4.3092003878637355,0.615634372222866,0.057164294003475016,0.0893993191058797
11,11,43.4824401282,4346.5,1521533983.0,516812920.0,,1852837.0,1521533982.0,917388568.0,,0.7095334667800001,-0.0894734776162,0.152912446607,-0.0500129597537,0.997490063854,0.0022785800592800003,0.0500707942952,0.014684613208000004,0.0125645838525,-0.07044189931219999,0.0492611153042,0.007112020164830001,-0.05345445202619999,1.9625431299200002,1.7256571054499998,4.7378282547,-0.19712549448,0.668506085873,0.13705652952199998,1293019.0,1521533982.0,922726380.5,,,,,,1358063.5,1521533983.0,510894542.5,,1.4800001144400001,2.9409999908850004,-0.161000442505085,-0.124500002712,-0.0929999984801,-0.07499999925494999,-16.5,-16.0,-10.0,4.0,224.5,-75.5,-72.5,-71.0,-69.0,-63.0,4.0,0.005000114439999814,-0.26999998092999977,0.7399997711179149,-0.023500002920550003,-0.008499998599299993,0.002999998629100012,3.296331662259552,0.17255216683898558,5.4107748570255545,0.7103121424471344,0.07304497115589267,0.07303846078101559
12,12,43.5850042308,4357.5,1521533983.0,626790523.0,,1852848.0,1521533983.0,27362161.0,,0.7120416252455001,-0.08866030924434999,0.143536478002,-0.05037160476164999,0.9975195038315,0.00334194952797,0.04905455815645,0.024459776407,0.0013849891001685,-0.105756827273,-0.017668535847350002,0.011902055529450001,0.0538445661131,3.716133356095,2.391079962255,2.97208201885,-0.5949023365975,1.3620279729385,0.13673587143435,732852.0,1521533983.0,32000000.0,,,,,,1358074.5,1521533983.0,620597893.5,,0.7599999666235001,1.896000004,-1.67099876404,-0.10999999940400004,-0.05000000074505,-0.05199999921025,-12.0,-7.5,6.0,10.5,107.0,-73.0,-70.0,-68.0,-64.5,-57.0,4.0,-0.7200001478164998,-1.0449999868850004,-1.5099983215349149,0.014500003307999968,0.042999997735050005,0.023000000044699997,2.639062870387693,0.13154466869185924,5.325427873227723,1.4925567619668727,0.10855738285137116,0.05790572842753297
13,13,43.6875683333,4368.5,1521533983.0,737052440.0,,1852858.5,1521533983.0,132360407.5,,0.7102199735564999,-0.08902394448039999,0.1340176920205,-0.0512418947021,0.997704733269,0.002526180138015,0.044191195087750004,-0.02944525358275,-0.006752290861864997,-0.0748807028743,-0.005591507503200002,0.13133028834000002,-0.01544555611633,0.6299107968805,1.3365377187699998,6.379726171490001,-0.265962928534,0.1492529660465,0.06688147224485,1853212.0,1521533983.0,135416470.0,,,,,,1358085.5,1521533983.0,730491545.0,,0.9300000429165,3.13599992413,-0.3810016632079,-0.099000003189,-0.08049999922515,-0.10000000149025001,-8.5,-6.0,-1.0,8.0,91.5,-68.5,-62.5,-59.0,-55.0,-51.5,4.0,0.17000007629299985,1.23999992013,1.2899971008320998,0.01099999621500003,-0.030499998480099995,-0.04800000228,3.2931076313013583,0.16211493085068124,6.548589673274392,0.31222725466829115,0.08074488252133925,0.1323535975913333
14,14,43.7901324359,4379.5,1521533983.0,847267984.5,,1852871.5,1521533983.0,262361563.5,,0.7100914814025,-0.08926932710335002,0.12554076299550002,-0.0486562578504,0.9979484996504999,0.002385051489685,0.04153357797245,0.03351558442475,0.015283799650205003,-0.05809256234965,0.0010360733027000024,-0.06909453386820001,5.5192183550004104e-05,1.8151501715195,1.37256798148,5.1810119152050005,-0.14229872822766498,0.31990495324,0.1760516017675,732861.0,1521533983.0,265999872.0,,,,,,1358096.5,1521533983.0,842348443.0,,1.59500012398,2.51600003857,-0.390999984741,-0.0760000012815,-0.04700000025335,-0.105000000447,-12.5,-9.5,5.5,22.0,65.0,-39.0,-33.5,-27.5,-24.0,-13.0,4.0,0.6650000810635001,-0.61999988556,-0.009998321533099984,0.0230000019075,0.0334999989718,-0.004999998956750004,3.0045236856526727,0.13787675769495344,5.658762892580634,0.39189574333947524,0.06878687906445621,0.06910232343799687
15,15,43.892696538500005,4390.5,1521533983.0,956794500.0,,1852883.5,1521533983.0,382365667.5,,0.682585221109,-0.09640126442389998,0.1160508026595,-0.045058632651849985,0.9989139402625,-0.008450945750314999,0.008073289754275001,-0.2682360615375,-0.10504227214749999,-0.08241624205185001,-0.4149625058395,0.6740284983785001,0.10387586272849998,23.07639312745,6.287145137784999,-4.8030221462250005,-0.4148514345288,3.5559326410300005,0.4112014770505,1293051.0,1521533983.0,375742567.0,,,,,,1358107.5,1521533983.0,953068229.5,,11.9250000477,2.9610000314200002,-2.04599876404,-0.031499998644,0.10650000348665,0.09649999812245,176.0,195.5,240.0,256.0,323.0,-13.5,-8.0,-4.0,3.0,18.0,4.0,10.329999923719999,0.4449999928499997,-1.6549987792990002,0.0445000026375,0.15350000374000003,0.20149999856945,12.456293921795819,0.14712834633360533,24.395022760664173,3.603587839223808,0.2996279369501584,0.7983097724170505
16,16,43.995260641,4399.5,1521533984.0,46784996.5,,1852892.5,1521533983.0,472366742.0,,0.6790669774250001,-0.0975144040459,0.107580556413,-0.04980833338280001,0.998677818045,-0.01236606895395,0.00280207299025,0.1066928480775,0.037811335675199995,-0.1065664882075,0.04941421795899,-0.1394532305065,0.1303962470605,15.1375665665,3.7817050218599997,3.0430063009249997,0.31066145747915,2.45294231176,0.4486493319275,732869.0,1521533983.0,468000000.0,,,,,,1358116.5,1521533984.0,42987676.5,,8.764999723430003,2.73100007195,-0.21099967956549998,-0.09350000321855001,0.13449999690050002,-0.023500000592315003,233.5,247.0,255.5,306.5,337.5,-98.0,-95.0,-91.5,-89.0,-60.0,4.0,-3.1600003242699963,-0.2299999594699997,1.8349990844745,-0.06200000457455,0.027999993413850024,-0.119999998714765,9.183033399127746,0.16548338223502135,15.896763877438987,2.5129112099365063,0.15546535738006195,0.19721092688454295
17,17,44.09782474359999,4410.5,1521533984.0,156802415.5,,1852903.5,1521533983.0,582363503.5,,0.7090451798280001,-0.08755895588995001,0.099533430333,-0.05172667684595,0.998174210775,0.000998419740848,0.031155351321400005,0.2716440994025,0.08461090045425,-0.0320663645907,0.260950057976,-0.404522840151,-0.020698816978595002,-3.47454535961,-0.379300504923,5.79784297943,0.3643132299185,-2.22870719433,0.2133899107575,732873.5,1521533983.0,580000000.0,,,,,,1358127.5,1521533984.0,153002456.0,,3.459999895095,1.806000030226,-2.985999298095,-0.07950000092389999,-0.0265000006184,-0.01849999953991,191.0,193.5,198.0,267.5,274.0,-73.0,-71.5,-65.0,-59.0,-55.5,4.0,-5.304999828335003,-0.925000041724,-2.7749996185295,0.01400000229465001,-0.1609999975189,0.005000001052405001,4.914206669591498,0.08581812257706392,6.7698831262546895,2.268346345152134,0.28631760852930094,0.48183202673319947
18,18,44.2003888462,4420.5,1521533984.0,256842016.5,,1852913.5,1521533983.0,682363610.5,,0.7265578246250001,-0.08376403452879999,0.098123013541,-0.0494494765501,0.997849050607,0.00592744898551,0.04261788192589999,0.12545935229,-0.016555007070975,0.0017125097279300002,0.011094514227624998,-0.07670655843384999,-0.1102033360201,0.742096364498,0.5718638598920001,5.7801959514600005,-0.3742166906595,0.4858295023445,0.2385122776035,1293072.0,1521533983.0,678710678.5,,,,,,1358137.5,1521533984.0,251686959.0,,0.5049999713901001,1.086000001615,-2.2009994506850004,-0.08950000256294999,-0.0685000009835,-0.112999998033,205.0,214.5,222.0,230.5,239.5,-97.5,-96.0,-93.0,-90.5,-71.5,4.0,-2.9549999237049,-0.720000028611,0.7849998474099995,-0.010000001639050002,-0.0420000003651,-0.09449999849309,2.5057572820461793,0.15959793278412335,5.855629814608015,0.6579943339300586,0.12655848460579247,0.1347284662670502
19,19,44.302952948699996,4430.5,1521533984.0,356914520.0,,1852921.0,1521533983.0,757459107.0,,0.7338993762375,-0.0844509356457,0.09850627768015,-0.04807416214365,0.99777602935,0.00573719210622,0.045807620425150006,0.103677329172,-0.021981728465150004,-0.003666943537299,-0.010675054997815,-0.10957474542190004,0.012232782093718,4.672000646590001,1.73111307621,4.291004657745,-0.189463503659,1.868536531925,0.42094188928599996,1293077.0,1521533983.0,759262769.0,,,,,,1358147.5,1521533984.0,352915936.0,,-0.915000104902,2.521000033805,-2.5759994506800004,-0.0954999998212,-0.03999999910595,-0.08949999883774999,191.0,200.0,205.0,212.0,257.5,-127.0,-126.5,-122.5,-120.5,-103.0,4.0,-1.4200000762921,1.4350000321899998,-0.374999999995,-0.005999997258250012,0.028500001877549995,0.023499999195250015,3.718660986473376,0.13685941577502972,6.5754896013264235,1.924712254991046,0.1060454216147994,0.11077103678865233
20,20,44.4055170513,4436.5,1521533984.0,416962504.0,,1852927.0,1521533983.0,817457315.0,,0.738836021681,-0.08534970575649999,0.0986288336557,-0.04670979924409999,0.997717431821,0.00598412914249,0.048397428589,0.0904495788893,-0.00445392227951,0.0111287664155,0.041188423664,-0.104802024663,-0.0856142306555,2.5115315914200003,1.6400077343000001,5.05142068863,-0.483572483063,1.00776159763,0.29501053690900003,1293081.5,1521533983.0,819776160.5,,,,,,1358154.0,1521533984.0,418470877.5,,-0.47500004768365,1.2010000260565,-3.500998687745,-0.07000000029799999,-0.061499999836100015,-0.08400000072995,188.5,189.0,190.5,213.0,252.0,-138.5,-135.5,-127.0,-121.0,-110.5,4.0,0.44000005721834995,-1.3200000077485,-0.9249992370649998,0.02549999952320001,-0.02150000073015001,0.005499998107799997,3.7316240324394143,0.12545218269999092,5.874884447951609,1.1560523348537564,0.09124041421899826,0.14145581327086693
21,21,44.5080811538,4450.5,1521533984.0,556849598.5,,1852940.0,1521533983.0,947462939.0,,0.742084458228,-0.08823892739219999,0.0968206031845,-0.044970410363,0.997772892896,0.00411244583616,0.049091793436199994,-0.0449748843893,-0.0110652353008,-0.0394051825914,-0.0193720940613,0.08563456183039997,0.0111844001604,4.63589525223,2.10430431366,5.0864109993,-0.262531399727,1.86870861053,0.290628671646,1853293.0,1521533983.0,945536372.0,,,,,,1358167.5,1521533984.0,552220086.0,,-0.38500001430525,0.14100000131870002,-1.710999679565,-0.08149999752645,-0.06600000336765001,-0.05949999950825,143.5,145.0,153.0,175.0,179.5,-142.5,-139.0,-135.0,-132.0,-119.0,4.0,0.09000003337840001,-1.0600000247378,1.78999900818,-0.011499997228450009,-0.004500003531549994,0.024500001221699992,1.7594390909771354,0.12057570229039895,7.196610194246786,1.9093086789972697,0.06081075622909606,0.08850789238905424
22,22,44.610645256400005,4457.5,1521533984.0,626825451.5,,1852947.5,1521533984.0,22459726.0,,0.740932626741,-0.08735904999414999,0.09570338582489997,-0.04455296128345,0.9978697453155,0.004986282767795,0.047391337170350004,-0.0025308924662500003,-0.0039472759226309995,-0.006629268158550004,-0.00692687076177,0.007936959362000007,0.00568442959583,5.8785531520850025,2.75599205494,4.5312528610200005,-0.4996611624955,2.0968397855800003,0.331743165851,1293095.0,1521533984.0,16756677.5,,,,,,1358174.5,1521533984.0,621697575.5,,0.1399999618531,-0.048999988846499976,-1.440999221805,-0.08500000089410001,-0.06650000065565,-0.03749999962745,137.0,139.0,145.5,162.5,165.5,-139.5,-136.0,-130.0,-125.0,-117.0,4.0,0.5249999761583499,-0.1899999901652,0.2700004577599999,-0.003500003367650009,-0.000499997287999987,0.02199999988080001,1.448613042005505,0.11425191556931202,7.917394259431752,2.18092913497582,0.008119950751271117,0.011970363498835434
23,23,44.713209359,4470.5,1521533984.0,756870507.5,,1852960.0,1521533984.0,147463227.0,,0.7420834595640001,-0.086936098079,0.09594009238409999,-0.044304301587199994,0.997810276734,0.00576277019785,0.0487705954995,0.0045915903028,0.00885005317366,0.00828826927359,0.0209161786493,-0.00381604920873,-0.0231929920846,2.6907761097000003,1.52576839924,4.64561748505,-0.09443228691819999,1.21968662739,0.36128982901600004,1853314.0,1521533984.0,155552063.0,,,,,,1358187.5,1521533984.0,751963521.0,,-0.940000081064,3.07099998612,-1.846001815795,-0.08449999988080001,-0.0590000003576,-0.07699999958279999,101.5,106.0,110.0,121.0,138.5,-146.0,-144.0,-142.0,-137.0,-123.0,4.0,-1.0800000429171,3.1199999749665,-0.40500259399,0.0005000010132999999,0.007500000298050002,-0.03949999995535,3.7043709008504813,0.12864777478760836,5.581219140837774,1.2755717409840204,0.012965398190449553,0.031463687684205106
24,24,44.815773461499994,4481.5,1521533984.0,869405031.0,,1852973.5,1521533984.0,282457002.5,,0.7423347408709999,-0.08688893243469999,0.096847627333,-0.04451794476185,0.9977735897345,0.005263135568959999,0.049378454950900014,0.005284216520068,0.017620608701099997,0.0035594686692685,0.013260663295834998,-0.020553321841375,0.0228426456544,3.4137428998949995,1.9736057519949999,4.3069949150049975,-0.212985768914,1.3986137509299998,0.3558364808560001,1293114.0,1521533984.0,287772819.0,,,,,,1358199.0,1521533984.0,866806921.0,,-2.34500005245,-0.479000025801,-3.4159996032700004,-0.0630000010133,-0.10800000280099999,-0.082999996841,88.0,89.5,93.0,98.0,122.0,-144.0,-139.5,-128.0,-127.0,-123.5,4.0,-1.4049999713860002,-3.550000011921,-1.5699977874750004,0.02149999886750001,-0.049000002443400005,-0.00599999725820001,4.1710333923679705,0.15007331611015268,5.839431945726414,1.458801893047289,0.018737091888437345,0.03346745718236041
25,25,44.9183375641,4489.5,1521533984.0,946806907.5,,1852981.5,1521533984.0,362459366.0,,0.742140729332,-0.0867699704437,0.0964017440176,-0.0444734029495,0.9977910121605,0.005441458170664999,0.049045348667800005,-0.01152697910693,-0.004983273855859999,-0.006228555828623249,-0.007257601698584999,0.024643517219785,-0.002857519416425001,3.230679035185,1.74906241894,4.84227204323,-0.16342439502454995,1.42158573866,0.3628075867890001,1853334.5,1521533984.0,360543389.5,,,,,,1358206.5,1521533984.0,942816244.5,,-2.6500000149050003,0.4910000009465,-1.686000061035,-0.09099999815224999,-0.0609999988228,-0.0614999998361,71.0,89.0,99.0,100.0,100.0,-149.0,-146.0,-138.0,-131.0,-123.0,4.0,-0.30499996245500016,0.9700000267475,1.7299995422350003,-0.027999997138950003,0.0470000039782,0.021499997004900004,3.1790214352432398,0.12563538315272255,6.078166246030045,1.476225894056291,0.014017816283728902,0.02584842626916365
26,26,45.0209016667,4501.5,1521533985.0,66938995.5,,1852994.5,1521533984.0,492456099.5,,0.7419178260675001,-0.08704770061145001,0.09628956344905,-0.04473420509880001,0.9977915480775,0.005123837662945,0.0488307472871,-0.006930698726504999,0.005767165193169501,-0.002297232813385001,-0.01494309160705,0.0015125026639700005,0.03392449243145,3.5819122791300004,1.685465037825,4.548110961915,-0.102145757526,1.4545300602899998,0.38800553977499996,1293128.0,1521533984.0,485766394.5,,,,,,1358218.5,1521533985.0,62448134.5,,-0.8250000715254999,2.056000000425,-1.5759994506850001,-0.0869999974966,-0.0705000013113,-0.0675000026822,65.0,68.5,72.5,83.5,88.0,-142.0,-142.0,-138.5,-131.0,-121.0,4.0,1.8249999433795003,1.5649999994785002,0.1100006103500002,0.004000000655649996,-0.009500002488500005,-0.006000002846100001,2.718737830009378,0.1307497614200451,6.029610376384538,1.5088537871390586,0.009304410663861338,0.03710060427832292
27,27,45.1234657692,4509.5,1521533985.0,146789550.5,,1853002.5,1521533984.0,572458012.0,,0.7426595862035,-0.08719857917755,0.09698795804205,-0.0444108537804,0.997769556126,0.0050902188633,0.0495745921633,0.0013903656285050008,-0.0004437663572049999,0.0013490373656449995,-0.0028798022040500003,-0.009274277447965,0.0073438262110600006,2.650028705595,1.49357819557,4.7453806400300005,-0.060318052768500004,1.2115948200200002,0.3894291520115,1853355.5,1521533984.0,570539568.0,,,,,,1358226.5,1521533985.0,144021229.0,,-0.469999933243,2.106000012345,-3.6709987640400006,-0.05250000022355,-0.07800000160935,-0.08750000223519999,62.5,68.0,70.5,84.0,88.0,-146.5,-145.5,-142.5,-131.0,-121.0,4.0,0.35500013828249993,0.05000001191999992,-2.094999313355,0.034499997273050004,-0.007500000298049994,-0.019999999553,4.25821182127296,0.12843870392405615,5.636671481072068,1.2740703826027338,0.0019874473514087114,0.012175272741689827
28,28,45.2260298718,4523.5,1521533985.0,287039518.0,,1853015.0,1521533984.0,697468259.0,,0.7415304912899999,-0.086506569876,0.0963260678071,-0.044128998866999995,0.997840893436,0.00569350103015,0.0483090767043,0.00377037392565,0.0013713825036999999,-0.00256124890868,-0.0060777859056,-0.0124430315127,0.0159864767496,3.52927112579,2.1074154377000003,4.879784584049999,-0.278167009354,1.42404174805,0.367708206177,1293142.5,1521533984.0,692265736.5,,,,,,1358240.5,1521533985.0,283644240.5,,-0.07000007629385001,2.6310000481099998,-1.0210010528545,-0.0894999988377,-0.06500000134110001,-0.0765000022948,64.5,67.5,69.0,74.5,78.5,-146.5,-143.0,-141.5,-137.0,-121.0,4.0,0.39999985694915,0.5250000357650002,2.6499977111855,-0.03699999861415,0.013000000268249991,0.01099999994039999,2.8230310685088047,0.13448977774312706,6.380380246750449,1.4968236737078136,0.004759874523859884,0.021150318049756523
29,29,45.32859397439999,4533.5,1521533985.0,386908411.5,,1853024.0,1521533984.0,787460527.5,,0.7418677172005,-0.08641393564385001,0.0967044962823,-0.04475644719485,0.997783760889,0.005517648741649999,0.0489273329913,0.0009484573121,0.004501723124225,0.004013668843134999,0.00441010478772,-0.003268640716700001,-0.0008291934395990003,2.643260121345,1.5816041827200005,4.85264658928,-0.058985169976894986,1.160807073115,0.3942707479,1293149.0,1521533984.0,787756608.0,,,,,,1358250.0,1521533985.0,380828510.0,,-0.354999923706,1.8710000576499999,-3.9260017394999998,-0.0790000036359,-0.0480000004172,-0.0540000014007,64.0,66.5,68.0,74.0,77.0,-149.5,-147.0,-146.0,-139.0,-123.0,4.0,-0.28499984741214995,-0.7599999904600001,-2.9050006866455003,0.010499995201800005,0.017000000923900013,0.0225000008941,4.363502700825862,0.10705606365731468,5.747736491901921,1.2273555857699274,0.006105294418978556,0.005551630223079883
30,30,45.4311580769,4540.5,1521533985.0,456798552.5,,1853031.0,1521533984.0,857454924.0,,0.742246834513,-0.0860810181731,0.0967769826787,-0.044467707096300005,0.997770954425,0.0057314099506999994,0.0494256661161,0.014610233059,-0.00365151830393,0.011527884918100001,0.0021486941635500004,-0.0220820015701,-0.014523883768400001,2.96482896805,1.6177084446,4.95750141144,-0.0371998921037,1.27237021923,0.41552683711099997,732924.0,1521533984.0,856999936.0,,,,,,1358257.5,1521533985.0,455405855.0,,-0.42500009536750005,2.59600002188,-3.110999298095,-0.08100000023840001,-0.06049999967215,-0.058500001206999996,60.5,61.5,68.5,74.5,83.0,-149.0,-147.0,-142.0,-140.0,-123.0,4.0,-0.07000017166150002,0.7249999642300001,0.8150024414050003,-0.001999996602500012,-0.012499999254949995,-0.0044999998063000035,4.074083679480691,0.11680539431109314,5.998667490863965,1.339019178023749,0.018965353322498102,0.02651744481786218
31,31,45.533722179499996,4553.5,1521533985.0,588171958.5,,1853043.5,1521533984.0,982463482.0,,0.7417638376440001,-0.08599908096525001,0.09660487805794998,-0.0454012254284,0.9977547102695,0.005489935585020001,0.04892894195465,0.004590678937399,-0.00017684036180000068,0.0018956643854200002,0.004436826314600001,-0.009455304722025,0.0006916748605999999,2.849215984345,1.6760848164550002,5.084548950195,-0.0515317991375,1.261210680005,0.4113173484800001,732929.0,1521533984.0,992000000.0,,,,,,1358270.5,1521533985.0,583950430.5,,-0.2100000619885,2.651000029035,-1.85600013733,-0.0965000018477,-0.0675000026822,-0.099500000477,65.5,71.5,75.0,77.0,89.0,-152.0,-149.0,-146.0,-142.0,-123.0,-0.5,0.215000033379,0.05500000715499986,1.254999160765,-0.015500001609299985,-0.00700000301005,-0.04099999927000001,3.2429365842932736,0.15417117374407613,6.0646459141756255,1.3275879883614645,0.004969823848185181,0.010467407952547818
32,32,45.6362862821,4560.5,1521533985.0,656792521.0,,1853050.0,1521533985.0,47460421.0,,0.7414002351210001,-0.08640979420905001,0.0961407670593,-0.045496169254800004,0.997771525483,0.00506298100234,0.048542408938800005,0.001405696961714999,-0.005817271972065,0.0012882191586580005,-0.008419589001185002,-0.005324900086815,-0.0129260676263,2.565501213075,1.5625672340400003,5.13383769989,0.037548199296,1.148196458815,0.4347517192365,1293168.5,1521533985.0,61774647.5,,,,,,1358277.5,1521533985.0,655368993.0,,0.11999998092650002,2.33099997658,-1.43099899292,-0.10099999979115,-0.07100000232459999,-0.06749999895690001,68.5,69.0,75.0,79.0,103.0,-146.5,-144.5,-142.0,-136.5,-121.0,-1.0,0.33000004291499996,-0.3200000524550002,0.4250011444099999,-0.004499997943450004,-0.003499999642399998,0.032000001520100005,2.737831076596285,0.14070625482574328,5.948083923751963,1.2283216324256325,0.006121776355428326,0.016319536272918996
33,33,45.7388503846,4572.5,1521533985.0,776867985.0,,1853062.0,1521533985.0,167472234.0,,0.7416472248129999,-0.0864991127482,0.0962230777321,-0.0446674759311,0.9978051669140001,0.005646971496999999,0.0485569478639,0.00780345057304,-0.0045299888803,0.005935652053609999,0.00866369281715,-0.00366861281351,-0.0183940030574,2.2697808742500003,1.36689734459,5.03071689606,0.0124353021383,1.03254973888,0.400581002235,1853415.0,1521533985.0,165515544.0,,,,,,1358289.5,1521533985.0,775011729.5,,-0.8400000572219999,3.1159999432050003,-1.38099975586,-0.1000000014903,-0.07300000265239999,-0.07999999821190001,67.0,69.0,71.0,74.0,88.5,-149.0,-144.5,-142.5,-140.0,-117.0,-1.0,-0.9600000381485,0.7849999666250005,0.04999923705999998,0.0009999983008499996,-0.0020000003277999973,-0.012499999255000005,3.5103014212275143,0.14740759953005955,5.685809182171158,1.1076004421053758,0.010800305801367132,0.020660533431666926
34,34,45.84141448720001,4585.5,1521533985.0,906898498.0,,1853078.5,1521533985.0,331888805.0,,0.7413757065775,-0.08581055964400001,0.09642066726074999,-0.045409412949249994,0.9977634419325,0.005582437272755,0.0487310227832,-0.0028700621011750003,-0.008835348747940001,-0.004322892875234999,-0.00402676037782,0.01227947573341,-0.013626641847350001,1.918162584305,1.305669009685,5.1234672069550005,0.159648757428,0.9542133808135,0.477588891983,1853430.0,1521533985.0,314945795.0,,,,,,1358302.5,1521533985.0,904829705.5,,-0.22500004768361492,1.535999989695,-1.8259994506850001,-0.09850000217575,-0.06650000065565,-0.06899999827150001,69.5,71.0,72.5,87.0,157.0,-148.0,-144.0,-143.0,-139.0,-114.5,-1.0,0.615000009538385,-1.5799999535100002,-0.4449996948249999,0.001499999314549999,0.006500001996749993,0.010999999940400004,2.3967050264274476,0.13742452574883135,5.624414234693487,1.0789356105057353,0.010246367491608113,0.018779927887607458
35,35,45.9439785897,4593.5,1521533985.0,986800551.0,,1853086.5,1521533985.0,411891010.5,,0.7400959053389999,-0.08628316765260001,0.0957371900812,-0.04566738396640002,0.9978126450585,0.005291763951445001,0.0475008791763,-0.010177921826945002,-0.015435902278149997,-0.009491905206425,-0.01570974696513,0.021689899181785002,0.0015224759733000002,1.8571365475650001,1.141524136065,5.27016711235,0.2411713153125,0.9146157801175,0.488534614444,1853439.5,1521533985.0,409952828.5,,,,,,1358310.5,1521533985.0,984256614.5,,-1.28500005007,2.6710000099649998,-2.03100128174,-0.09149999916555,-0.06899999827150001,-0.07750000059605,70.0,75.0,80.5,83.0,93.0,-144.5,-141.5,-136.5,-128.0,-120.0,-1.0,-1.0600000023863851,1.13500002027,-0.20500183105500014,0.007000003010199997,-0.0024999976158500137,-0.00850000232454999,3.59310901425805,0.13834558070697597,5.703217942672025,1.064589920147402,0.020783489512200732,0.026824723844127173
36,36,46.046542692299994,4601.5,1521533986.0,66797494.5,,1853094.5,1521533985.0,491893128.0,,0.7395249187180001,-0.08642580761395,0.09525182837905,-0.04573385387875,0.9978313135035,0.0051399330260299995,0.04705886462,-0.00045421346579000007,-0.012972044511349999,0.007062026323835001,-0.02085262420795,0.00242787310823,-0.017715194657029996,0.7913290560255,0.9877491593359999,5.915925741195,0.22390905022649998,0.4227778613565,0.418354719877,1853446.5,1521533985.0,479983538.5,,,,,,1358318.5,1521533986.0,64065965.5,,-0.525000119209,2.015999978965,-1.911000442505,-0.0945000015199,-0.07149999961260001,-0.052000001072849994,73.5,77.0,83.5,85.5,89.5,-145.0,-141.5,-140.0,-135.0,-126.0,-1.0,0.7599999308609999,-0.6550000310000001,0.12000083923500005,-0.0030000023543499954,-0.0025000013410999967,0.025499999523200003,2.826977844202294,0.12940826999631555,6.049795653740116,0.6355289564369765,0.014776754192835756,0.02746915772141754
37,37,46.1491067949,4614.5,1521533986.0,196799516.0,,1853107.5,1521533985.0,621891635.0,,0.7392385652605,-0.08634789228295,0.0955061387444,-0.046292057230749986,0.997803552097,0.004733733683640001,0.0471424999682,0.004581567734550001,-0.0016397012779500002,0.0005119925073399999,0.00618996447365,-0.00707051052765,-0.009259965930404998,1.2610521912600001,0.9849610328685,5.85894370079,0.2457401305435,0.6890463232995,0.454442709684,1853460.0,1521533985.0,614975832.0,,,,,,1358331.5,1521533986.0,194781041.0,,-0.46000006198849996,2.1209999980400003,-1.46600074768,-0.09149999916555004,-0.0640000030398,-0.1030000001195,78.5,84.5,90.0,94.5,99.0,-143.0,-141.5,-141.0,-138.5,-123.0,-1.0,0.06500005722050001,0.10500001907500024,0.4449996948249999,0.003000002354349968,0.007499996572800011,-0.05099999904664999,2.6190454827882284,0.15191198195338992,6.073518103568792,0.8612149695616257,0.004893007205671456,0.01319298102548927
38,38,46.2516708974,4622.5,1521533986.0,277202486.5,,1853114.5,1521533985.0,691893212.5,,0.7390125423345,-0.0858966132408,0.09533742101344997,-0.04648803844805,0.997803380059,0.0049684131703150005,0.046930631971199996,0.0011550498366099998,-0.0001984756610499995,0.005543487831325,0.006305595722305001,-0.01507520688633,-0.003145753400200003,0.7648026943205001,0.7933526337145,5.910848617555001,0.262615561485,0.516100510955,0.4368289113045,1853466.0,1521533985.0,674993057.5,,,,,,1358339.5,1521533986.0,274327172.0,,0.31999990940075,1.7509999932700002,-3.87099952698,-0.0780000016093,-0.06300000101325,-0.08150000125170001,70.5,73.5,74.5,84.0,84.0,-142.0,-139.5,-137.5,-134.0,-123.0,-1.0,0.77999997138925,-0.3700000047700001,-2.4049987793,0.013499997556250032,0.0010000020265499981,0.021499998867799974,4.260638245184331,0.1292101024794401,6.012691821664694,0.7253593373587801,0.005666020653786075,0.01664085828716994
39,39,46.354235,4636.5,1521533986.0,416803479.0,,1853126.5,1521533985.0,811895605.0,,0.7392130951614999,-0.08580903327765001,0.0955140566314,-0.04624048215165,0.99779760084,0.0050606088602700005,0.047286691998550005,0.00784984892441,0.005555213982289999,0.00468382556331,0.012201009455059999,-0.01947758294005,-0.006584114693899997,0.9473931789395,0.920494496822,5.985266447065,0.308899730444,0.5592292249199999,0.4752431958915,1293221.5,1521533985.0,820476944.0,,,,,,1358353.5,1521533986.0,414867101.5,,-0.13500013351449994,1.201000011155,-1.9010002136250002,-0.0985000021755,-0.07050000131129999,-0.0605000015348,66.0,75.0,77.5,79.5,85.5,-142.0,-142.0,-141.5,-140.0,-119.0,-1.0,-0.45500004291525,-0.5499999821150001,1.969999313355,-0.020500000566200008,-0.007500000298049994,0.02099999971690001,2.2526490794274947,0.13539848891024453,6.129296729359965,0.796248996680163,0.01069667015629665,0.023907978484418543
