,Unnamed: 0,Unnamed: 0.1,.header.seq,.header.stamp.secs,.header.stamp.nsecs,.header.frame_id,.endpoint_state.header.seq,.endpoint_state.header.stamp.secs,.endpoint_state.header.stamp.nsecs,.endpoint_state.header.frame_id,.endpoint_state.pose.position.x,.endpoint_state.pose.position.y,.endpoint_state.pose.position.z,.endpoint_state.pose.orientation.x,.endpoint_state.pose.orientation.y,.endpoint_state.pose.orientation.z,.endpoint_state.pose.orientation.w,.endpoint_state.twist.linear.x,.endpoint_state.twist.linear.y,.endpoint_state.twist.linear.z,.endpoint_state.twist.angular.x,.endpoint_state.twist.angular.y,.endpoint_state.twist.angular.z,.endpoint_state.wrench.force.x,.endpoint_state.wrench.force.y,.endpoint_state.wrench.force.z,.endpoint_state.wrench.torque.x,.endpoint_state.wrench.torque.y,.endpoint_state.wrench.torque.z,.joint_state.header.seq,.joint_state.header.stamp.secs,.joint_state.header.stamp.nsecs,.joint_state.header.frame_id,.joint_state.name,.joint_state.position,.joint_state.velocity,.joint_state.effort,.wrench_stamped.header.seq,.wrench_stamped.header.stamp.secs,.wrench_stamped.header.stamp.nsecs,.wrench_stamped.header.frame_id,.wrench_stamped.wrench.force.x,.wrench_stamped.wrench.force.y,.wrench_stamped.wrench.force.z,.wrench_stamped.wrench.torque.x,.wrench_stamped.wrench.torque.y,.wrench_stamped.wrench.torque.z,.tactile_values.tactile_values_0,.tactile_values.tactile_values_1,.tactile_values.tactile_values_2,.tactile_values.tactile_values_3,.tactile_values.tactile_values_4,.tactile_values.tactile_values_5,.tactile_values.tactile_values_6,.tactile_values.tactile_values_7,.tactile_values.tactile_values_8,.tactile_values.tactile_values_9,.tag,.delta_wrench.force.x,.delta_wrench.force.y,.delta_wrench.force.z,.delta_wrench.torque.x,.delta_wrench.torque.y,.delta_wrench.torque.z,.wrench_stamped.wrench.force.magnitude,.wrench_stamped.wrench.torque.magnitude,.endpoint_state.wrench.force.magnitude,.endpoint_state.wrench.torque.magnitude,.endpoint_state.twist.linear.magnitude,.endpoint_state.twist.angular.magnitude
0,0,47.891597,4786.5,1521544363.0,459421992.0,,2890802.5,1521544362.0,571932179.5,,0.5881991548755,-0.166614977063,0.142419813009,-0.2382900971095,0.9693253720295,-0.0265798072766,0.0540334350057,0.00910766344965,0.0008805402054100002,-0.01819640153035,0.04122653012079999,-0.0433523432522,-0.0012336662286999995,0.872609049082,-0.33802902698500004,7.057082414625,0.941203862429,0.8653346896170001,0.6509540081025,2017302.0,1521544362.0,572516034.0,,,,,,2394969.0,1521544363.0,453141061.0,,-1.86000003815,0.559999966621,-0.665999221802,-0.0630000010133,-0.05700000002980001,-0.059000000357599995,50.0,53.0,56.0,57.0,72.5,2.5,7.5,16.5,22.0,27.0,4.0,0.0,0.0,0.0,0.0,0.0,0.0,2.0534739024332382,0.10343597137006932,7.1188568171043904,1.4347159845664674,0.02036747193981516,0.059837900895850574
1,1,47.9941611026,4800.5,1521544363.0,599694013.0,,2890816.5,1521544362.0,711935075.5,,0.5904603902050001,-0.167267531392,0.137262733557,-0.2365558066735,0.96958281388,-0.02591399301455,0.0572608859947,0.03872634000325,-0.00704272450176,-0.0501241056775,-0.006024851166919001,-0.10145345718910001,-0.00478099030234,4.3521988391900015,0.7632052004340001,1.8490708470350001,0.06995630264300001,1.573138058185,0.2767893597485,2017311.5,1521544362.0,711512285.5,,,,,,2394983.0,1521544363.0,593581705.0,,-0.500000143051,0.980000042915,-0.286001968384,-0.0670000016689,-0.0860000029206,-0.08900000154969999,41.5,45.0,45.0,48.0,58.0,81.0,84.5,92.5,93.5,101.0,4.0,1.359999895099,0.420000076294,0.37999725341799995,-0.0040000006555999945,-0.029000002890799993,-0.030000001192099987,1.1367485883360247,0.14073379481070783,4.789903956361863,1.5988338200261891,0.06373190212463613,0.10174458548480672
2,2,48.0967252051,4809.5,1521544363.0,689348935.5,,2890823.5,1521544362.0,782074389.5,,0.591942541721,-0.16864075983350002,0.1332317952775,-0.2358008488625,0.9696414760135,-0.02707058671285,0.0588234761333,0.0349860802417,-0.02373919376055,-0.047532705020050005,-0.046787184767550005,-0.07940875758685001,0.00277944712545,-0.294084921479,1.432956457135,5.36541843414,-0.10521843284350002,0.053717792033999984,0.219755738974,2017317.0,1521544362.0,783632094.0,,,,,,2394992.0,1521544363.0,684003385.0,,-1.6300000190700001,-0.10999999046299999,-1.5259998321500001,-0.103000000119,-0.0640000030398,-0.07400000095369999,39.5,40.5,40.5,51.0,54.0,106.5,109.5,113.0,116.0,124.5,4.0,-1.1299998760189998,-1.090000033378,-1.239997863766,-0.035999998450100004,0.02199999988080001,0.015000000596,2.2355481537627164,0.14205984849617434,5.561255714539256,0.24949770460478993,0.06361551051121649,0.09220909264428939
3,3,48.199289307700006,4821.5,1521544363.0,809100985.0,,2890835.5,1521544362.0,902198718.0,,0.5908571124215001,-0.16826489290449995,0.1256465526715,-0.23375545531800002,0.9702283848445,-0.02541934686145,0.05804208974935,-0.0370818716061,0.0087663179608945,-0.07090371398755001,0.023273344164150004,0.06798443897625,-0.022796178755400003,0.8055722787959999,1.539694190025,4.091736078259999,-0.178746536374,0.45467598736299997,0.23057811707249998,2891188.0,1521544362.0,895302588.0,,,,,,2395004.0,1521544363.0,804405954.0,,-2.13000001907,1.16999998093,-1.04600028992,-0.0780000016093,-0.0860000029206,-0.119000002742,36.0,38.0,46.0,51.5,73.5,75.0,79.0,80.0,89.0,93.5,4.0,-0.5000000000000002,1.2799999713930001,0.4799995422299999,0.0249999985097,-0.02199999988080001,-0.045000001788300006,2.6457355580494295,0.16625583119394646,4.445436877214189,0.5402285125971418,0.08049378975816135,0.07538698997404383
4,4,48.3018534103,4828.5,1521544363.0,879579543.5,,2890842.0,1521544362.0,967201728.5,,0.5879743024755,-0.1675810873735,0.121170165427,-0.233575697881,0.9704994447565,-0.024410928168349996,0.0545635471587,-0.0334293175027,0.01608647272318,-0.06608836955625,0.0008493409018499982,0.09645896176815,0.02561022313225,-0.244677335024,1.16625535488,5.866710901259999,-0.12880331277864998,-0.1499062217775,0.253870472312,2017330.0,1521544362.0,974647923.5,,,,,,2395011.0,1521544363.0,874126430.0,,-1.64000000954,0.559999966621,-0.926001358032,-0.109999999404,-0.097000002861,-0.07000000029799999,42.0,43.0,43.5,49.0,55.0,65.0,67.0,68.5,72.5,76.5,4.0,0.4900000095300001,-0.6100000143089999,0.11999893188800005,-0.0319999977947,-0.01099999994039999,0.049000002444,1.9648609388411764,0.162508462750818,5.986511116670847,0.3217334073767872,0.0757889600401893,0.0998044899503054
5,5,48.404417512799995,4841.5,1521544364.0,9279966.0,,2890855.5,1521544363.0,102197706.5,,0.588528239625,-0.16568484733100006,0.111777689144,-0.2356779676845,0.9701099419385,-0.02447905096115,0.052375349193350004,0.04196095156315,0.025839978392535004,-0.06555776530919999,0.0280647862069,-0.02787111213865,-0.01000538235785,2.37849497795,1.722312510015,3.2638059854499994,-0.2538846731185,0.742016196251,0.161806214601,2891207.0,1521544363.0,85294354.0,,,,,,2395023.5,1521544363.5,500539179.0,,-2.06000008583,1.875000023845,-0.901001739502,-0.0929999984801,-0.07149999961260001,-0.09499999880789999,27.5,30.5,37.0,43.0,48.0,55.5,59.0,66.0,67.5,79.0,4.0,-0.42000007629,1.315000057224,0.02499961852999999,0.0170000009239,0.025500003248399992,-0.02499999850990001,2.9276320768880755,0.15095114916886657,4.390447386422799,0.800766329104062,0.08201369722032925,0.040798759696968535
6,6,48.5069816154,4850.5,1521544364.0,99207520.0,,2890864.0,1521544363.0,187199075.5,,0.5902863267049999,-0.16379806176849998,0.10570342357899999,-0.236419607255,0.9699610061705,-0.023148740268650003,0.052397682200199996,0.0203187930381,0.00811177728825,-0.0682686157971,0.01830022320268,0.01312335080665,0.01390327760876,-1.7761955857249998,0.4835511147975,7.1556930542,0.10617981478563497,-0.5405666828155,0.1909354776145,2891217.0,1521544363.0,185282091.0,,,,,,2395032.5,1521544364.0,90616442.5,,-1.289999985695,0.13000000417250002,-0.9360015869130001,-0.09699999913585,-0.07100000232455,-0.08349999785425,43.5,49.0,56.0,63.5,70.0,124.5,138.5,140.0,146.5,161.0,4.0,0.7700001001350001,-1.7450000196725,-0.03499984741099993,-0.00400000065575,0.0004999972880500025,0.011500000953650004,1.5990931601634737,0.14636341689131463,7.388682935767172,0.583046180203543,0.07168861962788349,0.026465480043417988
7,7,48.6095457179,4858.5,1521544364.0,181067943.0,,2890873.0,1521544363.0,277198595.5,,0.5896032699539999,-0.16342630813999998,0.09879536643965,-0.235532063345,0.9703503555445,-0.0220483668884,0.049583431622900014,-0.01740305192835,0.0039615021521000006,-0.09163093622755,0.015081889050050003,0.06104804174455,-0.08231126004940001,2.979650497435,2.0315412879,3.170479536055,-0.4275912940505,1.0207577645794998,0.15749840438399998,2017351.0,1521544363.0,274147837.5,,,,,,2395041.0,1521544364.0,174480180.5,,-0.5350001096720001,0.7700000047708,-0.04099922179999993,-0.07100000232455,-0.0654999986291,-0.0925000011921,44.0,44.0,54.5,60.0,72.5,141.0,159.0,177.0,184.5,199.0,4.0,0.7549998760229999,0.6400000005983,0.895002365113,0.0259999968113,0.0055000036954500064,-0.009000003337850018,0.9385126855212399,0.13374416013806625,4.801813988468375,1.1178490399336687,0.09335302989008593,0.10358315649313982
8,8,48.712109820500004,4871.5,1521544364.0,310205459.0,,2890887.5,1521544363.0,422199992.0,,0.592046878791,-0.1618716012835,0.09028142707665,-0.2361417883505,0.970195840801,-0.021373368016800003,0.0500005398784,0.03684727084964999,-0.0008340011363700004,-0.0592245283825,0.0122391972238,-0.03932814946225,0.005669709059070001,1.1234219223245,1.2594737708575,4.395741462705,-0.12943921983265,0.3381514772775001,0.16283451020700002,2017361.0,1521544363.0,419146363.0,,,,,,2395054.0,1521544364.0,307709456.0,,0.229999876022,0.980000042915,0.293999862671,-0.101000003517,-0.0920000001788,-0.09000000357629999,39.0,41.0,44.0,51.0,58.0,257.0,280.0,291.0,321.0,332.0,4.0,0.7649999856940001,0.2100000381442,0.3349990844709999,-0.030000001192450002,-0.026500001549700003,0.0024999976158000263,1.0486829579687582,0.16360012648854286,4.708597880683928,0.3970088297887018,0.06975644550213607,0.04157699952645272
9,9,48.8146739231,4880.5,1521544364.0,399412512.5,,2890896.5,1521544363.0,512198747.0,,0.5946907115385001,-0.161906189019,0.085494290828,-0.2352085070925,0.97038586168,-0.0214626637371,0.05066745026935,0.024308427919799997,0.0011707466929300001,-0.051046894680500006,-0.03157167173495,-0.0010739851291709998,0.0478777541574,-1.2142792940125,0.6512470543384999,6.225232124330001,0.223322361708,-0.2076549232005,0.208675459027,2891249.5,1521544363.0,510302826.5,,,,,,2395062.5,1521544364.0,391708147.5,,-1.66000010967,-0.2500000208615,-0.481001663208,-0.110500000417,-0.07650000229474999,-0.0489999987185,27.0,28.5,38.0,46.0,72.0,269.0,270.0,316.0,332.5,341.0,4.0,-1.889999985692,-1.2300000637764998,-0.775001525879,-0.009499996900000002,0.015499997884050015,0.04100000485779999,1.7462711629480756,0.14305069142673432,6.375900872146796,0.3695116934122295,0.05655135517627476,0.05736029326418715
10,10,48.91723802560001,4889.5,1521544364.0,489459991.0,,2890905.5,1521544363.0,602203898.5,,0.595836827047,-0.16194686105999995,0.08041402306965,-0.2356644574275,0.970440239917,-0.0214060947247,0.04743175735055,0.023089042776849995,0.004587705528454499,-0.059941653841,-0.0193465652243,0.046259002424949985,0.01014374064989,2.872658371925,1.857736825945,4.3978190422050005,-0.3219972401855,1.0353244543100002,0.167402677238,2017374.0,1521544363.0,597671235.5,,,,,,2395071.5,1521544364.0,480722560.0,,0.28000006675710004,1.1549999952335002,1.6939994812,-0.08999999985099999,-0.09200000017885004,-0.09150000289085,22.5,24.0,33.5,40.5,48.0,265.5,295.0,306.5,347.0,363.0,4.0,1.9400001764271,1.4050000160950002,2.175001144408,0.02050000056600001,-0.015499997884100043,-0.04250000417235,2.069313719250717,0.15791216082086257,5.5717290461977695,1.097088239261468,0.06439839131190539,0.05115740773047295
11,11,49.0198021282,4901.5,1521544364.0,609182953.5,,2890917.5,1521544363.0,722205464.5,,0.603641526551,-0.1601259195305,0.07424361180905001,-0.23721189955,0.9700599474414999,-0.021706085895150003,0.047359788379449985,0.08731335776480001,0.02110974469515,-0.05445601559805,0.016102979082403504,-0.027909417984365,0.00758610482778,1.9588232040400002,1.4868319630650002,5.12851476669,-0.09211194142695,0.8823688030245,0.224522665143,2017382.0,1521544363.0,721643833.5,,,,,,2395083.5,1521544364.0,604247087.0,,-1.180000090597,0.15000000000014999,-2.370999145505,-0.07349999994039999,-0.0559999998659,-0.0799999982119,22.0,26.5,30.0,40.5,43.0,272.0,284.0,304.5,330.0,347.0,4.0,-1.4600001573541002,-1.0049999952333502,-4.064998626705,0.016499999910600003,0.03600000031295003,0.011500004678950002,2.6526471988929123,0.12222213257067478,5.6876463799391255,0.9151337287343564,0.10504618698493268,0.033102726987551775
12,12,49.1223662308,4912.5,1521544364.0,722067951.5,,2890926.0,1521544363.0,807262549.0,,0.607801408037,-0.159491284083,0.070317331803,-0.23649327582899998,0.970286717851,-0.0205415693432,0.0468258430569,0.043071945,0.0048860389993,-0.045702527393699996,0.0148431417417,0.015068991569600001,-0.027706161572400002,-0.609566867352,1.55014705658,6.21157884598,-0.252820402384,-0.197222709656,0.15432167053200002,2017388.5,1521544363.0,817184089.0,,,,,,2395095.0,1521544364.0,715174460.5,,0.68999991417,-0.4700000047699999,1.7690002441405002,-0.03999999910595,0.05700000375535,-0.1140000037848,51.5,53.5,58.0,62.5,86.0,332.0,335.0,337.5,393.0,402.5,4.0,1.870000004767,-0.6200000047701499,4.1399993896455,0.03350000083444999,0.11300000362125,-0.034000005572900005,1.9561088287228696,0.13358518338318937,6.431037196488853,0.3558512766050583,0.06299037095745352,0.034857205177191236
13,13,49.2249303333,4922.5,1521544364.0,819303988.5,,2890936.0,1521544363.0,907269124.5,,0.610258643902,-0.1413575454805,0.06620844240080001,-0.228742266761,0.9721095568895,-0.005438479479335001,0.051440698945199995,-0.059415325312,0.2820702835765,-0.055189772026749996,0.282366288941,0.11395360653984996,0.20495967811500002,7.78412938118,2.09594988823,-0.2832604646699999,-4.930695056919999,0.8846253752709999,-0.579203784466,2891289.0,1521544363.0,905358587.0,,,,,,2395105.0,1521544364.0,814589099.0,,-1.2900001049,4.37999989986,-1.7460010528599998,-0.0670000016689,-0.11400000006,0.008000000379979999,181.0,190.5,209.0,238.0,246.0,205.5,218.0,243.0,269.5,289.5,4.0,-1.98000001907,4.849999904630001,-3.5150012970005,-0.027000002562949998,-0.17100000381535002,0.12200000416478,4.888457739410646,0.1324726396030225,8.066344441428605,5.042796131398573,0.29349571835926763,0.3670485189000981
14,14,49.3274944359,4932.5,1521544364.0,920483946.5,,2890946.0,1521544363.5,507262397.5,,0.6012270442775,-0.12827708494950002,0.0576934127602,-0.25897677890750004,0.964858943434,-0.0134427509496,0.04228446639205,-0.0489765060021,0.058130080736800004,-0.08903232972265003,-0.2718940490715,0.050478590570800015,0.575513521957,4.96935939789,-14.930868625650001,7.63065814972,7.5084803104399995,2.4099826812750003,1.6523457169499998,2891299.0,1521544364.0,5359281.0,,,,,,2395115.0,1521544364.0,915555972.0,,0.7949999332425,-0.4999999761565,1.6939994812035,0.05199999734750002,0.24500000476849998,-0.031999999424445,249.5,258.0,261.0,276.0,299.5,158.0,162.5,175.0,186.0,199.5,4.0,2.0850000381425,-4.8799998760165,3.4400005340635,0.11899999901640003,0.35900000482850003,-0.039999999804425,1.9369200066935668,0.25249356828218317,17.48863386716371,8.057018025586986,0.11706647753513084,0.6385062849979317
15,15,49.430058538500006,4943.5,1521544365.0,29536008.0,,2890957.0,1521544364.0,117268339.0,,0.603767050075,-0.128561568827,0.0515907354431,-0.260715436838,0.964347984508,-0.014828770413799998,0.0429014374723,0.05411670016319999,-0.047487733113699984,-0.047994511471699995,0.17791982415399998,0.00398638355222,-0.47146665327,4.7776222229,-1.4912157058700002,2.3350007534,0.142106115818,0.7720280885699999,0.0619980022311,2017410.5,1521544364.0,129179789.5,,,,,,2395125.5,1521544365.0,22049192.0,,-0.415000104904,2.1850000262250004,-1.5560005188,-0.06499999947845,0.043500000610949996,-0.04450000077485,222.0,236.0,257.0,284.5,298.0,179.5,183.0,203.5,209.5,219.0,4.0,-1.2100000381465,2.6850000023815004,-3.2500000000035,-0.11699999682595005,-0.20150000415755,-0.012500001350404992,2.7143300860763877,0.08998611034105654,5.5228277996475565,0.7874422327857288,0.08652846447406097,0.5039366629115509
16,16,49.532622641,4950.5,1521544365.0,99364519.0,,2890964.0,1521544364.0,187268209.0,,0.610868647713,-0.137353037907,0.047362376766099994,-0.254537117362,0.965805023785,-0.0178163897277,0.04597921457859999,0.150378288903,-0.126604422769,-0.05080931095869999,-0.108747324977,-0.197047547014,-0.04451468648469999,2.79430437088,-0.822322547436,4.40282678604,1.72738862038,1.6262720823299999,0.702258110046,2017415.0,1521544364.0,191164924.5,,,,,,2395132.5,1521544365.0,91369044.0,,-2.430000030995,1.0499999761565,-0.8710010528565,-0.10150000080444999,-0.07249999791385,-0.07200000062584999,189.0,203.0,214.0,257.0,265.5,207.0,220.0,231.0,247.0,250.0,4.0,-2.0149999260910003,-1.1350000500685005,0.6849994659434999,-0.036500001326,-0.1159999985248,-0.027499999851,2.7867620879151995,0.1440225675057003,5.279132030647843,2.4742269064719293,0.20303668564612576,0.22942378644490838
17,17,49.635186743599995,4965.5,1521544365.0,249164938.5,,2890981.5,1521544364.0,362268269.0,,0.634026498248,-0.1594416201355,0.0345119339464,-0.2358955386055,0.9700732775900001,-0.02292593772,0.05277530018545,0.1126196469255,-0.1675648691385,-0.10637213958675,-0.09451198199379998,-0.04133068394415,-0.2057618898325,3.15359020233,2.942836761475,1.913383424285,-0.440046131611,1.21767950058,0.1717912964525,2017427.0,1521544364.0,357181848.5,,,,,,2395147.5,1521544365.0,240898188.0,,0.26000008583085,1.1700000405300002,0.7839996337899999,-0.10249999910614999,-0.06550000049175,-0.0685000009835,177.0,179.0,198.0,244.0,254.0,294.0,317.0,322.0,382.0,392.5,4.0,2.69000011682585,0.1200000643735002,1.6550006866465,-0.0009999983017000005,0.0069999974221000025,0.0034999996423499963,1.4321855903670815,0.13960211322153937,4.718734522861933,1.3060996185649068,0.22820210849878214,0.23017101355976485
18,18,49.7377508462,4974.5,1521544365.0,341092943.5,,2890990.5,1521544364.0,452269025.5,,0.6417536826899999,-0.17014519022349994,0.025895470380700003,-0.2274914812090001,0.9720503954755,-0.02490351456455,0.052396307013600006,0.07151832706660001,-0.109062441813,-0.09295848369295,-0.0371700406459,0.02517519711786,-0.22379509011800008,0.291015058756,4.009306550025,3.01367902756,-0.9193105995655,0.272861093283,0.09898027777665,1143523.0,1521544364.0,449999872.0,,,,,,2395157.5,1521544365.0,340616690.5,,-0.8499999284744999,1.1450000047689999,-0.4410007476805,-0.1185000017285,-0.055999999865900006,-0.0925000011921,157.0,162.5,185.0,208.0,234.0,364.0,377.0,380.5,467.0,478.0,4.0,-1.1100000143053501,-0.025000035761000072,-1.2250003814705,-0.016000002622350004,0.009500000625849998,-0.02400000020860002,1.492650846240481,0.16041976379228903,5.024090968289797,0.96404473448581,0.16015856833498365,0.22825346620032902
19,19,49.8403149487,4985.5,1521544365.0,449231505.0,,2891001.5,1521544364.0,562265860.0,,0.6444856150355001,-0.1730529935435,0.017784110743,-0.2220295538465,0.9735218359435,-0.022794332997150002,0.049377578729050006,0.007360048607830002,0.00995320125856225,-0.07193480137375,0.05750473731995,0.0936627229263,-0.07030957513514999,4.690237045290001,4.518791198735,-0.06252290308499997,-1.9713535904900001,1.088083565234,-0.1133086159825,2017441.0,1521544364.0,558677125.5,,,,,,2395167.5,1521544365.0,442692705.5,,-1.9,1.0750000119215,-1.6810005188,-0.35250000655650005,-0.04600000008945,-0.06500000134110001,153.5,154.0,161.5,203.0,218.5,392.0,394.0,411.0,496.5,507.0,4.0,-1.0500000715255,-0.06999999284750014,-1.2399997711195,-0.23400000482800004,0.009999999776450013,0.027499999851000004,2.755247315548478,0.36138242182611063,6.513194803795273,2.2545508790280198,0.07299213779225767,0.130471977205416
20,20,49.942879051300004,4994.5,1521544365.0,539481520.0,,2891010.5,1521544364.0,652263311.5,,0.6450355078355,-0.1713216392695,0.01300475644945,-0.22269060534000001,0.9734410490875,-0.022266474787150003,0.04822041571735,0.014472014518545,0.039059852735349995,-0.051382459025750005,0.004781888121475001,-0.00449397057575,0.06759392767559999,-0.17990116775050002,0.7573927566430001,5.552137136460002,0.20312629640100005,-0.03441878408174999,0.21093258261685,2017446.5,1521544364.0,644179929.5,,,,,,2395176.5,1521544365.0,532415595.5,,0.5499998092652001,1.5250000000005002,-1.501000213625,-0.278999999166,0.020000000484300003,-0.08300000056625001,136.0,144.0,149.0,177.0,189.0,358.0,362.0,386.0,454.0,474.0,4.0,2.4499998092652002,0.4499999880790002,0.18000030517499988,0.07350000739050007,0.06600000057375,-0.017999999225150002,2.2093271445160805,0.2917704571199721,5.606445843850767,0.2948516565947482,0.06614581162450942,0.06791171683999936
21,21,50.0454431538,5003.5,1521544365.0,629334449.0,,2891019.5,1521544364.0,742263559.0,,0.6432319834185001,-0.16954731582100002,0.0102635975063,-0.2238492561275,0.973301531168,-0.02160517614365,0.045920640828950005,-0.044100593379600005,0.0170141024196,-0.0190109029729,0.006507821155435,0.09081991459645,-0.01132423275675,1.963249206545,0.31665317714209995,6.193671941755,0.429863721132,0.8957093358054999,0.3186044692995,2891372.5,1521544364.0,740328881.0,,,,,,2395185.5,1521544365.0,622088103.0,,-0.7349999189374999,0.5050000190735,-0.08600120544449996,-0.09050000086425,-0.08200000226495,-0.08550000190734999,124.0,124.5,136.5,171.0,180.0,371.5,375.5,388.0,442.0,459.0,4.0,-1.2849997282027,-1.0199999809270002,1.4149990081805002,0.18849999830175002,-0.10200000274924999,-0.0025000013410999837,0.8959051888678142,0.14907884106753014,6.505089453933505,1.043353650902797,0.050948566706262466,0.0917542744019408
22,22,50.14800725640001,5013.5,1521544365.0,730375408.5,,2891028.5,1521544364.0,831845202.0,,0.6415461112675,-0.16854535631749998,0.00912426281699,-0.2244756009655,0.9732496324795,-0.0209508659281,0.04423653774675,0.008714708226865,0.00280926784461,0.0047361580785055,0.00282121967138,-0.018648231234,6.330851234000005e-05,3.687220692635,0.44019842147849997,5.144561529160001,0.563039273024,1.5833054184900002,0.3876358419655,1143538.0,1521544364.0,836999936.0,,,,,,2395195.5,1521544365.0,721468587.5,,-1.0099998950975,-1.3150000035750002,0.828999710085,-0.08500000089410001,-0.08800000324844999,-0.06149999797345,109.5,112.5,120.0,139.0,148.0,371.5,377.5,378.5,472.0,499.0,4.0,-0.27499997616000005,-1.8200000226485,0.9150009155295,0.0054999999701499935,-0.006000000983499995,0.0240000039339,1.8537975393284525,0.13693520538728735,6.344752510049622,1.724566849143138,0.01030870111346435,0.01886053595629375
23,23,50.250571359,5022.5,1521544365.0,819513439.5,,2891034.0,1521544364.0,886846158.0,,0.64217747065,-0.16919237917899999,0.00896004363885,-0.22366924674199998,0.973426424748,-0.020902725812699998,0.0444537930567,0.00880537923307,0.00147259567426,-0.0033760448757499998,-0.000538039245441,-0.0137543098031,0.0111191319829,1.7616046667099998,0.048276513814900016,5.13381958008,0.749584376812,0.910163164139,0.42623677849799996,2017465.0,1521544364.0,904455425.0,,,,,,2395204.5,1521544365.0,813882955.5,,-1.1849999666195,0.439999991655,-2.956000137325,-0.07299999892709999,-0.047000000253300006,-0.08450000360610001,97.5,101.5,135.0,139.0,140.5,294.0,296.5,327.5,390.0,394.0,4.0,-0.17500007152200014,1.7549999952300002,-3.78499984741,0.012000001967000018,0.041000002995149984,-0.023000005632650013,3.2149279502673207,0.12115382980573794,5.427861927534023,1.2537749058983847,0.009544680217854734,0.017694790771366504
24,24,50.353135461499996,5034.5,1521544365.0,939147472.0,,2891048.0,1521544365.0,26842347.0,,0.642973622729,-0.170647365028,0.00943294759324,-0.222616719434,0.97363504543,-0.021248609600400002,0.045001012531300004,-0.009086918923110001,-0.032174997666700005,-0.0106423348094,-0.012519912137,0.0304864248152,-0.059508778357499986,2.1708278656,0.335185825825,4.335916996,0.704507231712,1.09703576565,0.412588506937,2017473.5,1521544365.0,32471177.0,,,,,,2395216.5,1521544365.0,931684684.0,,-1.42499997616,0.5899999976155,-0.28099899292,-0.0794999971986,-0.07250000163914999,-0.0925000011921,104.5,109.0,112.5,126.0,145.0,288.0,293.0,294.5,356.5,368.0,4.0,-0.24000000954049994,0.15000000596050006,2.6750011444050004,-0.00649999827150001,-0.025500001385849985,-0.007999997586000005,1.567700661243831,0.1418899221678293,4.860557514946316,1.3674966861774438,0.03508649114064689,0.06802547316655064
25,25,50.4556995641,5044.5,1521544366.0,40581464.5,,2891057.0,1521544365.0,116842662.0,,0.642597745074,-0.17058160431699998,0.00899655453184,-0.222389900716,0.973699968458,-0.02096023545,0.0448527815651,-0.0023476764796799996,-0.0070999122392799985,-0.0078403615669,0.00667708910429,0.011400499439000001,-0.023507519384300003,1.97988903522,0.195157840848,5.55612516403,0.7797338962549999,1.04766273499,0.423020243645,2017480.0,1521544365.0,127948296.5,,,,,,2395226.5,1521544366.0,32308366.5,,-2.57499995232,-0.35500001013300003,-0.05099945068355,-0.07899999991060001,-0.06599999964240001,-0.08700000122189999,93.5,96.0,114.5,119.5,126.0,299.0,309.0,315.5,360.0,371.0,4.0,-1.1499999761599995,-0.9450000077485,0.22999954223645,0.000499997287999987,0.0065000019967499795,0.005499999970200023,2.5998559009322912,0.13478130490272827,5.9015738589800115,1.3727812213856967,0.01083474079793528,0.02696587424817723
26,26,50.5582636667,5056.5,1521544366.0,162325501.0,,2891070.0,1521544365.0,246845324.5,,0.6439904427225001,-0.17349939144450002,0.009815523582475002,-0.21949180086000009,0.9743185768565,-0.02096453359145,0.045684044078200016,0.00226832277271,-0.001442644921050001,-0.0012294820395999998,0.008518491649994998,-0.0013819052848500007,-0.0030233077521020003,2.1445134878150003,0.4736840128895,4.826369524,0.4842520952225,1.0796797871615,0.400481000543,2017489.5,1521544365.0,257457124.0,,,,,,2395239.0,1521544366.0,159261029.0,,-1.36000003815,0.95999994278,-0.13600044250499999,-0.135000005364,-0.08900000154969999,-0.0630000010133,104.0,122.0,125.0,132.0,158.0,301.0,308.0,336.0,362.0,372.5,4.0,1.21499991417,1.314999952913,-0.08500099182145003,-0.05600000545339999,-0.023000001907299974,0.024000000208599992,1.6702383405571672,0.1735367449614128,5.302561402349203,1.2492371937820317,0.002956034278408341,0.009144110233984
27,27,50.6608277692,5065.5,1521544366.0,249779939.5,,2891079.0,1521544365.0,336843357.0,,0.642411190593,-0.17362454637000002,0.0090588089147,-0.21898608020100002,0.9745113465449999,-0.020496208950900003,0.04418865863009999,-0.0052105252866,0.0067762908857399995,0.00152695518074,0.011933732904299998,0.00311456867255,0.0130435989006,2.0476970672599997,1.0283383131000001,5.05812835693,0.183548480272,0.9410632848739999,0.350999474525,2017496.0,1521544365.0,348469778.5,,,,,,2395247.5,1521544366.0,243355964.5,,-0.4050001144411,2.17499997616,-1.0609996795665,-0.17199999839049998,-0.09200000017885003,-0.07899999991060001,92.5,97.0,115.5,119.0,130.0,306.0,308.0,327.0,385.0,395.5,4.0,0.9549999237089001,1.21500003338,-0.9249992370615,-0.036999993026499985,-0.0029999986291500275,-0.015999998897300013,2.453644291463928,0.21044951761673203,5.552945654392265,1.0210243786829138,0.008683276112991556,0.017951322829444515
28,28,50.7633918718,5076.5,1521544366.0,359160065.0,,2891092.5,1521544365.0,471855979.5,,0.6428012828815,-0.17310148425350005,0.0093667683898,-0.219763561914,0.974309136579,-0.02086982861505,0.0446106926151,-0.008054689817084999,-0.002197175495205,-0.0050246515743750005,-0.00946243542694,0.015316903166,0.002797730556755,2.026871204375,0.234535843134,5.082557678225,0.6333020329475,1.0094138085834998,0.429216325283,2017504.0,1521544365.0,463959892.5,,,,,,2395258.5,1521544366.0,353074809.5,,-0.5800000667575,0.13500000499199993,-0.28100090026872004,-0.0894999988377,-0.07000000029805001,-0.0785000026226,96.0,99.0,105.0,109.0,127.0,317.5,319.5,330.0,387.0,389.0,4.0,-0.17499995231640006,-2.039999971168,0.7799987792977799,0.08249999955279998,0.02199999988080001,0.0004999972880000149,0.6584729187585284,0.1381032231536379,5.476824489914118,1.2665758389389579,0.009744369227920876,0.018220112597726466
29,29,50.865955974399995,5084.5,1521544366.0,439244031.5,,2891100.0,1521544365.0,546857264.0,,0.6431764150604999,-0.17328754802250002,0.009452514740520002,-0.2195649093005,0.9743416808395,-0.02079800720595,0.04491018026945,-0.005036219756635,-0.009845596730625,-0.003306124558255,-0.011847362020629998,0.012398238334135002,-0.0013567425341540005,1.880923509595,0.5694531202319999,5.22982978821,0.4531707018615,0.9436221122745,0.4097221791745001,2891453.0,1521544365.0,544951926.5,,,,,,2395266.5,1521544366.0,433224103.5,,-1.1200000286099998,0.35000001788150004,0.10399932861305,-0.1735000014305,-0.06450000032785,-0.0650000013411,92.0,101.5,111.5,129.5,130.0,307.0,320.0,320.0,381.5,400.5,4.0,-0.5399999618524998,0.2150000128895001,0.3850002288817701,-0.08400000259280001,0.005499999970200009,0.0135000012815,1.1780135555057998,0.1961823149853706,5.586883721605255,1.1241257224645893,0.011542518963116812,0.017202239707138817
30,30,50.9685200769,5097.5,1521544366.0,569144964.0,,2891113.5,1521544365.0,681849534.0,,0.6428995428735,-0.17332806915049995,0.009286678119345,-0.219583070891,0.9743481865225,-0.02076678526075,0.044693628063800006,-0.004783641820865,0.0020759033122950002,-0.003633580953035,-0.008563054637245,0.0021154384032470003,0.02028205145545,2.0708782672899995,0.5166957974435,5.050164699555,0.4991462677715,1.005354642868,0.414120033383,2891466.5,1521544365.0,679936851.5,,,,,,2395279.5,1521544366.0,563286524.0,,-0.5499999761600001,0.8950000047675001,1.73399848938,-0.127500001341,-0.08850000053644999,-0.08100000023845,96.0,103.0,110.0,116.0,124.0,304.0,306.0,313.5,368.0,377.0,0.0,0.5700000524499997,0.544999986886,1.62999916076695,0.0460000000895,-0.024000000208599992,-0.01599999889735,2.0273814992452572,0.17506998736372706,5.482670411182971,1.196403091192763,0.006355746547384084,0.022117020495534583
31,31,51.0710841795,5105.5,1521544366.0,656922459.0,,2891121.5,1521544365.0,761842299.5,,0.6432847802530001,-0.173157428354,0.00957440689801,-0.219772843707,0.9742849051685,-0.0209067836019,0.04507302156885,-0.00637112708127,-0.0024365073438600005,-0.0015233433975100005,0.00273687383348,0.008797079412540001,0.001367563901559999,1.838028907775,0.4270552396775,5.264145851135,0.5254257619380001,0.9345073699950002,0.4146695286035,2891474.0,1521544365.0,754931282.0,,,,,,2395288.5,1521544366.0,653173369.5,,-1.630000019075,0.589999997616,0.5089981079081,-0.1635000035165,-0.0630000010133,-0.05650000087915,92.5,95.0,109.5,117.5,124.5,286.5,292.0,305.5,366.5,394.5,-1.0,-1.0800000429149998,-0.3050000071515001,-1.2250003814719,-0.03600000217549998,0.02549999952314999,0.024499999359299997,1.8066762668572933,0.18410187771154116,5.592133580805666,1.1494899189794354,0.006989163285337739,0.009313931264282158
32,32,51.173648282100004,5116.5,1521544366.0,759092926.5,,2891130.0,1521544365.0,846846558.0,,0.643891008426,-0.173326109964,0.010116098477299999,-0.219625975735,0.9742872555509999,-0.0210074346118,0.04568875292090002,-0.00417437857136,0.007679107058979998,0.00248109045169,-0.00793378637977,0.0027372640195100005,0.0428239001173,1.79537796974,0.654513478279,5.25519800186,0.454914689064,0.922318458557,0.418994545937,2891483.0,1521544365.0,844895287.0,,,,,,2395298.5,1521544366.0,753008677.5,,-1.0749999523165,0.539999985695,0.6540004730225,-0.135499998927,-0.0815000012517,-0.07450000196695,92.5,100.0,101.0,114.0,132.0,287.0,294.0,298.0,381.0,390.5,-1.0,0.5550000667585,-0.05000001192100001,0.14500236511439998,0.0280000045895,-0.0185000002384,-0.018000001087799998,1.3692850326884942,0.1747934501241956,5.5918580084109735,1.1104841929744471,0.009085699285678196,0.04363856095116812
33,33,51.2762123846,5127.5,1521544366.0,869117617.0,,2891141.0,1521544365.0,956861399.0,,0.6430986486420001,-0.17283577953200002,0.009587691896585,-0.21952224221,0.9743500928705,-0.02062238026425,0.04501620975435,0.00091486798808,0.006886175553544999,0.00250433207784,7.271394139999991e-05,-0.0008195357283749987,0.02034446056805,1.7035529613500002,0.4575355798005,5.338062286375,0.5263268053535001,0.8838268220425001,0.40752957761299996,2891494.5,1521544365.0,959938456.0,,,,,,2395309.5,1521544366.0,863550570.5,,0.050000047683500026,-1.339999979735,-0.4359996795655,-0.108500000089,-0.08799999952314999,-0.07299999892709999,103.5,108.5,109.0,116.0,131.5,285.0,303.5,305.5,379.0,390.0,-1.0,1.125,-1.87999996543,-1.090000152588,0.026999998837999983,-0.0064999982714499934,0.001500003039850012,1.4100339254923517,0.15762376019732557,5.621951660422457,1.1064583652468793,0.007384312855367975,0.02036109039153597
34,34,51.3787764872,5135.5,1521544366.0,949150919.5,,2891149.0,1521544366.0,36850886.0,,0.642893736174,-0.173412067411,0.009434597654515,-0.219271062156,0.974421387244,-0.0208063692291,0.04460963401655002,7.949328625000193e-06,0.00640782309986,0.0020123786251635,0.0004185980765499999,-0.002488749450965001,0.01782711587234,1.872429251675,0.59466022253,5.2058429718,0.4143943488595,0.9231978356835,0.3883409649135,2891502.0,1521544366.0,34940041.0,,,,,,2395317.5,1521544366.0,943049191.5,,-0.689999961855,1.8700000286099998,0.7539989471435,-0.1569999977945,-0.07699999958275,-0.0840000025928,106.0,108.0,113.0,121.0,122.5,294.5,298.5,318.0,364.0,373.0,-1.0,-0.7400000095385,3.210000008345,1.189998626709,-0.0484999977055,0.01099999994039999,-0.011000003665700005,2.1310829328430203,0.19399484446450352,5.564208221286034,1.0838937333555057,0.006716392469320114,0.018004864856621575
35,35,51.481340589700004,5146.5,1521544367.0,59128522.5,,2891160.0,1521544366.0,146847116.0,,0.642701686738,-0.172990149249,0.010017050712,-0.219646242834,0.97432440784,-0.0209424974873,0.0448206213253,-0.0193745242267,-0.00283780913888,-0.00359532076691,-0.021888532768099996,0.0291265746342,0.024744920998999997,0.8971164822579999,0.15848711132999999,6.51572370529,0.528027415276,0.5143381953239999,0.3646517694,2891513.0,1521544366.0,144941362.0,,,,,,2395328.5,1521544367.0,53128035.5,,-0.1400000095368,1.689999961855,1.29399986267,-0.1655000001195,-0.06499999947849999,-0.08900000154974999,99.5,114.0,116.5,125.0,140.5,280.5,291.0,312.0,361.0,362.0,-1.0,0.5499999523182,-0.18000006675500013,0.5400009155265,-0.008500002325000006,0.012000000104250008,-0.004999998956949997,2.133104666520184,0.19883724562469426,6.579102640244697,0.8223914173790685,0.019908583102186614,0.04404289195668878
36,36,51.583904692299996,5158.5,1521544367.0,179185986.0,,2891172.5,1521544366.0,271844225.5,,0.643636700432,-0.17378123495800002,0.010974864738049999,-0.21978273899950002,0.9742258774605,-0.02145247706085,0.04603556306895,-0.0012394958220899991,-0.0140724632195,0.00030549815664,-0.00186897841109,0.00386272889415,-0.02456856531139,0.8105012178419999,0.2834214568135,6.6827871799450005,0.416842490435,0.476421043277,0.351966202259,1143595.0,1521544366.0,272000000.0,,,,,,2395340.5,1521544367.0,173823082.0,,0.30000004768359995,1.35499998331,0.684001159668,-0.2040000036355,-0.06300000101325,-0.0544999986887,90.5,109.0,113.5,119.0,126.0,294.5,307.0,312.0,360.0,363.0,-1.0,0.4400000572203999,-0.334999978545,-0.609998703002,-0.038500003516000005,0.001999998465249994,0.034500002861050004,1.5472176866257157,0.22035256174599335,6.737721012237216,0.7243030303966852,0.014130247700619734,0.02494049230209496
37,37,51.686468794899994,5166.5,1521544367.0,259127974.0,,2891182.5,1521544366.0,371854338.0,,0.6435704322510001,-0.17327891102600002,0.01105117321165,-0.2205926159585,0.974032726523,-0.02176091360045,0.0461034266032,-0.0036430654371550006,-0.00396554463262,-8.529911838499977e-05,-0.0030199324156500004,0.0019634715376300013,-0.007645383159060002,0.49903608858549997,0.1010103672744,7.170352697369999,0.53714248538,0.4301845133305,0.3909979760645,2017567.0,1521544366.0,363969557.0,,,,,,2395348.5,1521544367.0,253253569.0,,0.09499988555899996,1.489999973773,0.3140003204345,-0.1805000007155,-0.08749999850989999,-0.06799999997020001,99.5,103.0,111.5,114.5,122.5,294.5,306.0,311.5,373.0,376.0,-1.0,-0.2050001621246,0.13499999046299993,-0.37000083923349997,0.023500002919999985,-0.024499997496649998,-0.013500001281500015,1.5256870915534197,0.21180297446795973,7.188407189126729,0.7914923767138493,0.005385605439715381,0.008451455254748443
38,38,51.7890328974,5180.5,1521544367.0,399119495.5,,2891196.5,1521544366.0,511844652.0,,0.6431853335165,-0.17356330525200006,0.010498513004,-0.2201895494745,0.9741540361884999,-0.02140251765125,0.045629434752550005,-0.01254958401095,-0.0231653605124,-0.00917868272592,-0.018597483755052498,0.02693065586127,-0.02482592088195,-0.126654535532,0.0014520883560499992,7.0850572586050005,0.6737715005875,0.267313696444,0.4453788399695,1143604.0,1521544366.0,504999936.0,,,,,,2395362.5,1521544367.0,394262296.0,,-0.439999961853,1.0250000000005,-0.8659999847409999,-0.12849999964249995,-0.09699999913564998,-0.0774999968708,89.0,98.5,109.0,118.0,125.0,281.0,287.5,312.0,361.0,369.0,-1.0,-0.5349998474119999,-0.4649999737724999,-1.1800003051755001,0.05200000107300007,-0.009500000625750002,-0.009499996900599994,1.4121547153209093,0.17868267754713268,7.086189373537996,0.8507566975364131,0.02789935847112717,0.04107861943608182
39,39,51.891597,5186.5,1521544367.0,459171413.5,,2891202.5,1521544366.0,571853039.5,,0.642886536936,-0.1731495424115,0.0107364741368,-0.220263896254,0.974139128957,-0.021462916414200003,0.0455641758051,-0.012049158177399998,0.0006528742299105,-0.0030594169594430004,-0.005437162645449,0.01753113213675,0.015942862240235,0.08374200761315001,0.13696920126669998,7.192789793015001,0.6420570909975,0.382449686527,0.46432793140399997,2017581.0,1521544366.0,565474949.5,,,,,,2395368.5,1521544367.0,455193523.0,,-0.2150000572205,0.6199999988075,-0.5360000610355,-0.129999995232,-0.1235000006855,-0.06000000238415,86.5,91.0,111.0,117.5,122.0,270.5,292.5,308.0,362.5,367.0,-1.0,0.2249999046325,-0.405000001193,0.3299999237054999,-0.0014999955895000636,-0.026500001549850008,0.017499994486650003,0.8473022415621111,0.18908265181062098,7.194581175609564,0.8798326538079217,0.012448634048594004,0.024312099622212098
