,Unnamed: 0,Unnamed: 0.1,.header.seq,.header.stamp.secs,.header.stamp.nsecs,.header.frame_id,.endpoint_state.header.seq,.endpoint_state.header.stamp.secs,.endpoint_state.header.stamp.nsecs,.endpoint_state.header.frame_id,.endpoint_state.pose.position.x,.endpoint_state.pose.position.y,.endpoint_state.pose.position.z,.endpoint_state.pose.orientation.x,.endpoint_state.pose.orientation.y,.endpoint_state.pose.orientation.z,.endpoint_state.pose.orientation.w,.endpoint_state.twist.linear.x,.endpoint_state.twist.linear.y,.endpoint_state.twist.linear.z,.endpoint_state.twist.angular.x,.endpoint_state.twist.angular.y,.endpoint_state.twist.angular.z,.endpoint_state.wrench.force.x,.endpoint_state.wrench.force.y,.endpoint_state.wrench.force.z,.endpoint_state.wrench.torque.x,.endpoint_state.wrench.torque.y,.endpoint_state.wrench.torque.z,.joint_state.header.seq,.joint_state.header.stamp.secs,.joint_state.header.stamp.nsecs,.joint_state.header.frame_id,.joint_state.name,.joint_state.position,.joint_state.velocity,.joint_state.effort,.wrench_stamped.header.seq,.wrench_stamped.header.stamp.secs,.wrench_stamped.header.stamp.nsecs,.wrench_stamped.header.frame_id,.wrench_stamped.wrench.force.x,.wrench_stamped.wrench.force.y,.wrench_stamped.wrench.force.z,.wrench_stamped.wrench.torque.x,.wrench_stamped.wrench.torque.y,.wrench_stamped.wrench.torque.z,.tactile_values.tactile_values_0,.tactile_values.tactile_values_1,.tactile_values.tactile_values_2,.tactile_values.tactile_values_3,.tactile_values.tactile_values_4,.tactile_values.tactile_values_5,.tactile_values.tactile_values_6,.tactile_values.tactile_values_7,.tactile_values.tactile_values_8,.tactile_values.tactile_values_9,.tag,.delta_wrench.force.x,.delta_wrench.force.y,.delta_wrench.force.z,.delta_wrench.torque.x,.delta_wrench.torque.y,.delta_wrench.torque.z,.wrench_stamped.wrench.force.magnitude,.wrench_stamped.wrench.torque.magnitude,.endpoint_state.wrench.force.magnitude,.endpoint_state.wrench.torque.magnitude,.endpoint_state.twist.linear.magnitude,.endpoint_state.twist.angular.magnitude
0,0,43.282092,4328.5,1521544026.0,156231522.0,,2857071.0,1521544025.0,256918470.0,,0.804903755634,-0.09495253835650001,0.0655563035143,0.713885013137,0.6993511353149999,-0.030399326468700007,-0.0187632220382,0.0404854954253,0.0471566999269,0.102238983459,0.0062980416322500005,-0.101772109449,0.0260283559063,6.55540657043,4.56756830215,9.38201522827,-1.6008541584,2.8510956764200004,0.022890813648700003,1993763.0,1521544025.0,262010065.0,,,,,,2361275.5,1521544026.0,151659002.0,,1.5220000863049998,0.40200000554335,1.028001785279,-0.0339999999851,-0.17000000178799998,-0.0960000008345,-5.5,-2.0,-0.5,1.5,6.5,170.0,175.0,178.5,221.5,228.5,4.0,0.0,0.0,0.0,0.0,0.0,0.0,1.8801265749161922,0.1981716447101623,12.323077750380886,3.269863083053615,0.11964798128910221,0.10523641433118962
1,1,43.38465610260001,4338.5,1521544026.0,256214499.0,,2857080.5,1521544025.0,351922580.0,,0.8092539718545,-0.09063208575655,0.07708183974800001,0.7153412239435001,0.698140142351,-0.025488624530700003,-0.0153969225615,0.031009091039800006,0.04178619190675,0.121695575525,0.016074723248590002,-0.09155802570425,-0.006181517371215001,3.10257256031,3.07486772537,8.434396266939999,-1.0747074484799999,1.57566195726,0.005260299891220001,1993770.0,1521544025.0,363002348.5,,,,,,2361285.5,1521544026.0,253473790.0,,2.3270001530649997,1.4620000004750002,0.7830009460449999,-0.05049999989569999,-0.167000003159,-0.07350000366569999,-3.0,0.5,3.5,9.5,23.0,165.0,170.5,183.5,219.0,222.0,4.0,0.8050000667600004,1.0599999949316503,-0.2450008392340001,-0.01649999991059999,0.002999998628999995,0.022499997168800023,2.8575276368323714,0.18931851886022566,9.498410835938927,1.9072845551017685,0.13235355176021277,0.09316372660745972
2,2,43.4872202051,4346.5,1521544026.0,336764931.0,,2857089.0,1521544025.0,436926088.0,,0.8142619888355,-0.08688558998625,0.08716098434325001,0.7147191057555,0.6990626881440001,-0.01907955917445,-0.0110744838049,0.0763549300127,0.06302673022885001,0.1188837424845,0.061856772295149985,-0.2359839156245,0.03755734575115,5.634247243405,3.557273209094,5.696692705155,-1.1212884038701,2.5652376413335003,0.0005698539316499987,2857442.0,1521544025.0,434994654.5,,,,,,2361293.5,1521544026.0,333064624.0,,1.321999800205,-1.46299998909,1.23800086975,-0.05049999989569999,-0.1735000014305,-0.047000000253300006,-4.5,-3.5,-3.0,4.5,28.0,160.5,162.5,171.0,204.0,209.5,4.0,-1.0050003528600002,-2.9249999895650003,0.4549999237050001,-6.938893903907227e-18,-0.006499998271500025,0.026500003412399983,2.328239376292987,0.18671234696628772,8.766484042130058,2.7995950003351058,0.15471195263361348,0.24683035253411725
3,3,43.58978430770001,4358.5,1521544026.0,456795930.5,,2857103.0,1521544025.0,576923461.0,,0.820472532659,-0.0790292977398,0.0985667827118,0.712578085764,0.701504959046,-0.009676263621120002,-0.00544371611433,0.0262514015082,0.051504898458400006,0.0481208961272,0.0284322980725,-0.11293835934499999,0.0530437448394,0.859906196594,3.31278347969,4.23689985275,-0.956022799015,0.774350047112,0.0537289306521,1993785.0,1521544025.0,575011943.0,,,,,,2361305.5,1521544026.0,451878887.0,,1.81699992418,1.102000002005,0.267999649048,-0.03300000075255,-0.171999998391,-0.07699999958275,8.0,13.5,19.0,19.0,63.0,142.0,144.5,173.0,203.0,210.0,4.0,0.4950001239749999,2.564999991095,-0.970001220702,0.017499999143149994,0.0015000030395000141,-0.029999999329449994,2.141895548522149,0.19131649022474723,5.4465854819768245,1.231456205347088,0.0752164296576193,0.12797307315139075
4,4,43.6923484103,4366.5,1521544026.0,536915421.0,,2857111.5,1521544025.0,661921572.5,,0.8203170022895001,-0.07475380650935001,0.100623013947,0.7108162376115,0.7033142720425,-0.007312898742045,-0.005957190883209999,-0.01004906326084,0.03055235015785,0.011690867892755,0.034561842856,0.0013610225275600008,0.022104767365343503,-0.25696164369600005,-2.25221568346,5.232909917830001,1.1487368345264999,0.39563087374,0.1593937426805,1993790.5,1521544025.0,660504946.5,,,,,,2361313.5,1521544026.0,533434280.5,,1.296999943255,-0.11300002485535003,0.6030006408690001,-0.03649999946355,-0.147500000894,-0.0744999982417,2.0,2.0,4.0,6.5,51.5,142.0,149.5,152.0,184.5,209.0,4.0,-0.519999980925,-1.21500002686035,0.3350009918210001,-0.0034999987109999987,0.024499997496999992,0.0025000013410499955,1.4347779031296821,0.16922987313882398,5.702793261137715,1.2253678910677954,0.03422142844292288,0.041048679688868425
5,5,43.794912512799996,4380.5,1521544026.0,676817536.0,,2857125.5,1521544025.0,801924779.5,,0.819217882812,-0.07390218899675001,0.0991797744627,0.7091870027205001,0.7049344306280001,-0.007649967543985,-0.00790565324011,-0.008440757286039999,-0.025960446241849996,-0.0245333589801,-0.025845482584117997,0.039283825752600005,-0.02618231164235,-1.331667542455,-2.13341212273,7.346552848815,1.0320114791395,-0.1300858184695,0.15324719250200006,2857478.5,1521544025.0,800018696.0,,,,,,2361327.5,1521544026.0,672223051.5,,2.12700010538,-0.40299998670834997,0.823001861572,-0.049000000581149984,-0.1469999998805,-0.0625,2.5,5.0,5.5,22.0,60.0,139.0,151.0,157.0,184.0,199.0,4.0,0.8300001621250002,-0.28999996185300003,0.22000122070299988,-0.012500001117599982,0.0005000010135000067,0.011999998241700005,2.316003130767409,0.16708156697200233,7.765090114703837,1.0514060658243911,0.036702545626758294,0.05382119822805622
6,6,43.8974766154,4388.5,1521544026.0,756247520.0,,2857133.5,1521544025.0,881924053.0,,0.818745191531,-0.07485424770185001,0.09724666149805,0.7091706021534999,0.7049327489094999,-0.009626470846865,-0.007348400786654999,0.004695906159335001,0.00446409331055,-0.0320774253107,-0.039453642351300014,-0.001500166992899999,0.0259595838176,3.556908726695,2.40593135357,7.161617040634999,-0.708116516469,1.6709695458449998,0.117042452097,1993806.0,1521544025.0,876009147.5,,,,,,2361335.5,1521544026.0,753881518.5,,1.5620000481600005,0.3570000037550001,1.4280014038100002,-0.0554999988526,-0.1655000001195,-0.05049999989569999,7.0,9.0,18.5,22.0,32.0,141.0,142.0,146.5,188.0,193.5,4.0,-0.5650000572199996,0.7599999904633501,0.6049995422380002,-0.006499998271450015,-0.018500000239000003,0.01200000010430001,2.1462714559011973,0.18171612449548555,8.350381069438916,1.818589332320663,0.032725233051975576,0.04725188237281008
7,7,44.0000407179,4401.5,1521544026.0,886211990.5,,2857144.0,1521544025.0,987176575.0,,0.818523496019,-0.0725573179749,0.0934271697068,0.708813899501,0.7052742675650001,-0.009680126205389999,-0.00879537051598,-0.028803912729599996,0.0286868118177,-0.0376232405217,0.0178756941595,0.07796243778169999,0.00126546993218,-0.721459567547,1.24681472778,7.195446014400001,-0.264571845531,0.103878423572,0.12380146235200001,2857496.0,1521544025.0,975273416.0,,,,,,2361348.5,1521544026.0,884451934.0,,2.112000000475,1.482000003755,0.4479999542235,-0.01699999999255,-0.1695000007745,-0.0905000008643,10.5,11.5,12.5,14.5,30.0,142.0,143.0,161.0,176.0,187.0,4.0,0.5499999523149997,1.1249999999999998,-0.9800014495865002,0.038499998860050004,-0.004000000655000002,-0.04000000096860002,2.6186966170445327,0.1928976423358785,7.3382214615776675,0.3100254673603071,0.05539049366229041,0.07999552212904593
8,8,44.10260482050001,4411.5,1521544026.0,986915945.5,,2857155.0,1521544026.0,97184883.0,,0.8162155036290001,-0.0713003639864,0.0888284053444,0.710043778121,0.703970979189,-0.0120017255971,-0.010892758776,-0.0183488195555,-0.0187499175201,-0.06408804535519999,-0.00641443083631,0.0727070978733,-0.039987760364300004,1.23239946365,1.71351122856,7.690463542939999,-0.387865960598,0.555102407932,0.0394509211183,1130134.0,1521544026.0,83000064.0,,,,,,2361358.5,1521544026.0,984855350.5,,1.5969998955700002,1.996999959645,0.9930000305155,-0.0539999995381,-0.1574999988075,-0.08399999886755001,4.5,5.5,12.5,15.0,21.0,133.5,136.0,146.0,184.0,201.0,4.0,-0.5150001049049999,0.5149999558900002,0.545000076292,-0.03699999954555,0.01200000196699999,0.006500001996749993,2.7430761137592423,0.18648927418011393,7.974845369892463,0.6783325599288275,0.06924966529551622,0.08322552482900972
9,9,44.205168923100004,4418.5,1521544027.0,56226491.5,,2857160.0,1521544026.0,147179184.0,,0.8170954136590001,-0.07038881707105,0.08617814391044999,0.710231126257,0.7037979908449999,-0.01094310141885,-0.010952733916499998,0.008734301954980001,0.02008200398784,-0.0666468856362,0.028768165669999998,-0.01133624668085,0.0012084443460000024,-1.379905164242,1.708611547945,6.893271923065001,-0.401564374566,-0.49493162333949997,-0.002996712923051,1993825.5,1521544026.0,163139341.0,,,,,,2361365.5,1521544027.0,54494257.5,,0.607000005245,1.6420000001800001,0.15800094604505,-0.05150000005965,-0.150499999523,-0.0835000015795,5.5,6.5,9.0,12.0,54.5,135.0,137.5,149.0,165.0,182.0,4.0,-0.9899998903250002,-0.3549999594650002,-0.83499908447045,0.002499999478450005,0.006999999284500014,0.0004999972880500164,1.757719347879428,0.1796517467945788,7.234686550873438,0.6373540923147811,0.07015256431388028,0.030944760179439566
10,10,44.3077330256,4431.5,1521544027.0,186583518.5,,2857174.0,1521544026.0,287240770.0,,0.8214540177390001,-0.0698137501452,0.07414047304339999,0.7103173368394999,0.7038012730215,-0.006276435471795,-0.00855590328542,0.02591097622045,-0.00993832115245,-0.1003254683013,-0.009430717214711,-0.05939536133640001,-0.001840280424873,1.7801507934949996,0.8979007005685,6.22294855118,-0.2723348401486,1.031382083894,0.0136904381215695,1993835.0,1521544026.0,290666801.5,,,,,,2361378.5,1521544027.0,184276645.0,,1.22700001001,0.616999994218,1.8280010223400005,-0.0544999986887,-0.17999999970199998,-0.05700000002980001,7.0,7.5,10.5,22.5,31.5,135.5,139.5,149.5,166.0,174.0,4.0,0.6200000047650001,-1.0250000059620001,1.6700000762949505,-0.0029999986290499964,-0.02950000017899998,0.026500001549699986,2.2864395367264008,0.19651781026966866,6.5345429209926795,1.0668189613201737,0.10409298009904948,0.06016754945572853
11,11,44.4102971282,4440.5,1521544027.0,276243090.5,,2857182.5,1521544026.0,372244772.5,,0.8213748782850001,-0.06985290040714999,0.06751488909615,0.7101838767984999,0.7039306925940001,-0.006277948852285,-0.008998093978614998,-0.02692254349785,-0.003251100400395,-0.07969626807135001,0.005604211346915,0.06576561941890001,-0.0016689040984500007,-1.62692040205,1.357904613015,8.218538761135001,-0.369863316417,-0.12264836579545,0.021678825840349997,1993841.0,1521544026.0,381165816.0,,,,,,2361387.5,1521544027.0,274105576.0,,1.2619999766365,1.2469999894515,1.3579998016350001,-0.05949999950825,-0.1555000022055,-0.06599999964235001,7.0,11.0,15.5,18.0,34.0,132.0,135.5,143.5,180.0,187.0,4.0,0.03499996662649996,0.6299999952335,-0.4700012207050004,-0.0050000008195500096,0.024499997496499976,-0.008999999612549998,2.234237314155161,0.17909913617933074,8.487352608495325,0.3902710160300052,0.08418365724240992,0.06602506435636629
12,12,44.5128612308,4449.5,1521544027.0,366545438.5,,2857193.5,1521544026.0,482236709.5,,0.815710145244,-0.0710272382305,0.0594375267098,0.7092892137055,0.7047141396609999,-0.011694100563649999,-0.01224150461225,-0.0543025755517,-0.0147722233523,-0.06933485817165,-0.02999167185565,0.11230038205665,0.022540216716900003,1.869807898995,0.35605984926,5.621881484985,0.13493525981899998,0.7827988862995001,0.08790044486519999,1130149.5,1521544026.0,480999936.0,,,,,,2361396.5,1521544027.0,363959506.5,,1.14199997187,0.5519999817015,0.6430015563965,-0.0654999986291,-0.148000001907,-0.06300000101325,-0.5,0.5,2.5,3.5,41.0,127.0,135.0,143.5,175.0,184.5,4.0,-0.12000000476649995,-0.69500000775,-0.7149982452384999,-0.0059999991208499965,0.007500000298500009,0.002999998629100012,1.422082598542665,0.17367570501527727,5.935361120152361,0.7991921602103332,0.08929899692606375,0.11840159441667736
13,13,44.615425333299996,4462.5,1521544027.0,497599482.0,,2857207.5,1521544026.0,622238754.0,,0.8148447411499999,-0.07121149884910001,0.049435412568800005,0.708926345706,0.7050879906459999,-0.010628802503700002,-0.0126989227577,0.010733517011785002,-0.00032962203395800005,-0.0694632628455,0.0362727228518,-0.036044016167300005,-0.006475086001305001,3.18527340889,1.082252144815,7.650389671325001,-0.2890971750025,1.299010515215,0.11460128426550001,2857560.5,1521544026.0,620328886.0,,,,,,2361409.0,1521544027.0,490696857.0,,1.256999981405,1.622000013665,0.5630016326885,-0.04099999926985,-0.17800000309949998,-0.06299999915065,-1.0,6.0,8.5,9.5,17.5,123.5,125.5,127.0,173.0,177.0,4.0,0.11500000953499988,1.0700000319635,-0.07999992370800002,0.02449999935925,-0.030000001192499987,1.8626000047872186e-09,2.1278871765183762,0.1932200841955401,8.357373900780953,1.3357166427011635,0.07028841955308548,0.051544235984990354
14,14,44.7179894359,4469.5,1521544027.0,566223501.5,,2857214.0,1521544026.0,687237094.0,,0.8159679493299999,-0.07224666391239999,0.0443197494969,0.7090335318440001,0.7050142757150001,-0.009193048648950002,-0.011908384223,0.0075478235157900005,0.0032867742047199998,-0.083258345033,0.0347686765457,-0.0337278728741,-0.00396310780286,6.55454158783,1.4667927026700005,2.6043672561599998,-0.42429256439199997,2.9994485378299998,0.16919687390299998,2857566.0,1521544026.0,675342976.0,,,,,,2361416.0,1521544027.0,557837522.0,,1.14700008631,0.616999994218,0.793001174927,-0.0489999987185,-0.16099999845000001,-0.0399999991059,-1.5,0.0,1.0,3.5,33.0,118.5,127.0,127.5,171.5,181.0,4.0,-0.10999989509499987,-1.0050000194470001,0.22999954223849994,-0.00799999944865,0.017000004649499998,0.02300000004475,1.5248439442433976,0.1729797655906176,7.203903460219143,3.0340308656022947,0.08366435646159243,0.04860181581801291
15,15,44.8205535385,4482.5,1521544027.0,696795582.0,,2857227.0,1521544026.0,817241342.0,,0.8146094513519999,-0.07491484422139999,0.03509379770780001,0.7085579281680001,0.7054612541490001,-0.010214314979100001,-0.01287022703775,-0.010602745031089999,-0.019258930861650002,-0.053889411990250005,0.00827855652267,0.0249636708521,-0.02310933597078,2.8271382972604995,1.4619176089785,6.5146939754450015,-0.4008240178225,1.2930453121639998,0.150190800428,1993871.0,1521544026.0,816649008.5,,,,,,2361429.0,1521544027.0,687577951.0,,1.6770000577000002,1.0569999918350002,1.513000488285,-0.043500000610949996,-0.186499997973,-0.06350000202655001,-4.0,-2.0,-0.5,5.0,17.0,128.5,132.0,147.0,162.0,182.0,4.0,0.5299999713900001,0.43999999761700015,0.7199993133580002,0.005499998107549996,-0.025499999523,-0.023500002920650014,2.4937418979949877,0.20175913747449828,7.250596640344697,1.3620511550987617,0.058201317380133406,0.035010866449167115
16,16,44.923117641000005,4491.5,1521544027.0,786906480.5,,2857236.5,1521544026.0,912311459.5,,0.8127443002029999,-0.0773237576842,0.028913337605750006,0.7087249960474999,0.7052575653829999,-0.011153111210149998,-0.0140045679413,-0.03256455927055,-0.03412634711435,-0.07353044091479999,-0.01005388775959,0.05909435257525,-0.030882870575550007,4.997218370435,2.1433955431,5.103389024729999,-0.601546704769,2.055268764495,0.17827602475899998,2857589.5,1521544026.0,910391861.5,,,,,,2361438.5,1521544027.0,783609991.5,,1.967000019555,0.80700001046,0.7430000305175001,-0.04449999891225,-0.184000000358,-0.06749999895690001,-6.0,-3.0,0.0,6.5,24.0,127.5,134.0,148.0,175.0,175.0,4.0,0.289999961855,-0.2499999813750001,-0.7700004577675,-0.0009999983012999938,0.0024999976149999987,-0.003999996930349997,2.2521960703191044,0.20097885434571405,7.457272653841255,2.1488998285939527,0.0873600814387164,0.0674312602607764
17,17,45.025681743599996,4501.5,1521544027.0,887026548.0,,2857244.0,1521544026.0,987392314.5,,0.8117117511444999,-0.07971842329925,0.023838685928700004,0.7079798123200001,0.705999022923,-0.011010275635150002,-0.0144458629613,-0.01849114952765,-0.022773545140900003,-0.07353932006944999,0.011264414174535,0.011733312030344998,0.0413603834212,4.229379057885,0.1851062774655,4.903553724289999,0.14180587790926502,1.9012172222150001,0.205195657909,1993884.0,1521544026.0,994742783.5,,,,,,2361448.5,1521544027.0,883526701.0,,1.196999800205,0.8469999983905,0.38800048828149997,-0.032999999821200006,-0.17650000005999994,-0.07950000092389999,-2.0,1.5,2.5,8.0,18.0,134.5,138.5,141.0,157.0,176.0,4.0,-0.7700002193500002,0.03999998793049997,-0.35499954223600005,0.01149999909104999,0.00750000029800002,-0.012000001966999976,1.516826258300864,0.19637082307786785,6.4781749494924625,1.917509085006182,0.0791744186301076,0.0444436604550703
18,18,45.1282458462,4509.5,1521544027.0,966224074.0,,2857252.0,1521544027.0,67391731.0,,0.803596169329,-0.08218893379339999,0.018945926527,0.7090435007960001,0.7046072066150001,-0.017790334156599998,-0.0216680034889,-0.18808765600699998,-0.0294975166577,-0.040324039347900006,0.004974295923810001,0.483641980551,-0.0800300302452,-0.354277253151,-1.69518387318,4.11317157745,1.05789375305,-0.283550828695,0.246053248644,1993888.0,1521544027.0,62740540.0,,,,,,2361456.5,1521544027.0,963506648.5,,9.626999628555,-3.3180000081650007,5.4279994964605,0.931499987842,-1.041500002147,0.2714999951425,101.0,101.5,105.0,108.5,137.0,266.5,276.5,285.5,341.0,357.5,4.0,8.429999828349999,-4.165000006555501,5.0399990081790005,0.9644999876631999,-0.865000002087,0.35099999606640003,11.539125809001153,1.4234207843024582,4.462884847442547,1.122533948869299,0.19461011787805338,0.4902439338862635
19,19,45.2308099487,4522.5,1521544028.0,97770452.0,,2857265.0,1521544027.0,197394553.0,,0.798467728028,-0.0870207621702,0.009449334375305,0.7070426633255,0.706405742039,-0.02339961862315,-0.02267597156185,0.3409030847105,-0.04510006099385,-0.048657947870650003,-0.058508044889800014,-0.914657302911,0.08437237981969999,15.6631450653,2.1682960987050004,3.36033463478,-0.6591894030584999,5.9278969764700005,0.21642323583349998,1993898.5,1521544027.0,200750849.5,,,,,,2361469.5,1521544028.0,94378234.0,,0.7570001006135001,0.23200000375489999,0.3730010986325,-0.1260000020267,-0.166500002146,-0.07149999774990001,218.5,245.5,255.0,264.0,275.0,300.0,313.0,330.5,428.5,458.5,4.0,-8.8699995279415,3.5500000119199013,-5.054998397828,-1.0574999898687,0.875000000001,-0.3429999928924,0.875215958293823,0.2207045556928586,16.165626191582962,5.9683609349431475,0.3472988980082808,0.9204020162742428
20,20,45.3333740513,4533.5,1521544028.0,210494995.0,,2857277.0,1521544027.0,317393478.0,,0.8257980283805,-0.08891133752905,0.0044601558067,0.7072700821760001,0.7069416169160001,0.00016767107636499992,0.0011014195077035,-0.028121819850349998,-0.03745139436975,-0.01454217412672,-0.00014524408571999978,0.1247173863921,-0.07876894100769999,-9.8618481159,-2.2867000699,2.956311494112,1.243196368219,-3.2303907275200006,0.13216347247350002,1130182.5,1521544027.0,314499968.0,,,,,,2361480.5,1521544028.0,203492244.0,,0.14199997186649993,0.5819999977929,-2.8120002746599995,0.09699999913555,-0.177999995649,-0.04299999959765,270.5,281.5,289.0,360.0,393.0,278.0,292.5,296.5,326.0,340.0,4.0,-0.6150001287470002,0.34999999403800003,-3.1850013732924998,0.22300000116225,-0.011499993502999987,0.028499998152250013,2.8751058300745966,0.20722451169863718,10.546317988804423,3.463874802277987,0.04903996859976488,0.1475093001535677
21,21,45.4359381538,4542.5,1521544028.0,298530578.5,,2857284.0,1521544027.0,387393567.0,,0.8198500366779999,-0.0889840824537,0.0037011245657800006,0.708726764354,0.705444864678,-0.00346026931659,-0.006476335731149999,-0.103067969407,0.00184146891589,0.005765063172829999,0.11213103493599999,0.310658112326,-0.12668250110200002,4.3587479591400005,0.8137888908390001,2.9019613266000004,0.07586264610289999,1.8346871137599998,0.19774800539,1993911.5,1521544027.0,392244614.5,,,,,,2361489.5,1521544028.0,293630758.5,,0.9720000147815,1.7620000049450002,-0.09699821472175,-0.0415000002831,-0.16800000518599995,-0.06949999928475,244.0,250.0,257.0,296.0,299.0,336.5,363.5,375.5,540.0,554.0,4.0,0.8300000429150001,1.1800000071521002,2.7150020599382496,-0.13849999941865,0.009999990463000014,-0.02649999968709999,2.014655479187601,0.18648458828164208,5.299275013739344,1.8468720096710696,0.10324550004158631,0.3537375974295499
22,22,45.5385022564,4554.5,1521544028.0,416252016.5,,2857299.0,1521544027.0,537385880.0,,0.8207702887270001,-0.0954588233415,0.00229611040369,0.709172520097,0.70500059089,-0.00651737331656,-0.00245508252581,0.07772949226980001,-0.05680888400769999,-0.0217130778064,-0.178660872123,-0.203571733692,0.07262469099489999,10.771882057200001,3.40847969055,3.7854433059699995,-0.966681540012,4.27379179001,0.112558729947,1993922.0,1521544027.0,543221433.0,,,,,,2361501.0,1521544028.0,409860664.0,,0.23700000047665,0.18199998438100007,0.2980003356935,0.0164999989793,-0.2039999961855,-0.0649999994785,226.0,231.0,238.5,304.0,315.0,233.0,235.5,242.0,317.0,352.5,4.0,-0.73500001430485,-1.580000020564,0.39499855041525,0.0579999992624,-0.03599999099950002,0.004499999806249988,0.4220156331394076,0.21473995516020283,11.915567878948623,4.383199622632322,0.09869438189961975,0.2804202270311866
23,23,45.64106635899999,4565.5,1521544028.0,526878475.5,,2857309.5,1521544027.0,642389306.0,,0.8223642310020001,-0.09676750753665,0.0013647694448399993,0.7091148731350001,0.705067084315,-0.00600613566329,-0.00024316570548225009,0.0006222030312589999,0.010440809831225,0.006453020426835001,0.0374343645815,0.005133965939614999,-0.02291724813302,6.6415059566500005,2.746159434315,4.051459789275,-0.6931321918965001,2.696519851685,0.0960773862898,1993929.5,1521544027.0,648720276.5,,,,,,2361512.0,1521544028.0,519514067.0,,0.536999952793,0.42699999660300003,0.11300086975099999,0.0120000001043,-0.245000004768,-0.0769999995828,226.0,239.0,255.0,288.5,302.5,221.5,222.5,225.0,270.0,298.5,4.0,0.2999999523163499,0.2450000122219999,-0.1849994659425,-0.004499998875000001,-0.0410000085825,-0.012000000104299996,0.6953180157044175,0.2570953174886202,8.250170873079353,2.7858360343226987,0.012289797360943844,0.04419150959042016
24,24,45.7436304615,4574.5,1521544028.0,616354942.0,,2857319.5,1521544027.0,742390832.5,,0.822798907835,-0.0958173826146,0.002128440624395,0.7091491937409999,0.7050411112424999,-0.004929578782484999,-0.000373286085489,-0.0013178766924449995,0.01062582439886,0.009773690584545,0.02618320705675,0.0026392862431,-0.0157740987176,6.9515924453750015,2.46637046337,3.76645219326,-0.6057228446005001,2.818063259125,0.115830808878,1993936.0,1521544027.0,741227457.0,,,,,,2361521.5,1521544028.0,614032405.5,,1.0619999289515,1.33700000048,0.3330001831055,-0.016500000376270002,-0.2364999949935,-0.09349999949335,201.5,207.0,221.0,244.0,264.0,275.5,300.0,307.0,317.5,324.0,4.0,0.5249999761585001,0.9100000038770001,0.2199993133545,-0.02850000048057,0.008500009774499995,-0.016499999910550008,1.7396269635542005,0.25484651763286637,8.282136373743903,2.8847525843972255,0.0144972401088732,0.0306814007829214
25,25,45.846194564099996,4584.5,1521544028.0,716340541.5,,2857329.5,1521544027.0,842394243.5,,0.8218022884524999,-0.0946795482759,0.0015110353972249998,0.7088941409195,0.7052945160595,-0.005047242429089999,-0.001783525628515,0.002897987745745,0.013913034053985002,0.006389363317655,0.017460596622950002,-0.01045935516196,-0.009248988053149998,8.951019763945,2.7682287693000003,4.18955564499,-0.7413863837720001,3.573348760605,0.124670688063,2857682.5,1521544027.0,840472064.5,,,,,,2361531.0,1521544028.0,710115563.0,,1.0670001626,1.0970000021200002,0.392999649048,-0.0270000007004,-0.21799999475499998,-0.12099999934399999,212.0,221.0,227.0,231.5,238.0,204.0,205.5,223.5,245.0,256.5,4.0,0.0050002336484999965,-0.23999999835999986,0.059999465942500003,-0.01050000032413,0.018500000238499983,-0.027499999850649992,1.5799832517440044,0.2507867572106821,10.2633435992459,3.6515774557609912,0.01558187450747919,0.02235652756670194
26,26,45.9487586667,4595.5,1521544028.0,826250433.5,,2857339.0,1521544027.0,937387156.0,,0.8217169560750001,-0.0944061183769,0.0011702462526700002,0.709311826992,0.704874007378,-0.00502282809695,-0.00203396414528,-0.00254341160553,0.021384001373400005,0.00361121698906,-0.00725172695716,-0.0032819757333499996,-0.0015439537684700001,6.84317588806,2.22844958305,4.11889076233,-0.536505818367,2.75731492043,0.142618000507,1993949.0,1521544027.0,932742844.0,,,,,,2361542.0,1521544028.0,820441808.5,,0.8619998812665001,1.6019999936200002,1.087999343875,-0.047499999403949986,-0.1810000017285,-0.06950000301,136.0,145.0,157.0,168.0,174.0,210.0,211.0,214.5,293.0,298.0,4.0,-0.20500028133349998,0.5049999915000001,0.6949996948270001,-0.02049999870354999,0.036999993026500005,0.051499996333999994,2.1197146853136557,0.19961838840017285,8.292183360920626,2.8126435888032733,0.02183541493708772,0.008108187332238446
27,27,46.0513227692,4605.5,1521544028.0,926259994.0,,2857348.0,1521544028.0,27389269.5,,0.8225570293410001,-0.09378854340735003,0.0021087803223250002,0.708946498677,0.7052497426450001,-0.00390279538704,-0.0015084349516200002,0.01103293810525,-0.01023128357046,0.006133060310295,-0.002147493658415,-0.020643840366750002,-0.0022738433083899995,6.7393825054150005,2.9498252868650003,3.948070526125,-0.8900350928305,2.714532256125,0.1203014031055,2857701.0,1521544028.0,25470306.0,,,,,,2361552.5,1521544028.0,924814908.5,,0.16200007200250005,1.5670000120985002,0.95299911499,-0.02649999968705,-0.17499999702,-0.0944999977946,127.5,130.5,140.5,143.0,146.5,247.5,284.0,289.5,347.0,364.0,4.0,-0.6999998092640001,-0.03499998152150008,-0.13500022888499996,0.020999999716899996,0.006000004708500012,-0.024999994784599997,1.841179071795364,0.20064271360703098,8.349132090018632,2.8592516964412265,0.016248671191920833,0.02087942138786177
28,28,46.153886871800005,4615.5,1521544029.0,26317953.5,,2857357.0,1521544028.0,117389310.0,,0.8219180031380001,-0.0934303259202,0.0015730909607,0.708472979659,0.705721229006,-0.00454449196274,-0.0017121961578699999,-0.00201731627188,0.005658906806469999,0.000261737922312,0.00292324818219,0.00171785489203,0.0076899574336,8.65119171143,3.0952229499799997,4.00356769562,-0.895406067371,3.4591114520999997,0.119454950094,1993962.5,1521544028.0,128751937.0,,,,,,2361562.5,1521544029.0,24588092.5,,1.7219998955699998,2.36199999899,0.8080005645755001,-0.06000000238415,-0.172000005841,-0.08600000292064999,97.5,100.5,107.0,113.0,115.0,304.0,318.5,346.5,405.0,431.0,4.0,1.5599998235674997,0.7949999868914999,-0.14499855041449994,-0.033500002697100004,0.002999991178999989,0.008499994873950006,3.0326873475395013,0.20144478846014818,10.022578382402907,3.5751186761611327,0.006013426471245866,0.008404275738891987
29,29,46.256450974399996,4622.5,1521544029.0,97125530.0,,2857364.5,1521544028.0,192390797.0,,0.822370296762,-0.0925713708878,0.00208140163236,0.7083461106385001,0.705853702919,-0.0037003083327,-0.0015825574193299998,-0.0009340936667550006,0.01017139341703,0.0001492583108149998,0.0020285797777400017,-0.00408910160019,-0.005410907142275,7.7503387928,2.731580734255,4.255145549775,-0.728130012751,3.145787358285,0.1330980174245,2857718.0,1521544028.0,195475458.0,,,,,,2361569.5,1521544029.0,94934315.5,,0.911999952795,1.7470000192550001,0.917999267578,-0.0369999986142,-0.17350000143049998,-0.08300000056625,97.5,100.0,104.5,110.0,115.0,194.0,195.5,209.5,252.0,261.0,4.0,-0.8099999427749999,-0.6149999797350001,0.10999870300249992,0.023000003769950005,-0.0014999955894999806,0.003000002354399997,2.174045914061798,0.1958577302223014,9.253947717634006,3.2316971549414744,0.010215285265993327,0.007079110389989317
30,30,46.35901507689999,4633.5,1521544029.0,206216931.0,,2857376.0,1521544028.0,307392100.5,,0.8221148487359999,-0.0919299691115,0.00174278713707,0.7079000371024999,0.7062997865449999,-0.0039786163005350005,-0.001464800372825,0.00781557613639,0.004693210395889,0.006136810339380001,-0.0051045435662250005,-0.020877749583814997,0.01481782425895,6.991996526715001,2.7058613300300003,3.9682744741400002,-0.7718499898910001,2.8231570720650003,0.1157571673395,1993976.0,1521544028.0,311245287.0,,,,,,2361580.0,1521544029.0,199899762.5,,2.112000000475,0.7919999986889998,1.27799987793,-0.03800000064075,-0.16850000619900002,-0.05700000002980001,77.0,80.0,80.0,89.5,93.5,216.0,231.0,234.0,292.0,301.0,4.0,1.20000004768,-0.955000020566,0.36000061035199993,-0.001000002026550005,0.004999995231499965,0.026000000536449984,2.5925068346908695,0.18189351868925194,8.482741494885804,2.9290558175350343,0.01098953571836912,0.026105645145697957
31,31,46.4615791795,4645.5,1521544029.0,326372980.5,,2857388.0,1521544028.0,427388288.0,,0.8220265056375,-0.09138673504025,0.001796531096175,0.7078356647040001,0.7063650112284999,-0.00382156592527,-0.0015855978758850002,0.00969102778723,0.0001651676932249999,0.002566681593725,0.00901110366786,-0.021520622773389998,-0.022544720956450003,7.953607797625001,2.881212353705,4.14353084564,-0.8125416636464999,3.21210002899,0.131585456431,2857740.0,1521544028.0,415484839.0,,,,,,2361592.0,1521544029.0,320050230.0,,1.28699995279,1.82699997276,1.11300086975,-0.0579999983311,-0.16400000453,-0.0599999986589,63.0,64.5,68.0,80.5,89.0,138.5,152.0,170.0,188.0,198.5,-0.5,-0.8250000476850001,1.034999974071,-0.1649990081799999,-0.01999999769035,0.0045000016690000255,-0.002999998629099991,2.496611446543246,0.18401087231822913,9.41966610312455,3.315889817792976,0.010026522544896409,0.032443822784494245
32,32,46.5641432821,4657.5,1521544029.0,446272015.0,,2857401.5,1521544028.0,562391106.0,,0.8220668708454999,-0.09026017672685,0.001901658203465,0.7072220157695,0.7069811925195,-0.00360038364849,-0.001253940106555,0.00357284727782,-0.01569285383105,0.0011010378544199996,-0.00747056986547,-0.004662659009380001,-0.023200758332799998,6.923207044600001,2.097370386125,4.174984693525,-0.4129998236895,2.866688489915,0.144953660667,2857755.0,1521544028.0,565502040.0,,,,,,2361604.0,1521544029.0,440330346.5,,0.27699996233,0.001999984681600002,0.933000564576,-0.049499999731800005,-0.1639999970795,-0.0540000014007,59.0,64.0,68.0,76.0,79.0,132.0,135.0,139.0,174.5,178.5,-1.0,-1.00999999046,-1.8249999880783998,-0.180000305174,0.008499998599299993,7.450499994732241e-09,0.005999997258200003,0.9732538376850527,0.1796169512234294,8.35226050301122,2.899910915238512,0.016132054530970077,0.024815821372052335
33,33,46.6667073846,4665.5,1521544029.0,528017401.0,,2857410.5,1521544028.0,652390890.5,,0.8223825786835,-0.0905292488841,0.00199311702287,0.7074641044345,0.7067398258725001,-0.003558394689985001,-0.0008281209662595,0.002882169696955001,0.003280785708449998,0.008837749295870001,0.004573837869085,-0.00551948945285,-0.002589340924550001,6.239546298984998,2.670885324475,4.12049293518,-0.7500791549679999,2.566509485245,0.124853372574,2857763.5,1521544028.0,650466267.0,,,,,,2361612.0,1521544029.0,519818504.0,,0.816999924183,0.116999994218,0.822999954224,-0.0489999987185,-0.165000006557,-0.0619999989867,58.0,59.0,64.5,71.0,96.0,122.0,122.0,130.0,144.0,157.0,-1.0,0.539999961853,0.1150000095364,-0.11000061035200004,0.0005000010133000068,-0.001000009477500008,-0.007999997586,1.1655499986764815,0.182948085293544,7.94002698122252,2.67678501961087,0.009857802475372802,0.007621643070647422
34,34,46.7692714872,4678.5,1521544029.0,656299471.5,,2857423.5,1521544028.0,782387548.5,,0.8217566974574999,-0.08911377572785001,0.0016180223515699999,0.7066993921364999,0.7075035659869999,-0.003592428687585,-0.001287711227715,-0.00497476772816,0.012318701869385,-0.0015264825383350007,0.006758402081015499,0.0058952485343050035,0.0200966251221,6.796067237855,2.430605888365,4.26228237152,-0.5983509123324999,2.835166692735,0.125163644552,1994008.5,1521544028.0,773220587.0,,,,,,2361625.0,1521544029.0,650223791.0,,-0.602999913692,0.7469999894499999,1.1029987335200002,-0.0710000023246,-0.146999999881,-0.0540000014007,63.5,64.0,70.0,71.5,84.0,119.0,125.0,129.5,150.0,156.0,-1.0,-1.4199998378749998,0.6299999952319999,0.27999877929600026,-0.02200000360610001,0.01800000667600002,0.007999997586,1.4622667630420874,0.1719476677549969,8.382208891489812,2.9003206594789814,0.013372691525484814,0.0220069147148827
35,35,46.87183558970001,4688.5,1521544029.0,756291031.5,,2857433.0,1521544028.0,877394237.5,,0.8222756472924999,-0.08823596289664999,0.002218428195475,0.7064857794805001,0.707720318962,-0.0030036253075,-0.0007944811113730001,0.0054373803306049994,0.0020764954809450002,0.005223081787775001,-0.00800477345865,-0.014462300750334996,0.020295504006150003,6.643335103989999,2.2273757457750003,4.228556632995,-0.515403598547,2.81441473961,0.126437250525,1994015.0,1521544028.0,869244471.0,,,,,,2361635.0,1521544029.0,750037719.0,,1.3719999909419998,1.15700000264,0.8480014801025,-0.06299999915065001,-0.14000000059599998,-0.08300000056625001,67.5,68.5,69.0,81.0,88.0,118.0,119.0,126.0,141.0,142.0,-1.0,1.974999904634,0.4100000131900001,-0.25499725341750024,0.008000003173949999,0.0069999992850000034,-0.028999999165550013,1.9849784612206345,0.17452220533175541,8.183874095757984,2.8640107496742297,0.007820327467812459,0.026175217744674035
36,36,46.9743996923,4698.5,1521544029.0,856446504.0,,2857443.5,1521544028.0,982521670.5,,0.8216957672190001,-0.08839877250645001,0.0016443593479050001,0.7064647033220001,0.7077384584799999,-0.0034906049502150004,-0.0012104378695899998,0.005062713056880001,-0.007873513125259999,0.004561929575549998,-0.00467609912165,-0.00834986772995,0.0016140132940200007,6.340159654614999,2.247956752775,4.278059244155,-0.5095564723015,2.709070801735,0.14367739111199998,1994022.5,1521544028.0,975322111.0,,,,,,2361645.0,1521544029.0,850307875.0,,1.40699983835,-0.0230000510812,0.583002090454,-0.0610000006855,-0.138999998569,-0.0619999989867,58.0,58.5,63.0,66.0,76.0,116.5,127.5,138.5,147.0,160.0,-1.0,0.03499984740800022,-1.1800000537211999,-0.2649993896485,0.0019999984651500047,0.0010000020269999854,0.02100000157955001,1.523177266420556,0.16396950801952112,7.971996293580082,2.760318025154749,0.010413187498658731,0.009705216793891292
37,37,47.076963794899996,4707.5,1521544029.0,946245550.5,,2857450.0,1521544029.0,46701448.0,,0.821494668615,-0.088979490602,0.00140396379479,0.70643925043,0.707761268069,-0.00405941999205,-0.00104593632687,0.00557337707668,-0.00167541197873,0.0070548799136999985,0.0162085843585,-0.0081809148461,0.0015903966234400001,6.880143165589999,2.61857271194,4.3492655754100005,-0.7006376981739999,2.92637300491,0.11790665984200001,2857803.0,1521544029.0,44785871.0,,,,,,2361654.0,1521544029.0,940527771.0,,0.947000038624,1.01700000204,0.30299949645999996,-0.0610000006855,-0.152999997139,-0.059000000357599995,60.0,64.0,69.5,74.0,86.0,108.0,116.0,125.5,153.0,168.0,-1.0,-0.45999979972599997,1.0400000531212,-0.280002593994,0.0,-0.013999998570000005,0.002999998629099998,1.4222892716174973,0.17495999328521308,8.550403737378607,3.011387409219153,0.00914553814349171,0.018225666957497045
38,38,47.1795278974,4715.5,1521544030.0,26234507.0,,2857458.0,1521544029.0,126706492.5,,0.8211109566800001,-0.08870192646434999,0.001693371683575,0.7064023969284999,0.7077967186345001,-0.0041485737892250005,-0.001450564427615,0.0004560866269800006,-0.00360569602359,0.013204386026835,0.004092130059984999,0.0052261471250150005,-0.00301121968163,3.89645278454,1.7912452816950002,6.035551786419999,-0.4382188767195,1.6914387941350002,0.117940969765,2857810.0,1521544029.0,114772481.0,,,,,,2361662.0,1521544030.0,20009676.0,,1.9170000672299998,0.16700000613920002,0.7080001831055001,-0.06799999997020001,-0.141000002623,-0.07000000029805001,62.0,67.0,71.0,73.5,125.0,100.5,116.0,118.0,150.0,156.5,-1.0,0.970000028606,-0.8499999959008001,0.4050006866455,-0.006999999284700006,0.011999994516000008,-0.010999999940450006,2.050376189650996,0.17147886393768827,7.403971186323037,1.751259846672467,0.01369543242002669,0.007288730079456316
39,39,47.282092,4728.5,1521544030.0,156224012.0,,2857471.0,1521544029.0,256707812.5,,0.8225366478895,-0.08818475869164999,0.00373838971613,0.7060458105724999,0.7081609767300001,-0.002620035210515,-0.0004449923850145001,0.0053537501692650005,0.0205731882691,0.01855006242427,0.012289234876659998,-0.025127497262465,0.028057336951,1.0501795709125,1.0186600387105,5.758300065994999,-0.122730176896,0.719791829586,0.122531529516,1994042.0,1521544029.0,261879174.5,,,,,,2361675.0,1521544030.0,150523928.0,,1.8320000290855003,1.477000014113,0.7830009460449999,-0.06350000202655001,-0.14999999851,-0.08200000226500001,68.0,70.0,71.0,72.0,74.0,102.0,107.0,119.0,152.0,156.0,-1.0,-0.08500003814449975,1.3100000079738,0.07500076293949988,0.004499997943649997,-0.008999995887000012,-0.01200000196695,2.480089439872369,0.18236296274691272,5.941259551279144,0.7403897284438886,0.028213888997709134,0.03961856344330083
