,Unnamed: 0,Unnamed: 0.1,.header.seq,.header.stamp.secs,.header.stamp.nsecs,.header.frame_id,.endpoint_state.header.seq,.endpoint_state.header.stamp.secs,.endpoint_state.header.stamp.nsecs,.endpoint_state.header.frame_id,.endpoint_state.pose.position.x,.endpoint_state.pose.position.y,.endpoint_state.pose.position.z,.endpoint_state.pose.orientation.x,.endpoint_state.pose.orientation.y,.endpoint_state.pose.orientation.z,.endpoint_state.pose.orientation.w,.endpoint_state.twist.linear.x,.endpoint_state.twist.linear.y,.endpoint_state.twist.linear.z,.endpoint_state.twist.angular.x,.endpoint_state.twist.angular.y,.endpoint_state.twist.angular.z,.endpoint_state.wrench.force.x,.endpoint_state.wrench.force.y,.endpoint_state.wrench.force.z,.endpoint_state.wrench.torque.x,.endpoint_state.wrench.torque.y,.endpoint_state.wrench.torque.z,.joint_state.header.seq,.joint_state.header.stamp.secs,.joint_state.header.stamp.nsecs,.joint_state.header.frame_id,.joint_state.name,.joint_state.position,.joint_state.velocity,.joint_state.effort,.wrench_stamped.header.seq,.wrench_stamped.header.stamp.secs,.wrench_stamped.header.stamp.nsecs,.wrench_stamped.header.frame_id,.wrench_stamped.wrench.force.x,.wrench_stamped.wrench.force.y,.wrench_stamped.wrench.force.z,.wrench_stamped.wrench.torque.x,.wrench_stamped.wrench.torque.y,.wrench_stamped.wrench.torque.z,.tactile_values.tactile_values_0,.tactile_values.tactile_values_1,.tactile_values.tactile_values_2,.tactile_values.tactile_values_3,.tactile_values.tactile_values_4,.tactile_values.tactile_values_5,.tactile_values.tactile_values_6,.tactile_values.tactile_values_7,.tactile_values.tactile_values_8,.tactile_values.tactile_values_9,.tag,.delta_wrench.force.x,.delta_wrench.force.y,.delta_wrench.force.z,.delta_wrench.torque.x,.delta_wrench.torque.y,.delta_wrench.torque.z,.wrench_stamped.wrench.force.magnitude,.wrench_stamped.wrench.torque.magnitude,.endpoint_state.wrench.force.magnitude,.endpoint_state.wrench.torque.magnitude,.endpoint_state.twist.linear.magnitude,.endpoint_state.twist.angular.magnitude
0,0,52.920325,5291.5,1521532631.0,888311981.5,,1717680.5,1521532631.0,351961841.0,,0.7194807106100001,-0.15081402671400002,0.003929410601185,-0.0715620931346,0.9962776549605,0.008703607220045,0.047258354889950005,-0.005421485651165001,-0.014005662326945,-0.011010173235135,-0.006863904145085,0.01927558703027,-0.01820063305992,1.14170110226,3.094575762745,6.746189355855,-0.2053251713515,0.8597452640534999,0.19108133018,1718033.0,1521532631.0,344993382.0,,,,,,1223046.0,1521532631.0,885454071.0,,-1.806999999284,-2.63200008571,0.345998764038,0.302000001073,-0.2299999967215,-0.1134999990465,342.5,374.0,598.5,622.5,730.5,585.5,588.5,672.5,859.5,901.0,5.0,0.0,0.0,0.0,0.0,0.0,0.0,3.2112907986206496,0.396214902450094,7.509390879646751,0.9043408758849195,0.01862189567551804,0.02738474902671706
1,1,53.022889102600004,5299.5,1521532631.0,968564986.5,,1717688.5,1521532631.0,431944528.0,,0.7193840585355,-0.14955457892149998,0.00420900826797,-0.072322634818,0.9962106747505001,0.009095551490985,0.047443415912800005,-0.004280523855895001,0.0201019037696,0.0013063655776600002,0.013020730615120001,0.001999712537149999,0.017996759897195,1.146891117095,3.055225849155,6.79953837395,-0.1308794282377,0.8823211193085,0.208315767348,1718041.5,1521532631.0,430019722.0,,,,,,1223054.0,1521532631.0,963624941.0,,-1.08700000048,-3.4819999903400003,0.4109992980960001,0.310000002384,-0.231000006199,-0.125,334.0,408.5,599.0,604.0,754.5,576.5,583.0,669.0,863.0,905.5,5.0,0.719999998804,-0.8499999046300006,0.0650005340580001,0.008000001311000038,-0.0010000094774999801,-0.0115000009535,3.670805546035732,0.40630777046718913,7.542114181224978,0.9159778606709976,0.020594077077296758,0.02230295143652616
2,2,53.1254532051,5309.5,1521532632.0,68343519.5,,1717696.5,1521532631.0,511938269.0,,0.7192699304915,-0.15011586567699994,0.0040328107524400005,-0.07168156148815,0.996270090121,0.0090780271812,0.04717226936445,0.00376899229787,0.0057838554474535,0.0071570618287700016,-0.006545743206625,-0.005895422441300001,0.001532949349449999,1.0037592649459999,2.889729976655,6.905606269834999,-0.071976467967,0.8377676010134999,0.2674438655375,1198714.0,1521532631.0,508500642.0,,,,,,1223063.5,1521532632.0,59852071.5,,-0.3220000147815,-2.246999976035,-0.48900032043499997,0.287000000477,-0.236500002444,-0.137000001967,334.0,390.0,612.5,623.0,710.5,588.0,590.5,670.0,851.0,898.0,5.0,0.7649999856985,1.2350000143050002,-0.8999996185310002,-0.023000001907000026,-0.005499996245,-0.01200000196699999,2.322028039280773,0.39632089519575925,7.5528451562260885,0.8823612562111733,0.00994393386941393,0.008941627010585948
3,3,53.22801730770001,5322.5,1521532632.0,198386430.5,,1717709.0,1521532631.0,636946338.0,,0.7189671799330001,-0.149729765199,0.00400558769706,-0.07174815142810001,0.9962692589759999,0.00901417992385,0.047101071607,-0.00096666711511,0.00402267725333,-0.00627030851378,-0.00537866534216,-0.013221941720799999,0.0144336780178,1.0812388658499998,2.83825588226,7.1650218963600025,-0.022376410663099998,0.8919827342030001,0.25278916954999997,679385.0,1521532631.0,646000128.0,,,,,,1223076.5,1521532632.0,190625648.0,,-2.53200002313,-2.512000080945,0.7609996795655001,0.267000004649,-0.218499995768,-0.132500000298,319.5,371.0,590.0,592.0,760.0,587.0,595.0,699.0,826.5,898.0,5.0,-2.2100000083485,-0.2650001049099999,1.2500000000005,-0.019999995827999998,0.01800000667599999,0.004500001668999998,3.646956133009664,0.3695774623974682,7.782179175110682,0.9273814027206941,0.007512199841183382,0.020299774502508833
4,4,53.3305814103,5330.5,1521532632.0,278329014.0,,1717717.0,1521532631.0,716946219.5,,0.718907933075,-0.14897674767500002,0.004362051129005,-0.07240215144965001,0.9962225833155,0.009159290710765,0.04705861577915,-0.00520799008275,0.005179882784819999,-0.003976010064867001,0.0029484532440100003,0.015729485749200002,-0.002172466391449999,1.0013953447345,2.96709227562,6.997507810589999,-0.11608484759910001,0.819805920124,0.225117586553,1718070.0,1521532631.0,715037355.0,,,,,,1223084.5,1521532632.0,270034894.0,,-1.026999998094,-2.34200000465,0.5009994506834999,0.2870000004765,-0.2174999937415,-0.122499998659,317.5,393.0,601.5,624.0,737.5,592.5,600.0,677.0,858.5,895.5,5.0,1.5050000250359996,0.17000007629500002,-0.2600002288820001,0.01999999582750001,0.0010000020264999963,0.010000001638999986,2.6058959049530057,0.3803702107454243,7.666260155236571,0.858041587737979,0.008352424941441894,0.016150223177664725
5,5,53.433145512799996,5342.5,1521532632.0,398314952.5,,1717729.0,1521532631.0,836950081.5,,0.7188380542349999,-0.1487578162585,0.004231600901035,-0.07255932864600001,0.996212823073,0.009231288146465,0.047005675288550014,-0.009497368435475,0.009557463069749996,-0.001948072749075,-0.006719704299010001,0.008458914126404999,0.025438021215945,0.782600581646,2.49417471886,7.655739784239999,0.13295934721835,0.7815877199174999,0.2732479423285,1718082.0,1521532631.0,835030612.5,,,,,,1223096.5,1521532632.0,392157811.0,,-2.157000006365,-3.1370000809400005,1.0859985351549999,0.29349999129750004,-0.2154999971390001,-0.1424999982115,326.5,370.0,592.0,613.5,751.5,589.5,599.5,671.5,872.0,897.5,5.0,-1.130000008271,-0.7950000762900005,0.5849990844715002,0.006499990821000057,0.0019999966024999427,-0.019999999552499998,3.9588901669072594,0.3910099015994597,8.089729466588368,0.8385833231857913,0.013613966907719459,0.027636942259354515
6,6,53.5357096154,5352.5,1521532632.0,498381018.0,,1717739.0,1521532631.0,936943361.0,,0.7182262333314999,-0.1475072816645,0.00404088635742,-0.07237174041069999,0.996235217792,0.009954129167425,0.04667539664775,-0.008427468769275,-0.00542549303121,-0.006034969348965,-0.00011263604199000016,0.017624905266200003,-0.007328545300775002,0.7326098382474999,2.5347572565050003,8.01473927498,-0.005698323249850001,0.7819444537165,0.2671465873715,1718092.0,1521532631.0,935040039.5,,,,,,1223106.5,1521532632.0,492206589.0,,-1.1070000410095,-2.146999952195,1.311000823975,0.284000009298,-0.225499995053,-0.153500005603,319.5,413.0,589.0,605.0,731.5,598.0,602.0,665.5,863.0,897.5,5.0,1.0499999653554999,0.9900001287450008,0.22500228881999984,-0.009499981999500029,-0.009999997913999942,-0.011000007391500005,2.7484142784492107,0.39378738523508866,8.43787634244593,0.8263394573237404,0.01169953244928022,0.01908815205162593
7,7,53.6382737179,5359.5,1521532632.0,568339943.5,,1717748.5,1521532632.0,31939272.5,,0.7180334476450001,-0.1479000626955,0.003899714758395,-0.07230642655385,0.9962448369654999,0.009822220430265,0.0465996710949,-0.0013430621140099995,0.00611422941015,0.002327551281195,0.007032111664970001,-0.00265551236217,0.009059696739695,0.522412404418,2.5945005416900004,7.819482564924999,-0.005436550825849998,0.7045652568340001,0.2598021179435,1718101.0,1521532632.0,25033181.0,,,,,,1223113.5,1521532632.0,561435497.5,,-0.7070000052455001,-1.006999966501,1.166000366215,0.2789999991655,-0.2390000000595,-0.1405000016095,325.0,381.0,597.5,606.0,713.5,593.5,597.0,673.5,861.5,900.0,5.0,0.4000000357639999,1.139999985694,-0.14500045775999992,-0.00500001013250001,-0.013500005006500004,0.013000003993500014,1.6951267781389292,0.39332206906689016,8.255219885883449,0.7509586524638828,0.006678705869300182,0.011772019596886724
8,8,53.74083782050001,5373.5,1521532632.0,708389520.5,,1717762.5,1521532632.0,171959276.5,,0.714897500898,-0.14769125361000002,0.004257283547985,-0.0710695986103,0.9965091428285,0.009602298628610001,0.0427227868088,-0.0799920079311,-0.020549864403685,0.01393017224135,-0.03198547705298,0.2491409158785,-0.16670385701899998,-2.4628048539150003,1.29647099972,5.0203638076749995,0.811607927084,-1.854393780235,0.482538059354,1198760.5,1521532632.0,171009132.0,,,,,,1223127.5,1521532632.0,702306100.0,,0.5179999589905,-1.4169999480230502,-1.849000930785,0.253999993205,-0.07949999906135,0.06399999838326001,343.5,379.0,591.0,621.5,637.0,554.0,614.0,644.0,780.0,928.0,5.0,1.224999964236,-0.4099999815220503,-3.015001297,-0.025000005960500005,0.15950000099815,0.20449999999276,2.3864235274266137,0.2737375498391698,5.7402349745454915,2.080943703756775,0.08375600252240244,0.3014704672967084
9,9,53.843401923100004,5380.5,1521532632.0,778330564.0,,1717769.5,1521532632.0,241944531.0,,0.7017503327,-0.1469226736765,0.0033401480906700004,-0.06716639102505001,0.9972879778965,0.010898232503349998,0.02802634047665,-0.2304006586345,0.017186121380165,-0.01123528961458,-0.014866436346037,0.495606003401,-0.06871470442387051,5.440551042555,3.315499186515,1.382527410985,0.09216273576020001,-0.39400672167555,0.503454595804,679408.0,1521532632.0,228000000.0,,,,,,1223134.5,1521532632.0,771619914.5,,0.977999937535,0.09299999028449996,-7.573999404905001,0.254500001669,0.6175000071529999,0.0219999998808,338.0,381.0,599.5,611.0,660.0,541.0,584.0,633.0,672.0,809.0,5.0,0.4599999785445,1.5099999383075502,-5.72499847412,0.0005000084640000013,0.6970000062143499,-0.041999998502460015,7.637447208427217,0.6682518310324567,6.519471799505908,0.6459116012462447,0.23131376526274575,0.500567709846333
10,10,53.9459660256,5393.5,1521532632.0,908304571.5,,1717782.5,1521532632.0,371941161.5,,0.6824127796864999,-0.141406718854,0.0016427189181450002,-0.0765233774488,0.996955303439,0.00982142945645,0.011190070247250002,-0.153776811796,0.08353938936025,-0.01592044513535,-0.024371205142900004,0.2437918985125,0.389588656172,11.112987995150002,3.3597414493550004,-1.1749063730245,-0.431716859341,0.6467571109535,0.372822344303,1198774.5,1521532632.0,372521800.0,,,,,,1223147.5,1521532632.0,900668644.0,,6.70299996138,5.862999799845,-8.67399978638,-0.26250000298,1.3630000352899998,0.1345000043515,349.0,404.0,500.0,611.5,642.0,467.0,490.5,503.5,519.0,689.5,5.0,5.725000023844999,5.769999809560501,-1.1000003814749988,-0.517000004649,0.7455000281369999,0.1125000044707,12.43154243967188,1.3945485287130004,11.669051794050606,0.8623634428822683,0.1757259172522185,0.46022577767694767
11,11,54.0485301282,5401.5,1521532632.0,988351463.5,,1717790.0,1521532632.0,446944609.0,,0.6792804276180001,-0.133278337376,0.00158383437473,-0.0801891996676,0.9966559403090001,0.011829684147700002,0.0103289629748,-0.0372515744421,0.136723320162,0.0017923263100999996,0.10877631737400001,0.0203478071744,0.0838505070003,9.510656356810001,1.6203570365900002,-1.12228751183,0.33677369356200004,0.160916462541,0.43440926075,679416.0,1521532632.0,430000128.0,,,,,,1223155.5,1521532632.0,982391058.0,,6.33300031424,5.217999818919999,-6.329000473019999,-0.111500002444,1.25499999523,0.08449999988079998,357.0,411.0,488.0,594.0,615.0,468.0,473.5,510.5,533.0,660.5,5.0,-0.3699996471399993,-0.6449999809250011,2.3449993133600007,0.151000000536,-0.10800004005999986,-0.05000000447070002,10.362946592446594,1.2627737281683393,9.712758131579658,0.5727320790888725,0.141718589141079,0.13884245749216304
12,12,54.1510942308,5411.5,1521532633.0,88349938.0,,1717797.5,1521532632.0,521943259.0,,0.6822584898890001,-0.1253885900055,0.0012704688607699998,-0.08612840499160003,0.9960603716930001,0.013522743176850002,0.0161797038989,0.0879664311692,0.105720599661,-0.0010268127249500004,0.06976118777615001,-0.2761265219655,0.16605168838899995,7.8082447052,0.17516210675250002,1.921486616135,1.385606110094,0.5194630920885001,0.7782833576204999,1718151.0,1521532632.0,525033476.0,,,,,,1223165.5,1521532633.0,82692666.5,,4.96800006628,2.0129999846245,-6.823999404905001,0.05849999887885,1.155499994755,0.32800000906,413.0,440.0,595.0,648.0,818.5,409.5,450.5,457.0,462.0,924.0,5.0,-1.3650002479600003,-3.2049998342954997,-0.4949989318850019,0.17000000132284998,-0.09950000047499996,0.2435000091792,8.677566564123847,1.2025749430663315,8.043101264805244,1.6719662619565656,0.13753542289061083,0.32967505618341914
13,13,54.2536583333,5422.5,1521532633.0,198328494.5,,1717809.0,1521532632.0,636948302.0,,0.688164164005,-0.118502647052,0.00141889692782,-0.0882755455201,0.9956417437200001,0.0176227855704,0.0243799847187,0.012055731043499999,0.030355936144,-0.0182710160914,0.0526060446488,-0.0574910294032,0.0410848598127,7.100760936739999,-1.3531872034099999,4.106069087980003,1.54923260212,0.845781862736,0.8670034408570001,1198793.0,1521532632.0,641520115.0,,,,,,1223176.5,1521532633.0,191299770.5,,4.442999970914999,4.858000162245,-1.0240001678455,-0.09100000187755,0.7634999752045001,0.25600000470850004,457.5,461.0,604.0,704.0,843.0,402.0,413.5,432.0,475.0,1138.5,5.0,-0.5250000953650007,2.8450001776205003,5.7999992370595015,-0.1495000007564,-0.3920000195504999,-0.07200000435149995,6.662506334831566,0.8104006508448388,8.313346188116443,1.9665105088106094,0.03742530613347088,0.08809415475081396
14,14,54.3562224359,5431.5,1521532633.0,289030074.5,,1717818.0,1521532632.0,726952392.0,,0.6921879736395,-0.118012835653,0.002143988996095,-0.08752630409264997,0.9955662496359999,0.01905730909565,0.028700408684999998,0.05161711438359999,-0.002463745620799998,0.006485295840144999,0.041746270255700005,-0.0954565107347,-0.01964790367011,6.2855148315400005,0.21580424904845005,4.842794179915,0.442281931639,0.8127632141134999,0.566159546375,1198799.5,1521532632.0,729517501.0,,,,,,1223185.5,1521532633.0,281191192.5,,3.172999989985,4.162999990585,-0.41400146484365,-0.196500003338,0.5755000114445,0.1225000023845,402.0,436.0,581.0,645.5,790.5,407.0,422.0,435.0,542.0,1063.0,5.0,-1.269999980929999,-0.6950001716600003,0.6099987030018499,-0.10550000146045,-0.18799996376000008,-0.13350000232400006,5.250704245236843,0.6203376218388307,7.937690069562762,1.0847737004656675,0.05208124040293067,0.10602234028984533
15,15,54.45878653850001,5445.5,1521532633.0,428408979.5,,1717832.0,1521532632.0,866944963.0,,0.7029135233170001,-0.1187236916835,0.0021686831773499995,-0.08805632372335001,0.9951300139475,0.02013818952485,0.039446079647900006,0.10271763002499999,0.001692984256335,0.01563875482945,0.0500417796639,-0.189724957463,-0.0245275129659,2.859648704525,-0.7525513917190001,7.99506855011,0.9573720395545,0.6557784974575,0.5522989630699999,679433.5,1521532632.0,872999936.0,,,,,,1223199.5,1521532633.0,421958516.5,,1.4479999661449998,3.3030000954850003,2.2159996032700002,-0.0975000001488,0.215999998152,0.008499999996275,431.5,438.0,624.0,691.0,807.5,417.0,436.0,492.5,606.0,992.5,5.0,-1.7250000238400005,-0.8599998950999996,2.63000106811365,0.0990000031892,-0.35950001329250003,-0.11400000238822501,4.232867559282081,0.23713814376986397,8.52437947486078,1.2851617814332001,0.10391510172376593,0.19774058280626125
16,16,54.561350641000004,5451.5,1521532633.0,488325953.0,,1717838.0,1521532632.0,926939490.0,,0.7071970774420001,-0.118532507039,0.00280778209414,-0.08712162722539997,0.995043264833,0.0211444706848,0.0430306232831,0.060624645891000015,-0.017678181253099997,-0.00464725778194,0.0418477745178,-0.0716477696104,-0.0772717040996,0.999998569489,-1.2625027895,9.83224582672,0.8576814532279999,0.451727807522,0.525796949863,679436.0,1521532632.0,936000000.0,,,,,,1223205.5,1521532633.0,481308174.0,,-0.992000001669,1.467999997735,4.660999298095,-0.05799999833110001,0.004499999864490001,0.029500000178850006,435.5,444.0,630.0,705.0,788.0,487.5,500.5,568.0,641.5,1150.5,5.0,-2.439999967814,-1.8350000977500005,2.444999694825,0.03950000181769999,-0.21149999828751,0.02100000018257501,4.98638169953959,0.06522652693299073,9.963281007254999,1.1027864343494442,0.0633203189088495,0.11338234155587779
17,17,54.663914743599996,5465.5,1521532633.0,628337502.0,,1717854.5,1521532633.0,91945004.0,,0.7114592762395,-0.122912880182,0.002849316025195,-0.0813004011906,0.9954337676430001,0.0221596127403,0.044839858394,0.006465432976770001,-0.03117410215665,0.003463937586180001,-0.02433108158735,-0.0064030285342999965,-0.03176760964795,4.070696115495,-0.1726853251455,8.260052204134999,-0.036056049168105016,1.255882263185,0.4240003824235,1718207.5,1521532633.0,90047979.5,,,,,,1223219.5,1521532633.0,621922308.5,,1.078000080585,4.2780000001200005,2.59099960327,-0.292999997735,0.0989999994635,0.005499999911989999,443.0,466.0,601.5,669.0,776.0,554.0,591.0,663.0,717.0,1336.0,5.0,2.070000082254,2.8100000023850003,-2.0699996948249995,-0.23499999940389998,0.09449999959901,-0.02400000026686001,5.116311866854217,0.30932224065772396,9.210257841193272,1.3260153173925122,0.03202538575023423,0.04052383654549342
18,18,54.7664788462,5473.5,1521532633.0,708320974.5,,1717862.5,1521532633.0,171940345.5,,0.713008702534,-0.12384874682299996,0.003068649436955,-0.0801491657212,0.9954792491695,0.0221881914181,0.045870591377300006,0.01056105971134,0.01234002550016,-0.0007721960206900013,0.01069125979746,-0.01988393095479,0.007459223270185,3.0490381717700004,-0.9476742744425,8.686503410339999,0.5646892487999999,1.0624486207950001,0.5629377961155,1198830.5,1521532633.0,169514380.0,,,,,,1223227.5,1521532633.0,701959276.0,,0.30299998521805,3.952999952435,3.20599937439,-0.29399999976150004,0.07650000043215001,-0.01850000023845,438.0,467.0,600.5,689.0,785.0,559.0,591.0,654.0,717.0,1358.5,5.0,-0.7750000953669499,-0.32500004768500057,0.6149997711199999,-0.0010000020265000242,-0.02249999903135,-0.02400000015044,5.098671356695029,0.3043525914703268,9.25473186003782,1.3283711762285728,0.01626064261539062,0.023776327682510392
19,19,54.8690429487,5485.5,1521532633.0,828305959.0,,1717874.5,1521532633.0,291944138.0,,0.713723853965,-0.1255499293235,0.003146461181005,-0.07910399334304999,0.9955638612125,0.0217364674761,0.04607044436985,0.014113501641865,-0.01338487617428,0.00248502208997,-0.01868051736745,-0.016356709883935,0.0009353928906000002,3.314311146735,-0.538801699877,8.021553993225004,0.1419125348328,1.006354749204,0.4385150671005,1198839.0,1521532633.0,292021051.5,,,,,,1223239.5,1521532633.0,822082285.0,,0.5679999709129999,5.362999799845,2.211000442505,-0.375,0.050000000745050004,-0.012499999720590002,426.0,448.5,618.5,638.0,759.0,543.5,609.0,667.0,726.5,1373.0,5.0,0.2649999856949499,1.4099998474100004,-0.994998931885,-0.08100000023849996,-0.02649999968710001,0.006000000517859999,5.828628807605781,0.3785250983323559,8.695992991912206,1.1068805323350268,0.01960921144726053,0.024847105408932507
20,20,54.9716070513,5496.5,1521532633.0,939294576.0,,1717885.5,1521532633.0,401950883.5,,0.7139575919300001,-0.12653860029500005,0.00278258729375,-0.07817459718355001,0.995645527727,0.0213663984208,0.0460655650567,-0.002583284008705,0.004003718043295,-0.0017339068680199993,0.005942977999234999,0.0016147331453499998,-0.005139499047720002,3.0274755954750003,-1.234570860865,8.293414592745,0.6288219988345001,1.068100392815,0.5509286820889999,1718237.5,1521532633.0,390015035.0,,,,,,1223250.5,1521532633.0,934057813.5,,-0.357000041008,2.4130000501900004,2.36600112915,-0.253999993205,0.04350000061095,0.03200000058855,429.0,437.0,580.0,618.0,750.5,561.5,602.5,676.5,710.0,1397.0,5.0,-0.925000011921,-2.949999749655,0.15500068664499975,0.121000006795,-0.006500000134100001,0.04450000030914,3.398231836504939,0.2596771969945761,8.9146227793917,1.3563841521110807,0.005070458309344812,0.008021271787665466
21,21,55.0741711538,5505.5,1521532634.0,29067516.0,,1717892.0,1521532633.0,467650870.0,,0.714448122494,-0.12729220531149998,0.002703788537245,-0.0775789557092,0.995683457531,0.0212344743791,0.046312859442250005,0.017926006011450002,-0.0035258687392500008,0.00851190803152,-0.003297437702475,-0.03664512522975,-0.008339257668185,3.485758900645,-1.475616514685,8.126828670504999,0.5716123878955,1.20565360785,0.5122505128379999,679457.0,1521532633.0,468000000.0,,,,,,1223259.5,1521532634.0,22960710.0,,0.12799991369269995,5.607999923825001,2.1959991455050005,-0.361499994993,0.05000000074505,0.0120000001043,426.5,446.0,574.0,608.5,752.5,534.0,597.0,673.5,724.5,1357.5,5.0,0.4849999547006999,3.1949998736350005,-0.1700019836449993,-0.107500001788,0.006500000134100008,-0.020000000484249998,6.023990319595911,0.36513866743601286,8.96511591958403,1.4292452315890758,0.020155049496987515,0.03772640344589113
22,22,55.1767352564,5516.5,1521532634.0,138435601.5,,1717902.0,1521532633.0,567651790.0,,0.7148701723619999,-0.1275580809205,0.00304918354166,-0.07767709574569999,0.995666867613,0.0211138343009,0.0465589455612,0.011751599869215,0.003005137293545,0.00292153200516,0.019020017438150003,-0.014470212277315,-0.019584372107965,3.38265609741,-1.069370448585,8.085283756255,0.34416519105449994,1.139708340165,0.47785794735,1198858.5,1521532633.0,578351883.0,,,,,,1223270.5,1521532634.0,132925507.0,,-1.2220000207435002,3.578000071645,2.54100036621,-0.3240000009535,0.05450000055135002,0.0014999997802100002,426.0,436.0,598.0,628.0,736.5,540.0,616.0,664.0,723.0,1372.0,5.0,-1.3499999344362,-2.029999852180001,0.3450012207049995,0.0374999940395,0.0044999998063000105,-0.01050000032409,4.555441957095721,0.3285551714359489,8.829367409322874,1.2828612540804227,0.012476630109783778,0.030898151037907193
23,23,55.279299359,5526.5,1521532634.0,239321946.5,,1717912.5,1521532633.0,672656323.5,,0.7158049725019999,-0.12928077603299998,0.003003000133195,-0.07636094964225,0.9957646838895,0.02067003442155,0.0468443864056,0.01081937456375,-0.00924585611313,-8.392402637999972e-05,-0.014933303321295001,-0.017197634425165,0.00037123678944999886,3.320939183235,-1.256572365765,8.344883441924999,0.5719645917414999,1.11601096392,0.5268690288065,1198866.0,1521532633.0,683852880.5,,,,,,1223280.0,1521532634.0,228830364.0,,-0.0270000576973,4.89799988568,3.1510009765599998,-0.268999993801,0.046999998390699994,0.00899999961257,412.0,429.0,600.0,656.0,739.0,539.0,602.0,663.0,717.0,1390.0,5.0,1.1949999630462005,1.319999814035,0.6100006103500002,0.05500000715250003,-0.007500002160650013,0.00749999983236,5.824082677771584,0.2732233454642741,9.068885864783162,1.3602260618408886,0.014232068172181712,0.022779376520468284
24,24,55.3818634615,5534.5,1521532634.0,318343400.5,,1717920.5,1521532633.0,752655534.5,,0.7161154229350001,-0.1298652778105,0.002924566627135,-0.07570831058765,0.9958106735175,0.020562167941,0.04697134040544999,0.00368460810073,-0.0187423837373,-0.003442889234,-0.017563216578099998,0.0013809084116654998,-0.02211281579775,3.5407707691199994,-1.45572257042,8.326930999755,0.519429191947,1.19112241268,0.5297887325289999,1718274.0,1521532633.0,755702968.0,,,,,,1223288.0,1521532634.0,306383875.0,,-0.386999952793,4.23800003827,2.69099807739,-0.389999985695,0.0460000000894,0.0270000007004,407.5,431.0,612.5,642.0,736.5,544.5,608.0,667.5,728.0,1381.0,5.0,-0.3599998950957,-0.6599998474100001,-0.46000289917,-0.120999991894,-0.0009999983013000008,0.018000001087830002,5.035065435558408,0.3936305233186911,9.164822186827502,1.4033016028459533,0.019408935346632638,0.028272780321642883
25,25,55.484427564099995,5547.5,1521532634.0,448506593.0,,1717933.5,1521532633.0,882651001.0,,0.7170908037020001,-0.1319826783975,0.0029441402008750003,-0.07408451272805,0.995914542068,0.02016878714755,0.04752764797575,-0.0012184268309999994,-0.012452866320070002,-0.005452304049340001,-0.0005224100351399999,0.00884635882395,-0.01263405834615,2.8975443839999997,-1.24738162756,8.310851097105001,0.382531940937,1.0013856589785,0.48609374463550004,679474.0,1521532633.0,892999936.0,,,,,,1223301.5,1521532634.0,443189156.5,,0.03799999952335,4.583000066875,1.82099914551,-0.31499999761599995,-0.00400000007357,0.01550000021235,429.5,436.5,600.0,647.0,726.0,553.0,629.5,656.0,719.0,1410.0,5.0,0.42499995231635,0.3450000286049999,-0.8699989318800001,0.07499998807900005,-0.05000000016297,-0.01150000048805,4.931670254679259,0.31540648139385374,8.889430259599068,1.1770263601205353,0.01364866524516166,0.015432122568876114
26,26,55.5869916667,5557.5,1521532634.0,548379540.0,,1717944.5,1521532633.5,492657149.5,,0.717551328469,-0.1331930834185,0.00315946077507,-0.07375359504489999,0.9959380354234999,0.0196947396464,0.04774775942875,0.006215770802944999,-0.01809146187055,-0.004400839054430001,-0.00613972214742,-0.003675115964375,-0.031868087196,2.94125592709,-1.2215757370000002,8.300589561465,0.33030873537050004,1.0288115441795,0.488916307688,1198888.0,1521532633.5,489369655.5,,,,,,1223311.5,1521532634.0,544630218.0,,-0.5770000100135,3.368000033495,2.0909996032700002,-0.34000000357649995,0.0075000002979999985,0.04500000178809999,414.0,421.0,599.5,625.5,735.0,548.0,620.0,669.0,727.0,1422.0,5.0,-0.61500000953685,-1.21500003338,0.2700004577599997,-0.025000005960500005,0.01150000037157,0.029500001575749987,4.006074459873806,0.3430470122263405,8.890614195755592,1.1860000885422959,0.01962916665758647,0.03266156222428717
27,27,55.6895557692,5567.5,1521532634.0,649485468.5,,1717955.5,1521532634.0,102651356.5,,0.7176801673875001,-0.1339758862605,0.002620595095085,-0.07332250615399999,0.9959826279335,0.0191780319795,0.0476922392842,-0.015978652516839997,-0.0202733985085,-0.0102831135738005,-0.011880356044604998,0.0348568886157,-0.003739834026385001,2.68756556511,-1.7438196539900002,8.500201702115001,0.6946222186090001,1.019220232965,0.5782149434089999,1718309.0,1521532634.0,105707946.5,,,,,,1223321.5,1521532634.0,644719220.5,,-0.4019999980925,3.787999990585,1.836000442505,-0.30200000107299996,-0.0040000001899899995,0.0324999997392,414.0,416.0,598.0,608.0,738.0,547.0,635.0,662.0,718.0,1413.0,5.0,0.175000011921,0.4199999570899999,-0.25499916076499995,0.038000002503499934,-0.01150000048799,-0.012500002048899984,4.22864582957912,0.3037700621072786,9.0839058025194,1.3622196704834324,0.027786155691459865,0.037015292816061925
28,28,55.792119871800004,5576.5,1521532634.0,738380551.0,,1717965.5,1521532634.0,202651369.5,,0.7185331156829999,-0.13507319660949998,0.003164430429065,-0.0729372240659,0.995990143539,0.0188216233085,0.04826461240925,0.0156810635603,-0.0066487916810000006,0.007843309109135001,-0.006135034506984999,-0.026647532551849998,-0.013417926905675,2.82195007801,-1.1930844187749998,8.437543869019999,0.4171977341175001,1.015887796875,0.514695674181,1718317.5,1521532634.0,190732367.0,,,,,,1223330.5,1521532634.0,733692895.5,,-0.6820000290870001,4.758000019190001,2.815998077395,-0.36450000107299996,0.016999999992550002,0.03649999946355,397.0,418.0,582.0,608.5,736.5,547.0,614.0,661.0,719.0,1426.0,5.0,-0.2800000309945001,0.9700000286050008,0.97999763489,-0.0625,0.02100000018254,0.003999999724350001,5.570774936593566,0.36671719450116164,8.976580597016957,1.2128452507277883,0.018751524817489998,0.030459323727716592
29,29,55.894683974399996,5585.5,1521532634.0,828624486.0,,1717974.5,1521532634.0,292650528.0,,0.7188635185810001,-0.13664002007200002,0.00323231444766,-0.07240712932184999,0.9960325645645,0.01817313639365,0.0484318568755,0.013369132283649998,-0.0026528075305200004,0.006494784056924999,-0.0034671651331300004,-0.02464453392855,0.01044578302975,3.1281594038,-1.1508786082300002,8.433731079105,0.425990641117,1.154212117195,0.5456510186195,1198908.5,1521532634.0,291865491.5,,,,,,1223339.5,1521532634.0,823798377.0,,-0.1420000076294,2.893000009655,3.160999298095,-0.31599999964250003,-0.0130000002682,0.029500000178850006,390.0,417.5,626.5,633.5,730.0,539.0,628.5,654.5,712.0,1398.5,5.0,0.5400000214576001,-1.8650000095350008,0.34500122069999994,0.048500001430499984,-0.030000000260750007,-0.006999999284699996,4.287368612632656,0.31764012623027554,9.068501681155789,1.3458858316809548,0.015098122590501225,0.02699052925973215
30,30,55.99724807689999,5597.5,1521532634.0,948351502.0,,1717986.0,1521532634.0,407649655.0,,0.718873120288,-0.136882911051,0.00275174437005,-0.0721833970978,0.9960630773170001,0.0180164220436,0.0482007440357,0.0177166456231,-0.027259002255199997,0.012563266036,-0.0193107876383,-0.037488848830400004,-0.0214418799284,2.87437534332,-1.50743377209,8.25934028625,0.4260745048520001,1.03044247627,0.47878831625,1718339.0,1521532634.0,405703597.0,,,,,,1223351.5,1521532634.0,944336424.0,,0.15800000429150002,4.1530000001200005,2.23099899292,-0.354000002146,-0.01049999985844,0.024999999441200002,401.5,419.0,614.5,633.5,720.0,543.0,629.5,647.0,703.0,1400.5,-1.0,0.30000001192090003,1.2599999904650003,-0.9300003051749997,-0.038000002503499934,0.002500000409759999,-0.004500000737650008,4.716961893927372,0.3550369720021498,8.874181210432639,1.2135029593552034,0.03485352764893129,0.04730829230382372
31,31,56.0998121795,5606.5,1521532635.0,38316964.5,,1717992.0,1521532634.0,467682725.0,,0.718652515158,-0.136429361498,0.00306879012476,-0.0724022227792,0.996041473045,0.0181422231255,0.048271750038199994,0.0111896798517,-0.0057688885892399995,0.0064325398264,-0.00877442028208,-0.0206280507143,-0.000342220200243,2.864320755,-1.48217594624,8.38888835907,0.44272154569600003,1.05525624752,0.527875244617,1718346.0,1521532634.0,475737554.0,,,,,,1223360.5,1521532635.0,34034906.5,,0.11799998283400005,3.8680000335,1.6359996795650005,-0.3739999979735,-0.014000000432149998,0.04450000077485,395.0,431.0,604.5,620.0,709.0,544.0,618.0,656.0,704.0,1424.0,-1.0,-0.04000002145749997,-0.28499996662000004,-0.5949993133549996,-0.01999999582750001,-0.0035000005737099976,0.01950000133365,4.201409668985114,0.3768981939002094,8.987470546492844,1.260246161998879,0.014137417704688028,0.022419278360905463
32,32,56.2023762821,5619.5,1521532635.0,168312430.0,,1718006.0,1521532634.0,607659937.0,,0.7197571370579999,-0.137268459689,0.0036539630041700004,-0.0717750119071,0.9960313965719999,0.0182577901392,0.049360488333900006,-0.00860986895646,-0.017852985972400003,-0.00864805875599,-0.00834524199529,0.020644735882299998,-0.0227545353431,2.4763636589099995,-1.43435037136,8.57087612152,0.510895371437,0.9585984945299999,0.553484320641,1198930.5,1521532634.0,603351503.0,,,,,,1223373.5,1521532635.0,164354166.0,,-0.672000038623765,4.047999861835,0.9360008239755,-0.3334999978545,-0.01500000059605,0.001999999862165,404.5,413.0,622.0,626.5,717.5,521.5,625.5,648.5,707.5,1443.0,-1.0,-0.7900000214577649,0.17999982833499928,-0.6999988555895005,0.040500000118999964,-0.0010000001639000004,-0.042500000912684986,4.208798459870623,0.3338431496770327,9.036019889831607,1.2191267561112593,0.021625167556002432,0.03183735325510372
33,33,56.3049403846,5628.5,1521532635.0,258539914.5,,1718015.0,1521532634.0,697657575.0,,0.719055718141,-0.1380772587975,0.002791631649115,-0.0715104213067,0.996111291611,0.01775254503725,0.0483048945952,0.006208303820478001,-0.00666247457659,0.0030671354066099995,-0.009776223615095,-0.0109187356230345,-0.00456004647285,2.80872809887,-1.1571433544145,8.409430027010004,0.3491740599275001,1.0504990816150002,0.5125806182625,1198937.5,1521532634.0,704374645.5,,,,,,1223382.5,1521532635.0,254033156.0,,-0.8970000624635001,3.322999957205,2.61600112915,-0.3650000095365,-0.0219999998808,0.046999998390699994,419.0,421.0,632.5,666.0,719.0,559.5,624.0,663.0,717.5,1436.5,-1.0,-0.22500002383973505,-0.7249999046299997,1.6800003051744998,-0.03150001168199995,-0.006999999284750003,0.044999998528535,4.323239495489236,0.3686705938980299,8.941277741756208,1.219922019974465,0.009609314409131929,0.01534885531929386
34,34,56.4075044872,5640.5,1521532635.0,378299951.5,,1718027.0,1521532634.0,817659893.0,,0.719205141305,-0.138614629331,0.00262697896804,-0.0713925892342,0.9961266688079999,0.0174477097358,0.048273546758399996,0.00031159729432099996,-0.010202963351,0.0012905677389,-0.0232171952213,-0.006814280199109999,0.0188950499537,2.39773273468,-1.2643699646,8.55027675629,0.436872363091,0.9030289649959999,0.5036363601680001,1198945.0,1521532634.0,817364583.5,,,,,,1223394.5,1521532635.0,372430205.0,,0.853000056744,3.86300003827,1.4559993743900002,-0.33499999344349995,-0.0315000005066,0.007999999914315,419.0,425.0,627.5,646.0,719.0,537.0,603.0,652.0,701.0,1403.0,-1.0,1.7500001192074999,0.5400000810649996,-1.1600017547599997,0.03000001609300001,-0.009500000625799995,-0.038999998476385,4.2154848559452045,0.33657279396542117,8.969670355341476,1.1224831208253123,0.010288980469627045,0.030700089272325523
35,35,56.51006858970001,5647.5,1521532635.0,448295473.5,,1718034.0,1521532634.0,887658208.0,,0.719337102286,-0.139136539781,0.00318039251568,-0.0715898866335,0.996111217595,0.0168418921926,0.0485147501315,-0.00598140342679,-0.010640372150399998,0.00358317599115,-0.027951056847700002,0.025977069927400002,-0.0147371263013,2.264564991,-1.25306177139,8.78598308563,0.288884937763,0.973376333714,0.49418681859999997,1718387.0,1521532634.0,885724101.5,,,,,,1223401.5,1521532635.0,443682701.5,,-0.18200002908700005,5.073000076415,2.186000823975,-0.4035000056025,-0.07200000062584999,0.0204999996349,425.0,441.0,635.0,650.5,716.5,538.0,622.0,657.0,701.0,1421.0,-1.0,-1.035000085831,1.2100000381450005,0.730001449585,-0.06850001215900002,-0.040500000119249986,0.012499999720585004,5.5269388804575765,0.41038579970117245,9.159253090856172,1.129219467587603,0.01272139365936676,0.040905410797801
36,36,56.6126326923,5660.5,1521532635.0,578355073.5,,1718049.5,1521532635.0,42661800.5,,0.7191977287295,-0.139006656724,0.0032463855156450003,-0.071503271551,0.996126401947,0.0169347113767,0.0482978888399,-0.01772309870835,0.010024923252895,-0.008355464256305001,-0.0011563949134999999,0.02443265811425,0.0196441411341,2.354891061785,-1.24348026514,8.72610092163,0.3484166264535,1.004075199368,0.508807241917,1718402.5,1521532635.0,40722409.5,,,,,,1223414.5,1521532635.0,573957811.5,,-2.77699998319,3.2129999429000002,2.111000061035,-0.4130000025035,-0.06599999964235,-0.01400000043215,424.0,427.5,616.0,625.0,705.0,526.5,621.0,644.0,710.0,1415.5,-1.0,-2.5949999541029998,-1.8600001335150005,-0.07500076294000024,-0.009499996901000007,0.006000000983499995,-0.03450000006705001,4.742511865815671,0.4184746133671449,9.123409032655472,1.1783233686057113,0.022009568305415325,0.031371711981022565
37,37,56.715196794899995,5669.5,1521532635.0,668340921.0,,1718058.5,1521532635.0,132655663.5,,0.7196008995000001,-0.139180611599,0.00322501182804,-0.07202426464635,0.9960715339985,0.0166764976024,0.0487423398031,0.010911049523365,0.01069540255692,0.004070883589705,0.0062119141671649995,-0.0205857961768,0.0237445160966,2.2005100250250003,-1.290569067,8.704344749455,0.3496167212725,0.9645505845544999,0.500700771809,1718411.5,1521532635.0,130708638.5,,,,,,1223423.5,1521532635.0,665670414.5,,-1.39200000763,5.1530000001200005,2.175998687745,-0.3889999985695,-0.055500000715250006,0.00249999994412,399.0,424.0,605.5,644.0,709.0,534.0,623.0,656.0,716.0,1432.0,-1.0,1.3849999755600002,1.940000057220001,0.06499862671000001,0.02400000393399998,0.01049999892709999,0.016500000376270002,5.764203614684913,0.39294719615513785,9.070470241630122,1.141617687690537,0.015811854121412325,0.03203380911653616
38,38,56.8177608974,5678.5,1521532635.0,758303522.5,,1718067.5,1521532635.0,222655576.0,,0.719229701732,-0.139971736283,0.0028206801387850003,-0.0718793058043,0.9961119416465,0.0163404860706,0.04823987699285,0.008051340266479,-0.012345907100185,0.008447362619214999,-0.0072345318045,-0.01374280178368,-0.01290699642778,2.71056210995,-1.328528225425,8.551996231075,0.3635526299475,1.14217710495,0.5114866793155001,1198973.5,1521532635.0,216360488.5,,,,,,1223432.5,1521532635.0,755502364.5,,-1.2269999861725,3.52300000489,1.97099876404,-0.4085000008345,-0.06399999931455,0.01399999950079,410.0,426.5,597.0,628.0,706.0,531.0,612.5,647.0,718.0,1395.0,-1.0,0.1650000214574998,-1.6299999952300004,-0.20499992370499973,-0.019500002264999927,-0.008499998599299993,0.01149999955667,4.219229091714441,0.4137200147201861,9.069110967121777,1.303210526711208,0.016988332391189413,0.020193900269204212
39,39,56.920325,5690.5,1521532635.0,878337502.0,,1718079.5,1521532635.0,342655336.5,,0.7192538557970001,-0.139851862995,0.003067166184585,-0.0719467318035,0.9961091037475001,0.01619536953135,0.0482479920461,0.00744283812258,-0.01074712932471,0.00382898424697435,-0.0056238936842500035,-0.0058141591406500005,-0.01046115354734,2.27295434475,-1.31646686792,8.797968387605,0.328069284558,0.9509881734825,0.4872678518295,1718432.5,1521532635.0,340719156.5,,,,,,1223444.5,1521532635.0,874048514.5,,-0.4169999837873,4.643000009655,2.106000900265,-0.4074999988075,-0.05750000104310001,-0.005499999504515,431.0,435.0,609.0,643.5,725.0,563.0,620.0,664.0,711.0,1417.0,-1.0,0.8100000023852001,1.120000004765,0.13500213622499954,0.0010000020269999577,0.0064999982714499865,-0.019499999005305,5.115327738087945,0.41157350393656134,9.181702141593677,1.1177825911153363,0.01362195831753091,0.013223780103494436
