,Unnamed: 0,.header.seq,.header.stamp.secs,.header.stamp.nsecs,.header.frame_id,.endpoint_state.header.seq,.endpoint_state.header.stamp.secs,.endpoint_state.header.stamp.nsecs,.endpoint_state.header.frame_id,.endpoint_state.pose.position.x,.endpoint_state.pose.position.y,.endpoint_state.pose.position.z,.endpoint_state.pose.orientation.x,.endpoint_state.pose.orientation.y,.endpoint_state.pose.orientation.z,.endpoint_state.pose.orientation.w,.endpoint_state.twist.linear.x,.endpoint_state.twist.linear.y,.endpoint_state.twist.linear.z,.endpoint_state.twist.angular.x,.endpoint_state.twist.angular.y,.endpoint_state.twist.angular.z,.endpoint_state.wrench.force.x,.endpoint_state.wrench.force.y,.endpoint_state.wrench.force.z,.endpoint_state.wrench.torque.x,.endpoint_state.wrench.torque.y,.endpoint_state.wrench.torque.z,.joint_state.header.seq,.joint_state.header.stamp.secs,.joint_state.header.stamp.nsecs,.joint_state.header.frame_id,.joint_state.name,.joint_state.position,.joint_state.velocity,.joint_state.effort,.wrench_stamped.header.seq,.wrench_stamped.header.stamp.secs,.wrench_stamped.header.stamp.nsecs,.wrench_stamped.header.frame_id,.wrench_stamped.wrench.force.x,.wrench_stamped.wrench.force.y,.wrench_stamped.wrench.force.z,.wrench_stamped.wrench.torque.x,.wrench_stamped.wrench.torque.y,.wrench_stamped.wrench.torque.z,.tag
0,27.004741,2712.5,1518247763.0,584709908.0,,2214647.0,1518247763.0,584709908.0,,0.761361885799,-0.295968036371,0.127226004599,-0.0234971547793,0.999592013158,0.00320599407135,0.0159170142379,0.00200895805548,-0.00378754104937,-0.00166977001685,-0.0120230730945,-0.00227245688515,0.0116222193532,4.41681599617,1.11452358962,4.50590181351,-0.160979650915,1.79046535492,0.275595128536,1545358.0,1518247763.0,578883593.0,,,,,,357322.0,1518247763.0,588868191.5,,-0.426999992132,1.37100001555,0.638000004366,0.00299999996787,-0.00450000021374,-0.035000000149,3.0
1,27.1073051026,2723.5,1518247763.0,689706972.5,,2214657.5,1518247763.0,689706972.5,,0.762109589977,-0.295171845356,0.127551393183,-0.0238016771701,0.999568727202,0.00335348582643,0.0168667048944,-0.00017318006012,0.0162944318301,-0.0100558339911,0.00381477543218,-0.00541244473085,0.0227014410143,3.11629927158,0.965323150157,4.48520255089,-0.0194651260972,1.1668548584,0.316858977079,875729.5,1518247763.0,690999936.0,,,,,,357332.5,1518247763.0,695830838.0,,-0.502000009082,-0.0739999847485,0.878000007384,0.00450000003911,-0.00550000020303,-0.00850000022909,3.0
2,27.2098692051,2736.5,1518247763.0,819716775.5,,2214670.5,1518247763.0,819716775.5,,0.763029653573,-0.293724241035,0.126195882905,-0.0246195145044,0.999526915983,0.00344199900908,0.0181063333154,-0.00891705672785,0.0139098182203,-0.0102546317754,-0.00532744256132,0.0188057190835,0.0225175978611,1.1061436832,1.18595677614,5.1193909645,-0.19784116745,0.701567620039,0.287410289049,2215015.0,1518247763.0,812756339.0,,,,,,357345.5,1518247763.0,825670164.5,,-0.317000003904,-0.0189999794585,0.312999999523,-0.00400000018999,0.00050000002375,-0.0219999998808,3.0
3,27.3124333077,2744.5,1518247763.0,899708581.0,,2214678.5,1518247763.0,899708581.0,,0.762237277169,-0.292346952099,0.125112832777,-0.0266800041181,0.999479702776,0.00285327777539,0.0178964141671,-0.00943480942226,0.0257107628075,-0.021232309588,-0.00432821202243,-0.00043474040415,0.0563911665947,1.94927322865,1.44467794895,4.92727899551,-0.419522181154,0.981991231441,0.249694079161,1545381.5,1518247763.0,905378921.5,,,,,,357354.0,1518247763.0,909672176.5,,-1.0470000267,0.336000006087,0.477999991179,0.00250000040977,0.00200000032782,-0.0115000000223,3.0
4,27.4149974103,2756.5,1518247764.0,19702203.0,,2214690.5,1518247764.0,19702203.0,,0.758339870494,-0.290469261873,0.120826722728,-0.0300481958592,0.99944858492,0.000973105274496,0.0140783562799,-0.0378680090842,0.031417615539,-0.0523981097165,-0.0211876066935,0.0615337248893,0.0689235048337,2.84455311298,1.21202117205,3.93569982052,-0.110817279666,1.1557803154,0.277893736959,2215035.0,1518247764.0,12759109.0,,,,,,357365.5,1518247764.0,25901503.5,,0.38299998045,-0.27399999518,0.477999991179,0.0085000002291,0.0265000006184,-0.00300000002607,3.0
5,27.5175615128,2764.5,1518247764.0,99707871.0,,2214698.5,1518247764.0,99707871.0,,0.755039238032,-0.288057194002,0.116666364254,-0.0319514978962,0.999428960336,0.0013221133128,0.0109057684965,-0.0577270339437,0.0184824119449,-0.0507380334109,-0.00805729545179,0.117486663549,0.0447413674913,1.07562667132,1.32144278288,4.57246994972,-0.204420097173,0.558062970639,0.280568078161,2215043.5,1518247764.0,97772974.5,,,,,,357373.5,1518247764.0,105733699.0,,0.0230000033977,-0.123999978043,0.203000000119,-0.00300000014249,0.00900000007823,0.00200000009499,3.0
6,27.6201256154,2773.5,1518247764.0,189721616.0,,2214707.5,1518247764.0,189721616.0,,0.749777612104,-0.285033425072,0.110463424616,-0.0345598821188,0.999385652881,0.00179054871056,0.00553617442564,-0.0624737032538,0.0274845855079,-0.0667855987724,0.00254037074293,0.137657469404,0.0479353724365,2.50630116462,0.921667993069,5.09743762016,-0.0249629914761,1.11488413811,0.321353092789,1545401.0,1518247764.0,191380147.0,,,,,,357383.5,1518247764.0,206271779.0,,-0.177000007033,-2.00899994988,0.0029999822375,0.0169999999926,0.0134999998845,0.00050000002375,3.0
7,27.7226897179,2784.5,1518247764.0,299705557.5,,2214718.5,1518247764.0,299705557.5,,0.742999241577,-0.281298277855,0.103066342143,-0.0379853525259,0.999274850164,0.00209299988483,-0.00152078996212,-0.0455154239505,0.0349043552431,-0.064757489253,0.00146609365775,0.0771328078084,0.0611810604381,2.3592864871,0.687438666821,4.76954126358,0.0866939723491,0.915852978826,0.358349472284,2215063.5,1518247764.0,297762729.5,,,,,,357393.5,1518247764.0,304688652.0,,-1.24199998975,-0.438999986835,0.358000001312,0.0425000004471,0.0205000005662,-0.0164999999106,3.0
8,27.8252538205,2795.5,1518247764.0,409706241.5,,2214729.5,1518247764.0,409706241.5,,0.738228635405,-0.278262249131,0.096438746088,-0.0414114451689,0.999118824656,0.00141648763983,-0.00666973391712,-0.0433319294,0.0211965530045,-0.0621559994934,-0.0439442252045,0.0910358498595,0.0869874169038,2.39725410938,0.770854592323,5.02620649337,0.0568083524706,0.979993462562,0.318709358573,2215074.5,1518247764.0,407767724.5,,,,,,357404.5,1518247764.0,415306483.5,,-0.877000010014,-1.72899997849,-1.16700003445,0.022500000894,0.00600000005215,0.0149999996647,3.0
9,27.9278179231,2807.5,1518247764.0,529702622.5,,2214741.5,1518247764.0,529702622.5,,0.73333193647,-0.275258153524,0.0895412144617,-0.0450115027777,0.998917659673,0.00104132514103,-0.0116757974356,-0.0326776604809,0.0253214829749,-0.0513439427158,0.001479782992,0.0608744247022,0.0395047414882,1.39160841704,0.618533670902,4.84097385407,0.161794871092,0.55939078331,0.305196076632,2215085.0,1518247764.0,512764738.0,,,,,,357416.5,1518247764.0,536052599.0,,-1.18200003207,-0.088999977894,-0.492000022531,0.0369999986142,-0.0165000008419,0.00900000007823,3.0
10,28.0303820256,2814.5,1518247764.0,599705700.5,,2214748.5,1518247764.0,599705700.5,,0.730954964641,-0.273394406275,0.0855063019261,-0.0459960895414,0.998840236156,0.00184617396292,-0.0141098398171,-0.0303901094571,0.0330231919824,-0.0525829634591,0.0210011188437,0.06152621,0.0507268173407,1.86579060554,1.07596611977,5.1583583355,-0.118728205562,0.865831196307,0.291143938899,875765.5,1518247764.0,601000064.0,,,,,,357423.5,1518247764.0,605655745.0,,-1.25200001001,-1.38399994988,-0.971999981999,0.0355000011623,-0.0194999994711,0.0165000003762,3.0
11,28.1329461282,2828.5,1518247764.0,739708460.0,,2214762.5,1518247764.0,739708460.0,,0.727225262897,-0.271703479437,0.0802090475541,-0.0480342574637,0.998688786642,0.00152095719206,-0.0176376284337,-0.0247948472329,0.00778554326136,-0.0363247818143,-0.0161905207903,0.0527407720333,0.0317385565845,2.32993519306,1.09136390686,5.26437044144,-0.155896600336,1.01270973682,0.272863611579,1545438.0,1518247764.0,730379245.5,,,,,,357437.5,1518247764.0,746617377.0,,-0.487000009417,0.141000003927,0.203000015021,0.0075000002398,-0.0069999998086,-0.0185000002384,3.0
12,28.2355102308,2836.5,1518247764.0,819710786.5,,2214770.5,1518247764.0,819710786.5,,0.725784895259,-0.270873059481,0.0779225314932,-0.0489539083168,0.998628358752,0.0013574195124,-0.0185193015418,-0.020063439372,0.0140142628538,-0.0383946962967,0.00940875525815,0.0269183917619,0.0198885481251,1.09176200628,0.731454104185,4.50202536583,0.14141932875,0.418059617281,0.305745199323,2215115.0,1518247764.0,812760544.0,,,,,,357445.5,1518247764.0,826440131.5,,-0.781999996305,-0.888999974912,0.533000005781,0.0125000006519,-0.00900000007823,-0.00999999977649,3.0
13,28.3380743333,2848.5,1518247764.0,939710161.0,,2214782.5,1518247764.0,939710161.0,,0.723425290759,-0.27071198468,0.0734705033477,-0.0492227879787,0.998575068697,-2.23902876515e-05,-0.0206107501943,-0.0157404358361,0.00832888177126,-0.035498732586,-0.039612816957,0.0348138964004,0.0632821062133,1.71312260628,1.09735035896,4.49518013001,-0.104357987642,0.671565234661,0.275086447596,2215126.5,1518247764.0,927774824.0,,,,,,357457.5,1518247764.0,945787754.5,,0.528000020981,0.47600000482,0.483000001311,0.00450000003911,-0.0220000008121,-0.00550000020303,3.0
14,28.4406384359,2856.5,1518247765.0,19705098.0,,2214790.5,1518247765.0,19705098.0,,0.722593972809,-0.270172915742,0.0705492586264,-0.0506191117852,0.998496553579,-0.000334616806277,-0.0210282977497,-0.0225477553562,0.0355514313953,-0.0491012102549,0.0270376133575,0.0332915134613,0.0344988559203,3.18524956703,1.23420923948,4.92002224922,-0.171594552696,1.47692519427,0.278872162104,2215135.0,1518247765.0,12775061.0,,,,,,357465.5,1518247765.0,25590755.0,,-1.53199998141,-0.158999985643,0.688000003248,0.0099999997183,0.00799999968151,0.0115000000223,3.0
15,28.5432025385,2869.5,1518247765.0,149708504.0,,2214803.5,1518247765.0,149708504.0,,0.721633623921,-0.268901275529,0.0668279632645,-0.0512163125379,0.998444253012,0.00022807194429,-0.0220315595577,0.00114604957217,0.00577096670485,-0.0239860162801,-0.0176004176612,0.0090682799004,0.028346580829,1.12256959081,1.19445306062,4.45549058914,-0.127841170877,0.418677940965,0.261241391301,2215148.5,1518247765.0,147770817.0,,,,,,357478.5,1518247765.0,156733861.5,,-1.35200003386,-1.14899999518,-0.0469999998805,0.00950000050944,-0.0325000006706,0.0169999999925,3.0
16,28.645766641,2878.5,1518247765.0,239708368.0,,2214812.5,1518247765.0,239708368.0,,0.721268229867,-0.267751365839,0.0631995521102,-0.0520647321431,0.998395642747,0.000273589193574,-0.0222504433164,-0.00708875088255,0.00480654103125,-0.0397256835532,-0.00255368690755,0.0177174010001,0.0083315625725,0.85946211219,0.916565537453,4.67055130005,0.0104787126184,0.330975592136,0.27737030387,2215156.5,1518247765.0,227783017.0,,,,,,357487.5,1518247765.0,246978111.0,,-0.557000002265,0.920999997668,0.363000011444,-0.00050000002375,-0.00050000002375,-0.00900000007822,3.0
17,28.7483307436,2887.5,1518247765.0,329707023.5,,2214821.5,1518247765.0,329707023.5,,0.720483981706,-0.26662086412,0.0601767155175,-0.0526856429181,0.998346283872,0.000810167021463,-0.0229828975822,-0.0183940037131,0.0129358931884,-0.0328446620796,0.00997838764238,0.0423862350115,0.00986080129053,-0.265034675598,1.01674056053,3.89433479309,-0.0775934010744,-0.143080294133,0.265473365784,2215165.0,1518247765.0,312781507.0,,,,,,357496.5,1518247765.0,337602696.0,,-1.24700001478,-0.324000007101,-0.0870000213387,0.0179999992251,-0.0259999996052,-0.00050000002375,3.0
18,28.8508948462,2899.5,1518247765.0,449705916.0,,2214834.0,1518247765.0,454709831.5,,0.71891289581,-0.266030814602,0.0556612095029,-0.053118877254,0.998293351671,0.00135601649014,-0.0242253488692,-0.00747731982292,0.00851003783482,-0.0329262014489,0.0253399983367,0.0021149733602,0.000989765006605,2.4235239625,0.988116532567,4.41013383865,-0.0437641963363,0.947360008955,0.269554167986,1545489.0,1518247765.0,453881197.0,,,,,,357509.0,1518247765.0,462269945.0,,-1.22200000883,-0.138999989815,0.17800000906,0.019999999553,0.00999999966005,0.0180000001565,3.0
19,28.9534589487,2910.5,1518247765.0,559706569.0,,2214844.5,1518247765.0,559706569.0,,0.719715119087,-0.265624676497,0.0527457455361,-0.0535755893607,0.998291154882,0.00136091856398,-0.0232891688709,0.0237183055105,-0.0217832931978,-0.0355174270326,-0.0163509735514,-0.054640693054,-0.011531895342,3.49790513515,1.3646031022,4.05501556397,-0.302452154458,1.42488151788,0.258864432574,875803.5,1518247765.0,562000000.0,,,,,,357519.5,1518247765.0,566399546.0,,-0.396999990942,1.03100001197,0.0479999989271,0.0244999992428,0.0480000013486,-0.00850000022909,3.0
20,29.0560230513,2920.5,1518247765.0,659704624.0,,2214854.5,1518247765.0,659704624.0,,0.708089584961,-0.272784684295,0.0487066977145,-0.0511009150809,0.997966652814,-0.00678648987734,-0.0374836047738,-0.191690670248,-0.134901469444,-0.0443318637757,-0.300460214258,0.426862701978,0.102889307779,6.32302725315,1.37663787603,0.819943517445,0.589194312692,0.450645267962,0.313580691814,875807.5,1518247765.0,663500032.0,,,,,,357529.5,1518247765.0,667060339.0,,-1.71700004339,-0.40900004525,0.987999996543,-0.0504999998957,0.0210000001826,-0.0249999994412,-1.0
21,29.1585871538,2928.5,1518247765.0,739723401.5,,2214862.5,1518247765.0,739723401.5,,0.699372347045,-0.277993700419,0.0440418263201,-0.0482791238746,0.997711943777,-0.00776584895294,-0.0466871392065,-0.098590938113,-0.0449699501449,-0.0473904305771,0.0217938217899,0.221282621361,-0.112251856141,7.86577916146,3.89271593094,3.13625764847,-0.34048026055,1.28195750714,0.366390019655,1545508.5,1518247765.0,725406088.5,,,,,,357537.5,1518247765.0,747162443.5,,-0.322000002861,0.826000013763,-0.272000023722,0.0269999997691,-0.042500001844,-0.0374999996275,-1.0
22,29.2611512564,2940.5,1518247765.0,859709262.0,,2214874.5,1518247765.0,859709262.0,,0.705530134925,-0.281368714748,0.0375842716204,-0.0445400240915,0.998258339141,-0.0064107440006,-0.0381431327654,0.105552189036,0.0163470199561,-0.0460120142858,0.0513857314753,-0.261295036179,-0.0057565741526,0.903447300195,4.23802638054,5.76420974732,-1.01300495863,0.127608373761,0.378847807646,2215219.5,1518247765.0,857781031.0,,,,,,357549.5,1518247765.0,867712305.5,,0.158000001311,0.0960000142455,0.603000002354,-0.0219999998808,0.0164999999106,0.000499999616295,-1.0
23,29.363715359,2948.5,1518247765.0,939711660.5,,2214882.5,1518247765.0,939711660.5,,0.71154314838,-0.278390809548,0.0366705140165,-0.0453914196181,0.998469270271,-0.00505092375434,-0.0311962161755,0.0119360744808,0.0418211997787,0.0111980361124,0.0102917828658,0.00957207471888,0.0469030468028,-2.6307964921,2.29503393173,6.86996984482,-0.0388045459986,-0.471210047602,0.45012177527,1545523.0,1518247765.0,931899749.0,,,,,,357557.5,1518247765.0,947451070.0,,0.162999996543,-0.628999954648,1.71799998581,0.0159999998869,-0.107499998063,-0.0269999997691,-1.0
24,29.4662794615,2961.5,1518247766.0,69709467.5,,2214895.5,1518247766.0,69709467.5,,0.709770134932,-0.271127101684,0.0390039551571,-0.0482533559364,0.998257080334,-0.00260572103264,-0.0338733707471,-0.031902688295,0.0568086630785,0.0149554260772,0.0438303145766,0.0837292315716,0.0309669713965,1.28682672978,0.848154097795,4.2887570858,0.228690005839,0.621815681457,0.409938663245,875823.5,1518247766.0,68000000.0,,,,,,357570.5,1518247766.0,78254600.0,,-1.05199999213,-2.44400001187,-0.12199998796,0.0510000027716,-0.0145000003977,-0.0139999995008,-1.0
25,29.5688435641,2969.5,1518247766.0,149705884.5,,2214903.5,1518247766.0,149705884.5,,0.709450868951,-0.268060854641,0.0389463453473,-0.0499093870581,0.998153578638,-0.00228882335339,-0.0345410875207,0.00668734582091,0.0253757876014,-0.010489596252,0.00652410101984,-0.0125733690066,0.0305819637258,2.99640882015,0.280544191598,4.89666056633,0.547099530697,1.25036084652,0.425167962909,2215248.5,1518247766.0,147800551.0,,,,,,357578.5,1518247766.0,156535390.5,,-0.697000007519,0.030999997072,0.547999998927,0.00850000046195,0.0365000013262,0.00850000040375,-1.0
26,29.6714076667,2978.5,1518247766.0,239709556.5,,2214912.5,1518247766.0,239709556.5,,0.710676734451,-0.265777593349,0.0390719522419,-0.0521410301681,0.998073598861,-0.0025174916565,-0.0335235421012,0.00815422075596,0.0379393584758,-0.00316843802661,0.0142512795721,-0.0104875668016,0.0593576435684,1.82034420967,0.121257081628,5.92946767807,0.64904615283,0.870061933995,0.431940287351,1545544.0,1518247766.0,233893855.5,,,,,,357587.5,1518247766.0,247074867.5,,-1.45200002789,-1.20899999756,0.557999996841,0.01600000076,0.00749999983235,0.00699999975041,-1.0
27,29.7739717692,2990.5,1518247766.0,359706694.0,,2214924.5,1518247766.0,359706694.0,,0.712190182369,-0.263465678945,0.0403174771747,-0.0531656780171,0.998072876017,-0.00172468588833,-0.0319523381611,0.0250444114784,0.0146757775447,0.00941669697303,0.0103312002513,-0.0456497403313,0.019036379656,1.32152140141,-0.0177017748356,5.25295352936,0.767139613629,0.682505607605,0.46396137774,1545552.0,1518247766.0,359900210.5,,,,,,357599.5,1518247766.0,366459149.5,,-0.74699999988,-1.09899998325,1.03300001323,0.00449999980628,0.00500000012107,0.0135000003502,-1.0
28,29.8765358718,3000.5,1518247766.0,459703126.0,,2214934.5,1518247766.0,459703126.0,,0.713434117935,-0.262596328328,0.0407343731053,-0.053721934851,0.998077371679,-0.00135602995363,-0.0308787388482,0.0242286584872,-0.0111027195311,0.00817751981685,-0.00827349212288,-0.0485903360401,-0.0157833769491,1.19311484695,0.648211210966,5.49217915535,0.396072030068,0.673686385154,0.431972891092,2215279.5,1518247766.0,457798962.0,,,,,,357609.5,1518247766.0,467376135.0,,-0.367000004649,-0.428999996371,1.12799999714,0.00449999980628,0.0210000006482,0.00900000007822,-1.0
29,29.9790999744,3011.5,1518247766.0,569708145.0,,2214945.5,1518247766.0,569708145.0,,0.713767352489,-0.263142853644,0.0412896114552,-0.0531472550796,0.998108219957,-0.00126495680998,-0.0308796524556,0.0143312883345,-0.0141073194056,0.0141725069177,0.00201955309798,-0.0309038526531,-0.0229585888705,1.13234221935,0.722743749619,5.38411426544,0.461592376233,0.557805627585,0.463024720549,1545566.5,1518247766.0,566381601.0,,,,,,357620.5,1518247766.0,578133085.0,,-0.542000001669,-1.06900001187,0.918000007421,0.0109999999404,0.0094999996363,0.00050000008196,-1.0
30,30.0816640769,3020.5,1518247766.0,659708303.0,,2214954.5,1518247766.0,659708303.0,,0.715026176642,-0.263809080712,0.0421627681315,-0.052994105866,0.998153128694,-0.00183429935541,-0.0296389616375,0.0242131271763,0.00850288668106,0.0145475299501,0.0162100665428,-0.0536163345227,-0.00886296058305,0.604178339243,0.570688426495,5.5690047741,0.588151782751,0.444917544723,0.485555529594,2215299.5,1518247766.0,657780215.0,,,,,,357629.5,1518247766.0,668635731.0,,-0.957000023128,-0.849000013063,0.938000003248,0.0100000002421,0.0,-0.00250000006054,-1.0
31,30.1842281795,3031.5,1518247766.0,769705106.5,,2214965.5,1518247766.0,769705106.5,,0.714792127614,-0.262848867122,0.0420454371301,-0.0535482046026,0.998117008491,-0.00150712089518,-0.0298780303971,-0.0103566559478,-0.0039017516888,-0.00844240914951,-0.00576318031818,0.0182442206028,-0.00160976356655,1.39483439922,0.624337762594,5.5882229805,0.495976567268,0.743528664112,0.438333019614,1545580.5,1518247766.0,767410214.0,,,,,,357640.5,1518247766.0,777948106.0,,-0.392000002227,-1.00900000949,0.967999999782,0.0169999999926,-0.00900000007822,-0.0125000001863,-1.0
32,30.2867922821,3040.5,1518247766.0,859708929.0,,2214974.5,1518247766.0,859708929.0,,0.714635814417,-0.262404715908,0.042110738818,-0.0532102733252,0.998128014046,-0.000849590518149,-0.0301393406786,0.0144545690422,0.00665728078487,0.0117008172457,0.00259566817355,-0.0233039329847,0.0067220932299,1.34361821413,0.450583443046,5.60596060753,0.516701757908,0.659998387099,0.435723230243,2215319.5,1518247766.0,857788157.0,,,,,,357649.5,1518247766.0,868742879.0,,-2.00700000525,-0.278999997862,1.13299999982,0.0180000001565,-0.0125000001862,-0.0265000006184,-1.0
33,30.3893563846,3051.5,1518247766.0,969708893.0,,2214985.5,1518247766.0,969708893.0,,0.715489111088,-0.262870919419,0.0424816341217,-0.0531140389723,0.998159265087,-0.00125751243604,-0.0292467848243,0.0169877328557,-0.0141268446441,0.0123652377359,0.00196368914345,-0.0474280369125,-0.022270328071,-0.342783927918,0.259973689914,7.25139427185,0.677045583725,0.06473727338,0.460706934333,1545594.5,1518247766.0,968895215.0,,,,,,357660.5,1518247766.0,978139337.5,,-0.332000002638,-0.893999999948,1.05300000906,0.026499999687,0.0264999996871,0.0105000003241,-1.0
34,30.4919204872,3063.5,1518247767.0,89712368.5,,2214997.5,1518247767.0,89712368.5,,0.714900461354,-0.262472823483,0.0442253282147,-0.0533497385734,0.998127203597,-0.00114915166798,-0.029906571859,0.00491410186154,0.0140424108472,0.0298904426846,0.0043803728519,0.00120826381207,0.013302145193,-0.915507495403,0.380788013339,5.39176011085,0.657869964838,-0.271922856569,0.460132077336,1545603.5,1518247767.0,88901655.5,,,,,,357672.5,1518247767.0,99808843.5,,-0.716999998689,-0.528999990411,0.678000005334,0.0195000004023,0.00499999994645,0.00599999993574,-1.0
35,30.5944845897,3071.5,1518247767.0,169712284.5,,2215005.5,1518247767.0,169712284.5,,0.714934813983,-0.263230649521,0.0440111858751,-0.0527451894979,0.998154398066,-0.00139798700951,-0.0300614578632,0.00748155543441,-0.00453582445327,0.0018969176707,-0.000442182201845,-0.0037511846122,-0.00603842332343,0.375341955573,0.28352651,5.13188433648,0.684719473124,0.225212786347,0.463175013661,1545608.5,1518247767.0,170401093.5,,,,,,357680.5,1518247767.0,178093817.5,,0.413000011444,0.82100001853,0.833000003733,0.0209999997169,0.0145000000484,-0.0180000001565,-1.0
36,30.6970486923,3080.5,1518247767.0,259702529.0,,2215014.5,1518247767.0,259702529.0,,0.715238308637,-0.263496418366,0.0437141096505,-0.0526765287643,0.998166860851,-0.00157090918258,-0.0297559391652,-0.00137947838624,0.0109485373098,0.00156516627961,0.006723938749,0.00504629809866,0.00785571614144,-0.332906365394,0.290098533034,6.21321487427,0.687591791153,0.100589554757,0.460945874453,2215359.5,1518247767.0,257760957.5,,,,,,357689.5,1518247767.0,268909690.0,,-0.902000015974,-0.97400001306,1.06300000697,0.0159999998287,-0.00149999989663,-0.00399999972432,-1.0
37,30.7996127949,3094.5,1518247767.0,399708364.5,,2215028.5,1518247767.0,399708364.5,,0.714782434824,-0.263843305097,0.0442387444787,-0.0527136715409,0.998153043202,-0.00170273522301,-0.0301470548186,0.00981503656229,0.00481145194031,0.0142801347694,-0.00031527522637,-0.0221430331234,0.00479575565246,-0.551772475242,0.0595091581344,7.65605330467,0.796509891749,-0.15077225864,0.460340157151,2215373.5,1518247767.0,397781626.5,,,,,,357703.5,1518247767.0,409224995.5,,-0.74699999988,-0.838999992796,0.818000003137,0.0175000000745,0.00300000002608,0.00799999991432,-1.0
38,30.9021768974,3102.5,1518247767.0,479710623.5,,2215036.5,1518247767.0,479710623.5,,0.716313862863,-0.263583839342,0.0457525297125,-0.0520720894173,0.998242830912,-0.00112310997692,-0.0282525983851,0.0291689359659,0.00180123611644,0.0251951600312,0.00875180086279,-0.069879693957,-0.0119614833435,-1.63603281975,0.136385187506,6.87315940857,0.735350131989,-0.422520563006,0.454117596149,1545630.0,1518247767.0,476399129.0,,,,,,357711.5,1518247767.0,489648657.5,,-1.37199998498,-0.893999999948,0.968000000714,0.011000000406,0.0164999994449,0.0010000000475,-1.0
39,31.004741,3113.5,1518247767.0,589708873.5,,2215047.5,1518247767.0,589708873.5,,0.717131786391,-0.265127048598,0.0477657656299,-0.0513344246393,0.998314187049,-0.00171948991326,-0.0270272612054,0.0149965276403,-0.0125152877496,0.0255957980443,0.000328086401335,-0.0466370352291,-0.0219258950053,-0.74589574337,-0.173132896424,7.19346547127,0.875482052565,-0.175150472671,0.451425105333,1545638.0,1518247767.0,587888518.0,,,,,,357722.5,1518247767.0,598209829.0,,-1.76699999571,0.0060000060125,0.70800000187,0.0099999997183,0.0219999998808,-0.00050000008196,-1.0
