,Unnamed: 0,.header.seq,.header.stamp.secs,.header.stamp.nsecs,.header.frame_id,.endpoint_state.header.seq,.endpoint_state.header.stamp.secs,.endpoint_state.header.stamp.nsecs,.endpoint_state.header.frame_id,.endpoint_state.pose.position.x,.endpoint_state.pose.position.y,.endpoint_state.pose.position.z,.endpoint_state.pose.orientation.x,.endpoint_state.pose.orientation.y,.endpoint_state.pose.orientation.z,.endpoint_state.pose.orientation.w,.endpoint_state.twist.linear.x,.endpoint_state.twist.linear.y,.endpoint_state.twist.linear.z,.endpoint_state.twist.angular.x,.endpoint_state.twist.angular.y,.endpoint_state.twist.angular.z,.endpoint_state.wrench.force.x,.endpoint_state.wrench.force.y,.endpoint_state.wrench.force.z,.endpoint_state.wrench.torque.x,.endpoint_state.wrench.torque.y,.endpoint_state.wrench.torque.z,.joint_state.header.seq,.joint_state.header.stamp.secs,.joint_state.header.stamp.nsecs,.joint_state.header.frame_id,.joint_state.name,.joint_state.position,.joint_state.velocity,.joint_state.effort,.wrench_stamped.header.seq,.wrench_stamped.header.stamp.secs,.wrench_stamped.header.stamp.nsecs,.wrench_stamped.header.frame_id,.wrench_stamped.wrench.force.x,.wrench_stamped.wrench.force.y,.wrench_stamped.wrench.force.z,.wrench_stamped.wrench.torque.x,.wrench_stamped.wrench.torque.y,.wrench_stamped.wrench.torque.z,.tag
0,472.166381,47231.5,1518248445.0,709920331.0,,2282859.5,1518248445.0,709920331.0,,0.762116929706,-0.293963776693,0.127594764492,-0.0241226173759,0.999557187117,0.00452715430742,0.0168158055478,0.00734259982819,-0.00238134273368,-0.00677867670347,-0.0157136570663,-0.0189444825257,0.0152887658684,2.65271759033,0.1124650985,5.10033607483,0.321055844426,1.19630390406,0.384219884873,1592959.5,1518248445.0,704998292.5,,,,,,425465.5,1518248445.0,718992643.5,,0.108999994397,3.37300002575,-0.0340000391007,0.00100000016391,0.0204999996349,0.0349999992176,0.0
1,472.268945103,47239.5,1518248445.0,789921297.5,,2282867.5,1518248445.0,789921297.5,,0.762533153666,-0.294647847021,0.127618321047,-0.0238047926155,0.99956000321,0.00424434358812,0.0171786166159,-0.00962289926035,-0.00402560591052,-0.00790019244948,-0.012645153391,0.0165618705082,0.00989473004482,2.70486557483,0.152227342129,5.03612160683,0.290433645249,1.21862751245,0.397440806031,902717.0,1518248445.0,785999872.0,,,,,,425473.5,1518248445.0,799072450.0,,-0.070999997854,3.78799998761,0.231000006199,0.0190000003203,0.00249999994412,0.000500000081955,0.0
2,472.371509205,47253.5,1518248445.0,929924226.0,,2282881.5,1518248445.0,929924226.0,,0.76232477244,-0.294595636974,0.127288150553,-0.0237831793651,0.999563091911,0.00439499976587,0.0169833409393,-0.00481707732709,-0.00283978691476,-0.0111587247275,0.0017411895738,0.0100849163557,-0.00737278230191,2.59278285504,0.122550547123,5.17332983017,0.291327491402,1.15829670429,0.416699409485,1592974.5,1518248445.0,930003471.5,,,,,,425487.5,1518248445.0,939328936.0,,0.0890000134705,2.61300000548,-0.129000008107,0.01600000076,0.0109999999404,0.0239999992773,0.0
3,472.474073308,47261.5,1518248446.0,9932111.5,,2282889.5,1518248446.0,9932111.5,,0.762480346652,-0.293952871255,0.127609325639,-0.0239582699318,0.999551858499,0.00469724756559,0.0172982170022,-0.00966317166847,-0.0128438584267,0.00259041565846,-0.0331650001216,0.00866815959415,0.00390032235159,2.67182791233,0.172051146627,5.09981536865,0.235986068845,1.17935359478,0.372347906232,1592980.5,1518248446.0,6999011.0,,,,,,425495.5,1518248446.0,19851628.0,,0.944000017643,0.918000012635,0.180999994277,0.0105000003241,0.00750000029802,0.0104999998584,0.0
4,472.57663741,47271.5,1518248446.0,109922232.5,,2282899.5,1518248446.0,109922232.5,,0.762261808411,-0.294809207668,0.127523785081,-0.0233692787935,0.999572721731,0.00445332916251,0.0169815277912,0.00409965832391,0.00440493987682,0.00234816590292,-0.00047910275012,-0.00613279877495,0.0127863162469,2.4602034092,0.463822096586,5.02061414719,0.0785131603479,1.10398209095,0.365163937211,1592987.5,1518248446.0,108004251.0,,,,,,425505.5,1518248446.0,118927865.0,,0.134000015259,1.26800000667,-0.128999978303,0.0165000003762,-0.00050000008196,0.0314999995753,0.0
5,472.679201513,47283.5,1518248446.0,229946471.0,,2282911.5,1518248446.0,229946471.0,,0.761836632792,-0.294185920533,0.127245825187,-0.0241549424016,0.999560857812,0.00430925064378,0.016614065758,0.00516313013226,0.00248960231815,0.00369071485148,0.00272568942907,-0.016881280312,-0.0116953134306,3.11939990521,0.879627197981,5.17431378364,-0.167441830039,1.33233529329,0.314333841205,1592995.5,1518248446.0,231502592.0,,,,,,425517.5,1518248446.0,238620291.5,,1.90399999619,1.43299996853,-0.404000014066,0.0265000006184,-0.0324999997392,0.038999998942,0.0
6,472.781765615,47293.5,1518248446.0,329922890.0,,2282921.5,1518248446.0,329922890.0,,0.762193525883,-0.293998024428,0.127214313127,-0.0243707528784,0.999553351206,0.00414156628277,0.0167848219844,-0.00793201494116,9.4609245145e-05,-0.00270433652238,-0.00691449969009,0.0115217320565,0.00911917694216,2.42410099506,0.658501595259,5.0739865303,-0.0133676379919,1.09603571892,0.336622014641,2283266.5,1518248446.0,328010458.5,,,,,,425527.5,1518248446.0,339580471.0,,-0.301000016928,2.07299998402,0.135999977589,0.00749999983236,0.020499999635,0.0139999995008,0.0
7,472.884329718,47304.5,1518248446.0,439922493.0,,2282932.5,1518248446.0,439922493.0,,0.762130763978,-0.293453306626,0.127384887387,-0.0242496409254,0.999554858318,0.00447887576101,0.0167858158159,-0.0035258063689,-0.00483086722834,-0.000553344046865,-0.00226746613864,0.00315053044065,-0.00821509652457,2.57130610942,0.388570725917,5.10586738587,0.127857685089,1.11555105448,0.377528637648,1593010.5,1518248446.0,438506248.5,,,,,,425538.5,1518248446.0,448712306.5,,1.37900002003,3.68799996376,0.445999979973,0.00150000007124,0.0189999993891,-0.0305000012741,3.0
8,472.986893821,47314.5,1518248446.0,539934736.5,,2282942.5,1518248446.0,539934736.5,,0.76253695888,-0.293286692021,0.127666569834,-0.024543911344,0.999538465796,0.00464519939528,0.0172854214882,0.00490822955465,-0.0135891721375,0.00182289651435,0.0008642012314,-0.0169875038131,-0.0230503490562,1.78563159704,0.549549102783,5.28551912307,0.0673331171274,0.834585994482,0.36659887433,1593017.5,1518248446.0,539487247.0,,,,,,425548.5,1518248446.0,549925985.5,,-0.280999976397,2.80299996585,0.421000003815,-0.00450000003911,0.00949999969453,0.00400000018999,3.0
9,473.089457923,47325.5,1518248446.0,649925480.0,,2282953.5,1518248446.0,649925480.0,,0.762283349081,-0.293383619007,0.126970755323,-0.0245926668135,0.999539604362,0.00424462885648,0.0172545296785,-0.00200520153069,-0.00817844134396,-0.0126322181107,-0.00267205616225,-0.0051848812476,-0.0147563161564,1.09877441823,1.29677295685,4.79823303223,-0.340927347541,0.541393443942,0.296839103103,902752.0,1518248446.0,646000128.0,,,,,,425559.5,1518248446.0,658703264.5,,0.129000005126,2.52799998969,0.125999987125,-0.0320000005886,0.0344999991357,0.0415000002831,3.0
10,473.192022026,47330.5,1518248446.0,709921544.0,,2282959.5,1518248446.0,709921544.0,,0.762549297667,-0.292629596034,0.125887629209,-0.0253345022662,0.999508360235,0.00439736003618,0.0179360364367,0.00199344152182,0.00281795559001,-0.021850746024,-0.00483953789635,-0.0182969610888,0.00654820842225,0.948830127718,1.47119224072,4.82496380806,-0.389088049531,0.559819459915,0.305728703737,1593029.5,1518248446.0,705005275.5,,,,,,425565.5,1518248446.0,718386080.5,,-1.17599992752,2.78799996525,0.315999984741,0.0219999998807,0.027499999851,-0.00350000004982,3.0
11,473.294586128,47343.5,1518248446.0,829928732.5,,2282971.5,1518248446.0,829928732.5,,0.761016364846,-0.290911852669,0.123007699852,-0.0271521636457,0.999475706728,0.00398211105498,0.0171687128252,-0.0329465951022,0.0147801505182,-0.0338373674396,-0.014042226418,0.0648307926474,0.0414521875979,0.492415074257,1.36360728741,4.69274568558,-0.3681281358,0.452077165246,0.32425300777,2283316.5,1518248446.0,828008594.5,,,,,,425577.5,1518248446.0,839567112.0,,-1.32100002766,2.58799999953,-0.078999966383,0.0140000004321,0.0010000000475,-0.0045000000391,3.0
12,473.397150231,47354.5,1518248446.0,939923379.5,,2282982.5,1518248446.0,939923379.5,,0.755796088016,-0.289142646138,0.118895111298,-0.0301421276199,0.999468929329,0.00232632178355,0.0121577915281,-0.060273248426,0.0234509741046,-0.0369265530405,-0.0278372940271,0.116795517119,0.0798004756705,0.783544406295,0.774115443229,4.74228525161,0.0970109514892,0.338440585882,0.352728560567,1593045.5,1518248446.0,941004282.5,,,,,,425588.5,1518248446.0,950512222.0,,0.60399999544,1.20800000429,0.106000006199,0.00700000021605,0.00350000010803,0.0604999996722,3.0
13,473.499714333,47363.5,1518248447.0,29919787.5,,2282991.5,1518248447.0,29919787.5,,0.751195061673,-0.285719063785,0.114619100039,-0.0326797233931,0.999433570273,0.00272416178372,0.00751280533997,-0.0467445818977,0.0405491555036,-0.045836870557,0.0189730596728,0.0921235097147,0.0539359359665,1.08804914355,1.0411028862,4.20585918426,-0.122867137194,0.547674104572,0.350123405457,2283336.5,1518248447.0,27996364.0,,,,,,425597.5,1518248447.0,41259511.5,,0.323999997973,2.16299999506,0.28100001812,0.0164999999106,0.0210000006482,0.0309999994934,3.0
14,473.602278436,47376.5,1518248447.0,159917113.0,,2283004.5,1518248447.0,159917113.0,,0.746614830181,-0.280761465509,0.107583588602,-0.0369722198895,0.999305836575,0.00285749546378,0.00355089198678,-0.0390680235282,0.0460017948324,-0.0641812177148,0.0109522218491,0.0667769150714,0.0613149762219,1.22181785106,0.756984561682,4.43792486191,-0.0111824050546,0.61805409193,0.349519148469,1593061.0,1518248447.0,156507424.0,,,,,,425610.5,1518248447.0,169090071.0,,0.674000003189,3.67799997329,-0.0589999854565,0.000499999849125,0.0135000003502,-0.00850000022909,3.0
15,473.704842538,47385.5,1518248447.0,249925295.5,,2283013.5,1518248447.0,249925295.5,,0.743532384121,-0.277103326269,0.10239266191,-0.0394486264575,0.99921558733,0.00337133719958,0.00052764630068,-0.0304634510491,0.0349640697538,-0.0557967307554,-0.00880141438482,0.0554950293484,0.0593403661548,0.503967374563,0.44534188509,5.32537937164,0.18419624865,0.320325821638,0.378272175789,902775.5,1518248447.0,244000000.0,,,,,,425619.5,1518248447.0,259828143.5,,1.23399999812,1.99299997091,-0.474000006914,0.0175000000745,-0.00849999999627,0.0149999996647,3.0
16,473.807406641,47393.5,1518248447.0,329928921.5,,2283021.5,1518248447.0,329928921.5,,0.739915779882,-0.274416050631,0.0976576408707,-0.0420140454031,0.999106087374,0.00328648954755,-0.00328512293918,-0.0391577283957,0.0407584088716,-0.0463106041481,0.00027498992787,0.100085088161,0.0634918576535,1.67271190882,0.336058869958,5.31641888618,0.260075129568,0.774101793766,0.397566869855,1593072.5,1518248447.0,330003476.0,,,,,,425627.5,1518248447.0,340209796.0,,0.159000006318,2.21799999475,-0.379000008107,0.0280000008643,-0.0079999998561,0.0470000002533,3.0
17,473.909970744,47406.5,1518248447.0,459919158.5,,2283034.5,1518248447.0,459919158.5,,0.734143322179,-0.271202227984,0.091527985136,-0.0449213180949,0.998938756852,0.00327563486794,-0.00962068485356,-0.0383723176616,-0.00771434932428,-0.0466716709475,-0.0670726167689,0.079938430079,0.0550963904326,1.05062076449,0.144337505102,4.52426838874,0.378702238203,0.555196762085,0.405315682292,1593082.0,1518248447.0,458997470.0,,,,,,425640.5,1518248447.0,469867161.5,,1.68899999261,3.85799998045,-0.854000009597,0.0239999992773,0.0169999999925,0.0224999999627,3.0
18,474.012534846,47414.5,1518248447.0,539917361.5,,2283042.5,1518248447.0,539917361.5,,0.730965195821,-0.270836375671,0.0875266046775,-0.0467647800946,0.998817084057,0.00223571328267,-0.013127857551,-0.0370509294074,0.000421189473315,-0.0657663310948,-0.0148697579717,0.0774547228779,0.0211721326184,2.17598289251,0.538243979216,4.71983504295,0.124854166061,0.857399702072,0.325673982502,902787.0,1518248447.0,539000064.0,,,,,,425648.5,1518248447.0,550285524.0,,1.34900000393,2.64299997688,-0.479000002145,0.0260000005365,0.0134999994188,0.0390000008047,3.0
19,474.115098949,47426.5,1518248447.0,659918827.5,,2283054.5,1518248447.0,659918827.5,,0.72999732543,-0.269985983469,0.0824319323187,-0.0476113245427,0.99877016714,0.0022014004993,-0.0136451106365,-0.00921107992832,-0.00699951786735,-0.0344450797539,-0.00964440264623,0.0182806044091,-0.0113304246454,0.170683391392,0.780358672142,4.85630393028,-0.0451452061534,0.208856444806,0.289054304361,1593096.0,1518248447.0,659503879.5,,,,,,425660.5,1518248447.0,669721668.0,,1.51399998068,3.18799999356,0.760999977588,0.00200000009499,0.0129999998025,0.0539999995381,3.0
20,474.217663051,47434.5,1518248447.0,739917911.5,,2283062.5,1518248447.0,739917911.5,,0.712947491956,-0.271599927169,0.0790777895408,-0.0478739824963,0.998299898879,0.00175451678252,-0.0331856599081,-0.333787406194,-0.0284684069069,-0.0411046715339,-0.069983517868,0.781688846976,0.0264069077806,10.1467843056,1.32148528099,-0.955374062061,-0.10214355588,1.04238930345,0.300313681364,1593101.0,1518248447.0,737008415.5,,,,,,425668.5,1518248447.0,750109756.0,,-1.61099998951,3.7729999423,-0.148999989033,0.0214999988676,-0.0169999990612,-0.00249999994411,3.0
21,474.320227154,47446.5,1518248447.0,859929334.0,,2283074.5,1518248447.0,859929334.0,,0.695979070968,-0.279294520777,0.072212489854,-0.0486119039831,0.997465021462,-0.00430693449732,-0.0517843610307,0.00414047454395,-0.0647588266655,-0.0649664199209,-0.109050287985,-0.043188936722,0.0143254495459,11.9725461006,2.31150007248,4.88173627854,0.110780842602,3.65507507324,0.276498004794,1593109.5,1518248447.0,855518605.0,,,,,,425680.0,1518248447.0,865155957.0,,1.25399999022,4.27799999714,1.47099995613,-0.0280000008643,0.188999995589,0.0140000004321,-1.0
22,474.422791256,47458.5,1518248447.0,979923314.0,,2283086.5,1518248447.0,979923314.0,,0.702690697883,-0.279957918348,0.066465614226,-0.045899482774,0.998014508126,-0.00234803282512,-0.043063642146,0.0601293375179,0.000846378625295,-0.00862871408426,0.0381878735692,-0.149590736507,-0.0508052977791,7.37912988663,3.0517269373,6.26952648163,-0.851226896048,2.52376616001,0.291352510452,2283431.5,1518248447.0,978018530.5,,,,,,425692.5,1518248447.0,989599841.5,,1.04400000423,1.73799998313,0.820999979973,0.0299999993295,0.00550000020303,0.0444999989122,-1.0
23,474.525355359,47466.5,1518248448.0,59923330.0,,2283094.5,1518248448.0,59923330.0,,0.706786909633,-0.279166531477,0.0669499546631,-0.0464996311338,0.998179914008,-0.00271142709706,-0.0383000959869,0.0686902576199,0.0138097377727,0.0123817196574,0.00429038288422,-0.161326251357,0.0264890616139,3.96720862388,2.22359013557,5.69238948822,-0.275458127261,1.64036643506,0.344134688378,1593123.5,1518248448.0,53507007.5,,,,,,425700.5,1518248448.0,69580078.0,,1.91900001168,1.97799998521,0.81099998951,0.0160000002943,0.0315000005066,0.0374999996275,-1.0
24,474.627919462,47477.5,1518248448.0,169920481.0,,2283105.5,1518248448.0,169920481.0,,0.709463487166,-0.276868736945,0.0690931205527,-0.0475218062514,0.998232477658,-0.00209415823567,-0.0356242094968,0.0119332088975,0.0248547114299,0.028364755989,-0.011973550465,-0.0139710669232,0.0464637659029,3.15064668655,0.813066273928,4.08038640022,0.301267512142,1.38849055767,0.408576592803,2283450.5,1518248448.0,168014810.5,,,,,,425711.5,1518248448.0,180249158.5,,0.104000014067,2.95299997925,0.0959999561312,0.0140000004321,0.00550000020303,0.0439999997616,-1.0
25,474.730483564,47488.5,1518248448.0,279924165.0,,2283116.5,1518248448.0,279924165.0,,0.710769951917,-0.273407517904,0.0694073405212,-0.0484277487649,0.998228763504,-0.000400901538104,-0.0345518600442,-0.012596271037,0.0100172251227,-0.000312062640104,0.0171267563006,0.0547091616742,-0.00733814076212,2.19711643457,0.374365091324,4.74228835106,0.393907025456,1.05121222139,0.407676696778,2283461.5,1518248448.0,278003785.5,,,,,,425722.5,1518248448.0,291176741.5,,0.399000000954,1.72799998521,0.191000044345,0.00950000016018,0.00750000029802,0.0364999994635,-1.0
26,474.833047667,47495.5,1518248448.0,349921752.5,,2283123.5,1518248448.0,349921752.5,,0.710811693519,-0.272512111241,0.0691915387752,-0.0489980964863,0.998197678389,-0.00020391501295,-0.0346460142934,0.00607687544003,0.0033349322783,-0.00878930332883,-0.013297114635,-0.0142488210548,0.025603414094,2.99338448048,0.575954198837,5.4728205204,0.271754257381,1.42897593975,0.391243308783,902819.0,1518248448.0,347000064.0,,,,,,425729.5,1518248448.0,361267372.5,,-0.0660000026225,3.67799997329,-0.148999989033,0.00150000001304,0.0210000006482,0.0240000011399,-1.0
27,474.935611769,47508.5,1518248448.0,479922629.0,,2283136.5,1518248448.0,479922629.0,,0.710098937024,-0.272285512872,0.070066525454,-0.0494757033541,0.998126624249,-0.000693951211611,-0.0359813176139,-0.00501074093827,0.0118163960729,0.0151399457625,0.00157511406861,0.0324265718663,0.0181372987817,1.9234238863,0.557166606188,5.01064801216,0.341821521521,0.897285640239,0.411177903414,2283481.5,1518248448.0,478023350.0,,,,,,425742.5,1518248448.0,490725583.0,,1.50400002003,3.52300000191,0.161000013351,0.00600000005215,0.00999999977647,0.0490000005812,-1.0
28,475.038175872,47519.5,1518248448.0,589927034.0,,2283147.5,1518248448.0,589927034.0,,0.711383425915,-0.271611294941,0.0704298966952,-0.0498108874668,0.998156308036,-0.000458709349114,-0.0346778462718,0.0383259540755,0.021771230296,0.0116502517349,0.0259422354242,-0.08770373312,0.0247651673111,1.6790715456,0.942009985447,5.18895220757,0.441975682973,0.941704839468,0.490885213017,1593160.5,1518248448.0,591506412.5,,,,,,425753.0,1518248448.0,595556150.5,,2.7339999795,3.02799996733,0.625999987125,0.00399999995716,0.0155000002123,0.0365000013262,-1.0
29,475.140739974,47529.5,1518248448.0,689919654.0,,2283157.5,1518248448.0,689919654.0,,0.712079020001,-0.271200267503,0.0709825207879,-0.05033694797,0.998141932691,-0.000306711477894,-0.0343325517831,0.0171081276417,0.017298627192,0.00394271220673,0.0103955460251,-0.0353382945757,0.0207010790912,3.7651399374,0.818486243487,5.2929611206,0.400506362319,1.59155595303,0.435092881322,2283502.0,1518248448.0,683016499.0,,,,,,425763.0,1518248448.0,696396882.0,,2.61399997473,3.07799994946,-0.239000022411,-0.0010000000475,0.0500000007451,0.0520000010729,-1.0
30,475.243304077,47537.5,1518248448.0,769921115.5,,2283165.5,1518248448.0,769921115.5,,0.713430470872,-0.270603126416,0.0717798415198,-0.0500280662396,0.998206443575,-5.89894666015e-05,-0.0328755928222,0.0277778366449,0.0126667293438,0.0144946201967,0.0189601527251,-0.0600081494503,0.00856214814943,2.17594313622,0.704029679299,5.08902978897,0.382701471448,1.05069959163,0.429829999804,1593173.5,1518248448.0,770004470.0,,,,,,425771.5,1518248448.0,780966541.0,,0.634000000358,1.70299999416,-0.129000008106,0.00350000010803,0.0315000005066,0.0509999990463,-1.0
31,475.345868179,47550.5,1518248448.0,899918770.0,,2283178.5,1518248448.0,899918770.0,,0.71407869137,-0.269673826876,0.0725597425689,-0.0507745728881,0.99818324748,0.000458349977323,-0.0324311447336,-0.0051281012179,0.00372239343668,-0.00181214174595,0.0021185725933,0.0105853419328,0.0145301977173,2.63075387478,0.889491498471,4.90635943413,0.398653209209,1.19146120548,0.453870683908,1593181.5,1518248448.0,893504265.0,,,,,,425784.5,1518248448.0,912439906.5,,0.878999997675,3.5379999876,0.0160000324251,-0.00150000007124,0.0455000009387,0.0555000007153,-1.0
32,475.448432282,47557.5,1518248448.0,969920253.0,,2283185.5,1518248448.0,969920253.0,,0.714607891561,-0.270006221454,0.0728272262513,-0.0503255851263,0.998224194072,0.000285005506294,-0.0318684097433,0.0098157016523,0.0131959553853,-0.000761102978591,0.0103229292152,-0.0265132745396,0.0137628565909,0.167542032897,0.670526146889,6.38968253135,0.387658894062,0.311318047345,0.44290408492,1593187.5,1518248448.0,970503822.5,,,,,,425791.5,1518248448.0,981037407.0,,2.07400001288,3.82800000906,-0.168999999761,0.00450000003911,0.0455000009388,0.0329999998211,-1.0
33,475.550996385,47571.5,1518248449.0,109081256.0,,2283199.5,1518248449.0,109081256.0,,0.71392415423,-0.269774439433,0.0738130936462,-0.0508579493603,0.99816927229,0.000203760503264,-0.032731686818,-0.000234357030455,0.00950541580049,0.0197698877142,-0.00394832140149,0.00720056184999,0.0201610603329,0.154259070754,0.554521679878,5.74920868874,0.452014252543,0.28511525318,0.442560076714,902849.5,1518248449.0,111500032.0,,,,,,425805.5,1518248449.0,121257434.5,,1.19400001764,1.57299999799,0.220999956131,0.00700000009964,-0.0130000002682,0.0340000018477,-1.0
34,475.653560487,47577.5,1518248449.0,169086027.5,,2283205.5,1518248449.0,169086027.5,,0.713967700353,-0.269823024617,0.0742011054667,-0.0503368430776,0.99818913091,0.000343060616478,-0.0329285974668,-0.00784315532487,-0.00999323569141,-0.00712723921758,-0.00633107189781,0.0236896321068,-0.0124802855078,2.24611783027,0.606174081564,5.48689413071,0.464085817338,0.910500973461,0.430731236934,1593201.5,1518248449.0,170568908.5,,,,,,425811.5,1518248449.0,181033577.0,,1.56899998784,2.33299998939,0.386000037193,0.00499999988824,-0.00050000002375,0.0680000036955,-1.0
35,475.75612459,47591.5,1518248449.0,309080057.5,,2283219.5,1518248449.0,309080057.5,,0.715566849006,-0.270037784734,0.0745042530176,-0.0498943494683,0.998266564912,0.000527019378716,-0.0312086694232,-0.00315905956822,-0.0007586533972,0.00409406345776,0.0023477574629,-0.00377713737119,-0.0020968591887,0.025994285941,0.549322098494,5.73999738694,0.519112914801,0.288890555501,0.448958605528,902857.5,1518248449.0,313000064.0,,,,,,425825.5,1518248449.0,321237017.0,,1.66899999678,1.9279999882,-0.584000021219,0.0310000004247,-0.00199999997858,0.0309999994934,-1.0
36,475.858688692,47598.5,1518248449.0,379080865.0,,2283226.5,1518248449.0,379080865.0,,0.715005970696,-0.269594124426,0.0745499088822,-0.0508785169322,0.998196841211,0.000329047182232,-0.0318460312781,-0.00856739665347,0.00077689892062,0.00336155128361,0.00213429335311,0.0254594336126,-0.00432980749515,1.40190303326,0.514566361905,5.45730423928,0.52052885294,0.643028259277,0.435925126075,2283571.5,1518248449.0,377132800.5,,,,,,425832.5,1518248449.0,391233468.0,,0.573999997971,3.32299998402,0.110999941826,0.00599999981932,0.00350000010803,0.0535000003874,-1.0
37,475.961252795,47609.5,1518248449.0,489076698.0,,2283237.5,1518248449.0,489076698.0,,0.715117851252,-0.269202725418,0.0740905154096,-0.050488613403,0.998216012599,0.000777798777656,-0.0318551148926,0.00014644470424,-0.00848711671968,-0.00208400346481,-0.00748896442018,0.0016692026354,-0.0103370553767,0.350746758282,0.589083582163,6.09014177323,0.482706710697,0.401743620634,0.438599854707,2283582.0,1518248449.0,482155702.0,,,,,,425843.0,1518248449.0,495868351.0,,1.05900000483,2.89299997688,0.640999972821,0.00799999991431,0.00550000020303,0.0400000000373,-1.0
38,476.063816897,47620.5,1518248449.0,599081893.5,,2283248.5,1518248449.0,599081893.5,,0.715239636205,-0.269183506532,0.0750504409993,-0.0501670634966,0.998247509091,0.00100222778451,-0.0313710475431,-0.0062845359517,-0.00133431835131,0.00493007694374,-0.00755236150928,0.0101102906534,0.0138164147438,0.484851703048,0.582941696048,7.04080462456,0.497261688113,0.315225437283,0.443236351013,2283592.0,1518248449.0,582175406.0,,,,,,425854.0,1518248449.0,606797786.5,,1.32899999879,3.18799996376,0.615999996662,0.00699999998324,0.00749999983236,0.0434999996796,-1.0
39,476.166381,47628.5,1518248449.0,679077663.5,,2283256.5,1518248449.0,679077663.5,,0.715260662874,-0.269248926241,0.076212222922,-0.0504718456228,0.998234888141,0.000754196526961,-0.0312878754812,0.00870304795162,0.00572020899941,0.0135390316936,-0.00219213473981,-0.024363424885,0.0167147357521,-0.0977175310254,0.564171314239,5.96024227142,0.534254938364,0.157521594316,0.453647062183,2283601.5,1518248449.0,677155115.5,,,,,,425862.0,1518248449.0,686847812.0,,0.91400000155,3.00800001621,0.340999960899,0.00800000037998,0.0280000008643,0.0410000011325,-1.0
