,Unnamed: 0,.header.seq,.header.stamp.secs,.header.stamp.nsecs,.header.frame_id,.endpoint_state.header.seq,.endpoint_state.header.stamp.secs,.endpoint_state.header.stamp.nsecs,.endpoint_state.header.frame_id,.endpoint_state.pose.position.x,.endpoint_state.pose.position.y,.endpoint_state.pose.position.z,.endpoint_state.pose.orientation.x,.endpoint_state.pose.orientation.y,.endpoint_state.pose.orientation.z,.endpoint_state.pose.orientation.w,.endpoint_state.twist.linear.x,.endpoint_state.twist.linear.y,.endpoint_state.twist.linear.z,.endpoint_state.twist.angular.x,.endpoint_state.twist.angular.y,.endpoint_state.twist.angular.z,.endpoint_state.wrench.force.x,.endpoint_state.wrench.force.y,.endpoint_state.wrench.force.z,.endpoint_state.wrench.torque.x,.endpoint_state.wrench.torque.y,.endpoint_state.wrench.torque.z,.joint_state.header.seq,.joint_state.header.stamp.secs,.joint_state.header.stamp.nsecs,.joint_state.header.frame_id,.joint_state.name,.joint_state.position,.joint_state.velocity,.joint_state.effort,.wrench_stamped.header.seq,.wrench_stamped.header.stamp.secs,.wrench_stamped.header.stamp.nsecs,.wrench_stamped.header.frame_id,.wrench_stamped.wrench.force.x,.wrench_stamped.wrench.force.y,.wrench_stamped.wrench.force.z,.wrench_stamped.wrench.torque.x,.wrench_stamped.wrench.torque.y,.wrench_stamped.wrench.torque.z,.tag
0,410.16429,41029.5,1518248383.0,689832552.5,,2276657.5,1518248383.0,689832552.5,,0.762134039175,-0.292703282726,0.126547156394,-0.0267262655147,0.999502046387,0.00347250075738,0.0164070722033,0.00995963225122,-0.00516903489409,0.00480451437414,-0.00323221586875,-0.0204416514489,-0.00024287066043,4.18470907211,0.208003610373,4.64617729187,0.319648936391,1.80089360476,0.366996333003,1588631.0,1518248383.0,681961049.0,,,,,,419269.5,1518248383.0,695957988.5,,3.19599999189,-1.9289999783,-0.621000000835,0.035000000149,-0.0269999997691,0.0375000014901,3.0
1,410.266854103,41041.5,1518248383.0,809844807.0,,2276669.5,1518248383.0,809844807.0,,0.762203161749,-0.291602949899,0.126843954526,-0.0271194839891,0.999485947317,0.00422346703611,0.016566576961,0.00289440210998,0.00822697078896,0.00135144107634,-0.0021018960152,-0.00677526209452,0.0180373803796,1.59280222654,0.492035835982,4.83108258247,0.132673803717,0.798137426376,0.355359360576,2277014.5,1518248383.0,807920491.0,,,,,,419281.5,1518248383.0,815725968.0,,2.14099999219,-1.80899997354,-0.215999999642,0.00200000032781,0.0065000001341,0.0650000013411,3.0
2,410.369418205,41049.5,1518248383.0,889832662.0,,2276677.5,1518248383.0,889832662.0,,0.761944952934,-0.292131684208,0.126240014144,-0.0266109868262,0.99950372342,0.00394072790586,0.0163807974685,0.00408545934059,-0.00316470039094,0.00346560757682,-0.00855875919654,-0.014120577502,-0.00914910212088,1.98020350933,0.636057257652,4.9457514286,0.0709906369446,0.893622606992,0.350303411484,1588645.0,1518248383.0,883459194.0,,,,,,419289.5,1518248383.0,895803427.0,,3.21599997282,-1.03899999261,-0.655999997259,0.0230000000447,-0.0214999997988,0.0339999999851,3.0
3,410.471982308,41062.5,1518248384.0,19825835.5,,2276690.5,1518248384.0,19825835.5,,0.761616562082,-0.291565901611,0.124642256809,-0.0276361597547,0.999462231722,0.00364857423283,0.0172613420862,-0.0032975377304,0.0187474884008,-0.0260557820726,-0.00701063018359,-0.0164855629536,0.0382114115683,0.65419086814,1.32655543089,4.88360309601,-0.353141695261,0.528235211968,0.276149734855,2277035.5,1518248384.0,17927873.0,,,,,,419302.5,1518248384.0,26837361.0,,3.7759999752,-1.61399998069,-0.425999978184,0.0390000008046,-0.0300000002608,0.0544999986887,3.0
4,410.57454641,41073.5,1518248384.0,129838840.5,,2276701.5,1518248384.0,129838840.5,,0.757756117228,-0.290229540909,0.120283194114,-0.029112528443,0.999475517059,0.00346434016116,0.0137520490294,-0.034384342011,0.0187701235165,-0.0378509620816,-0.0116696613836,0.0540234336155,0.0395197283067,1.08668300509,1.29138779641,5.3902118206,-0.23914834857,0.658743157982,0.313077747821,2277046.0,1518248384.0,122927905.0,,,,,,419313.5,1518248384.0,135809931.0,,2.76099998951,-4.14899994731,-0.455999979377,0.0154999997467,-0.0154999997467,0.0734999999404,3.0
5,410.677110513,41081.5,1518248384.0,209832295.0,,2276709.5,1518248384.0,209832295.0,,0.753948929053,-0.288150329647,0.117318650837,-0.0312714228632,0.99945467221,0.0031383592525,0.0101288401863,-0.0575597018943,0.00868692247379,-0.0331614202658,-0.0232014061917,0.115604105713,0.0291182628329,0.0518210232255,1.34106880426,5.12393474579,-0.271524995566,0.220928618684,0.307058334351,2277055.0,1518248384.0,212906376.5,,,,,,419322.0,1518248384.0,222342836.5,,2.86599997878,-2.15399997234,0.30900003612,0.00700000021606,-0.00600000011035,0.0475000012666,3.0
6,410.779674615,41091.5,1518248384.0,309836615.0,,2276719.5,1518248384.0,309836615.0,,0.748402250028,-0.28507171223,0.112902709656,-0.034048132219,0.999404028832,0.00301904744512,0.00479492629834,-0.0325861466399,0.0218764616207,-0.049886809351,-0.0320867221304,0.0436438387679,0.049811812027,4.42046022415,1.18093013763,4.39889860154,-0.255865514279,1.65644454957,0.318964973092,1588675.0,1518248384.0,309455579.5,,,,,,419331.5,1518248384.0,317474982.0,,2.73599998355,-1.55399997831,-0.371000000834,0.00099999993108,0.0319999996572,0.051000000909,3.0
7,410.882238718,41104.5,1518248384.0,444831876.0,,2276733.0,1518248384.0,444831876.0,,0.74478502872,-0.279620830878,0.105369554863,-0.0394371109778,0.999217654197,0.00245967727056,0.00151834410778,-0.0340394181502,0.0373342032072,-0.0674616766902,0.00393662607707,0.0572411120463,0.06308579497,2.17277902365,0.750797986984,5.03995585442,0.0843275934456,0.973421514034,0.33795338869,1588683.5,1518248384.0,436962560.0,,,,,,419345.0,1518248384.0,451361508.0,,1.79099998698,-1.10399997532,0.134000024199,0.00900000031104,-0.00700000015785,0.0299999993295,3.0
8,410.984802821,41111.5,1518248384.0,509849395.5,,2276739.5,1518248384.0,509849395.5,,0.742941409906,-0.276783357344,0.101520581223,-0.0413509959886,0.999140177639,0.0029531017216,-0.000134500412622,-0.0259659473399,0.053656600494,-0.0577098482277,0.0168209011537,0.0460225130654,0.072901743901,1.40805083513,0.455320894718,5.04428553581,0.19217658788,0.666424900293,0.348486289382,1588689.0,1518248384.0,510460060.0,,,,,,419351.5,1518248384.0,517136273.0,,0.720999968052,0.0609999716285,-0.190999993682,-0.000499999849125,0.00600000005215,0.0250000003725,3.0
9,411.087366923,41121.5,1518248384.0,609828088.5,,2276749.5,1518248384.0,609828088.5,,0.739222727556,-0.273308585027,0.0956440120025,-0.0444142602221,0.998999260833,0.00317715183669,-0.00418861601683,-0.0560884302373,0.027014201758,-0.0635395752824,4.6365352897e-05,0.139355775599,0.038857861396,1.34352579713,0.623775780201,5.00455355644,0.111685231328,0.78059054911,0.33321788907,2277095.0,1518248384.0,612895787.5,,,,,,419362.0,1518248384.0,624113845.0,,2.17099997848,-0.388999956846,0.059000006318,0.0125000000698,-0.0104999998584,0.0189999993891,3.0
10,411.189931026,41132.5,1518248384.0,719833277.5,,2276760.5,1518248384.0,719833277.5,,0.733248191611,-0.26977626271,0.0894575313203,-0.0463464370325,0.99885326091,0.00419940376616,-0.0112410625545,-0.0690781110459,0.0333372797209,-0.0676845230832,0.0110768887425,0.169710917504,0.0440745056425,1.77914893627,0.415198609232,4.55227804184,0.178009454161,0.804256767034,0.313457503915,2277105.5,1518248384.0,717912419.5,,,,,,419372.5,1518248384.0,727173826.0,,1.74599998798,-1.49899998605,-0.170999982953,0.0104999998584,-0.00700000015785,0.0370000004768,3.0
11,411.292495128,41142.5,1518248384.0,819833993.0,,2276770.5,1518248384.0,819833993.0,,0.729264212491,-0.267970048183,0.0845358689429,-0.0483283723587,0.998703160905,0.00408277391706,-0.015481094515,-0.0291976181231,0.0151689660687,-0.0581813610756,-0.0198416900047,0.0617769059485,0.0587906764922,3.24707400799,0.609617471695,4.62411355973,0.0001856908202,1.23673564196,0.345796108246,2277115.5,1518248384.0,817919844.0,,,,,,419382.5,1518248384.0,827128536.0,,0.95100001693,-1.15399997234,-0.53599999249,0.0125000001862,0.00600000028498,0.0239999992773,3.0
12,411.395059231,41151.5,1518248384.0,909843676.5,,2276779.5,1518248384.0,909843676.5,,0.727287617546,-0.268429041875,0.0802956763633,-0.0501591524503,0.99858625919,0.00237055109882,-0.0174323383854,-0.00924766224662,0.00922120467452,-0.0389330788422,-0.0272258372528,0.0185000421348,0.0468578552296,-0.837858140471,0.705166161061,4.8805949688,0.0388560667632,-0.290477335453,0.296477153897,1588717.0,1518248384.0,909962305.0,,,,,,419392.0,1518248384.0,922047733.0,,2.0009999916,-1.6389999792,0.199000021815,0.0139999999665,0.00700000021605,0.0315000005066,3.0
13,411.497623333,41164.5,1518248385.0,39824952.0,,2276792.5,1518248385.0,39824952.0,,0.724091159919,-0.267548954402,0.0739593202238,-0.051792181288,0.998446412692,0.00214897833878,-0.0204287315336,-0.0279125216839,0.00661700295023,-0.0393225385574,-0.00544240595798,0.0546474663013,0.0187801117417,2.37052428722,1.17653012276,5.39007878304,-0.245480850339,1.1347322464,0.255067557097,900314.0,1518248385.0,25999872.0,,,,,,419404.5,1518248385.0,47732852.0,,1.59099999145,-2.43399997354,-0.430999973416,0.0144999995828,-0.0164999996777,0.0344999991357,3.0
14,411.600187436,41176.5,1518248385.0,159829922.5,,2276804.5,1518248385.0,159829922.5,,0.722535704954,-0.265831910376,0.0703531175341,-0.05222819182,0.998401808367,0.00271942095177,-0.0214109508588,-0.0201950918114,-0.000326152234695,-0.0327942107421,0.00421787245866,0.0432410759062,-0.0540447643871,2.84540915489,0.916470944882,5.02370119095,-0.049553193152,1.15540066361,0.263998940587,1588734.5,1518248385.0,160956440.0,,,,,,419416.5,1518248385.0,167375274.0,,3.01599998474,-1.38899995685,0.649000009894,0.0250000003725,-0.035500000231,0.0434999987483,3.0
15,411.702751538,41185.5,1518248385.0,249833224.5,,2276813.5,1518248385.0,249833224.5,,0.723236772325,-0.265360322965,0.0677388852969,-0.0519802330068,0.998442303226,0.00287122641188,-0.0200595749346,0.00929569446127,-0.0017984668515,-0.0318641349057,0.0100890576234,-0.0220030089132,-0.0127791044625,2.63701426983,1.08717536926,4.33772444725,-0.178519330919,1.14711779356,0.267841294408,1588740.5,1518248385.0,240467269.5,,,,,,419425.5,1518248385.0,257767770.5,,2.40599998161,-2.25399998129,0.103999993205,0.000500000023745,-0.00800000037998,0.0515000000596,3.0
16,411.805315641,41193.5,1518248385.0,329833560.0,,2276821.5,1518248385.0,329833560.0,,0.722133711722,-0.264631898398,0.0654350542358,-0.0525310078255,0.998388141129,0.00306021785865,-0.0212630101177,-0.0205436688787,0.0300150307607,-0.0246381210228,0.0187962994155,0.0502114664724,0.0240712314044,1.61585360766,1.31637716293,3.8199480772,-0.286704495549,0.640336036682,0.249639444054,1588746.0,1518248385.0,325965875.0,,,,,,419433.5,1518248385.0,337910722.5,,2.44099999667,-0.348999935388,0.163999995589,0.0110000004061,-0.0270000007003,0.0075000001816,3.0
17,411.907879744,41205.5,1518248385.0,449829465.5,,2276833.5,1518248385.0,449829465.5,,0.720738735625,-0.26421909273,0.0614560266826,-0.0535156168037,0.998300328913,0.00267010216299,-0.0229171126856,-0.0152386867775,0.0127772487016,-0.0334775745374,0.0074958599954,0.0369661559691,0.0200933403918,2.83387327194,1.02048522234,3.60146033764,-0.143109731376,1.08867043257,0.255434498191,1588754.5,1518248385.0,441964657.0,,,,,,419445.5,1518248385.0,456960226.5,,2.49600000381,-1.76399997547,-0.500999996066,0.0129999998026,-0.0135000003502,0.0439999997616,3.0
18,412.010443846,41213.5,1518248385.0,529828445.0,,2276841.5,1518248385.0,529828445.0,,0.720693458055,-0.263301276345,0.058422653504,-0.0537887802694,0.998289677281,0.00323241140436,-0.0226665817844,-0.0147514154642,0.0157555008892,-0.0465109438641,0.0188995298951,0.0247633958202,0.0021930917202,2.78169155121,0.798270106315,4.344997406,-0.0435531437397,1.22342652082,0.250778123736,1588760.0,1518248385.0,527463681.0,,,,,,419453.5,1518248385.0,539122213.5,,1.82099999189,-1.42899997831,-0.0259999722244,0.00699999975041,-0.0175000000745,0.0465000011027,3.0
19,412.113007949,41227.5,1518248385.0,669835448.5,,2276855.5,1518248385.0,669835448.5,,0.719351659986,-0.263200442483,0.0528361465618,-0.0537401142642,0.998259501623,0.00329375027521,-0.0240647423936,-0.00421933476732,-0.0074700605846,-0.0472552430129,-0.0258726608305,0.00517158580698,0.0241130999526,3.23796486855,1.57148957252,4.34992384911,-0.463025331497,1.35558778048,0.199631571769,1588770.0,1518248385.0,668962183.5,,,,,,419467.5,1518248385.0,679137449.5,,2.76599998474,-1.2090000093,0.429000040889,0.0159999998287,-0.0144999995828,0.0505000017583,3.0
20,412.215572051,41237.5,1518248385.0,769830375.0,,2276865.5,1518248385.0,769830375.0,,0.700725155883,-0.264189362076,0.0488531965236,-0.0544935093362,0.997482636753,0.0021699647546,-0.0453197565483,-0.247910323429,-0.00486810675239,-0.0578225130786,-0.0385871567113,0.534775623939,0.0281359429481,17.4954667092,0.879459619522,-1.10403296351,0.288051232695,4.30948960782,0.319628104568,1588777.0,1518248385.0,768961707.0,,,,,,419477.5,1518248385.0,778034695.0,,3.32600004673,-1.72399999499,-0.790999987722,0.0644999966025,0.211999997497,0.0574999991805,-1.0
21,412.318136154,41247.5,1518248385.0,869830455.5,,2276875.5,1518248385.0,869830455.5,,0.698586606264,-0.267011570354,0.0440241411107,-0.0557857969918,0.997328600505,-0.000230996353244,-0.0471515871463,0.0831577925387,-0.0229139626438,-0.0470422716786,-0.0474105913409,-0.225454912933,0.0589607003,5.14485645294,1.33724069595,4.78092026711,-0.148883417249,1.65399086475,0.298028483987,1588784.0,1518248385.0,869465418.0,,,,,,419487.5,1518248385.0,878978820.5,,4.23599995374,-0.968999999762,0.113999983668,-0.0015000011772,0.121999997646,0.0325000002049,-1.0
22,412.420700256,41258.5,1518248385.0,979111894.0,,2276886.5,1518248385.0,979111894.0,,0.710066235996,-0.267214032393,0.0399718683237,-0.0561230460401,0.997860272298,-0.000637873554657,-0.0335358130618,0.0211765185039,0.0121029821174,0.00446396242312,0.0146965514814,-0.0304936469544,-0.00594243321715,-1.85267776251,1.47182327509,6.73764276504,-0.147537268698,0.0443881116807,0.317377492785,1588791.5,1518248385.0,979597856.0,,,,,,419498.5,1518248385.0,990098145.5,,1.89599999487,-2.47899997533,0.834000012279,0.00500000081955,-0.103499997407,0.0110000001732,-1.0
23,412.523264359,41268.5,1518248386.0,79111883.0,,2276896.5,1518248386.0,79111883.0,,0.706480941187,-0.266886752137,0.0409350752108,-0.0562397227761,0.997694277929,-0.000785187458275,-0.0379807546897,-0.0622186741853,-0.00064483614612,-0.0055334933296,-0.0121877312248,0.147533985667,0.010808847394,2.32953000068,1.15341621638,5.5674571991,-0.0153134837746,1.31081992388,0.302841469645,1588798.5,1518248386.0,80110341.0,,,,,,419508.5,1518248386.0,88865544.0,,1.4309999913,-1.04400001764,-0.120999971033,0.011499999091,0.0019999993965,0.0405000001192,-1.0
24,412.625828462,41278.5,1518248386.0,179112345.0,,2276906.5,1518248386.0,179112345.0,,0.702450851681,-0.265171696454,0.0412044099418,-0.0562232324217,0.997487987063,0.000562451399789,-0.0430830397129,0.00722681788297,0.0100108131897,0.00903371118842,0.0214601072967,-0.0050528379043,-0.0160748354233,1.69561648369,1.33863985538,4.066532135,-0.0944378823041,0.592247068882,0.315175905824,1588805.5,1518248386.0,180600135.5,,,,,,419518.5,1518248386.0,189913097.5,,2.61599997878,-1.3039999634,-0.0210000067951,0.00949999969453,0.0285000000149,0.0639999993145,-1.0
25,412.728392564,41288.5,1518248386.0,279118554.0,,2276916.5,1518248386.0,279118554.0,,0.703810768866,-0.263521531744,0.0407747949342,-0.0571274691969,0.997510586029,0.000976214110373,-0.0413274920773,-0.00237600555666,0.00223000050113,0.00261078807784,3.533175131e-05,0.00852661050788,0.0133606126191,1.44943255186,0.693642944098,5.03335618973,0.237122438848,0.695899963379,0.318693429232,1588812.5,1518248386.0,281085616.0,,,,,,419528.5,1518248386.0,288698041.5,,1.98599998355,-1.24399997592,0.433999976516,0.0325000006705,-0.0110000001732,0.0410000011325,-1.0
26,412.830956667,41295.5,1518248386.0,349118552.0,,2276923.5,1518248386.0,349118552.0,,0.704723433713,-0.263552947031,0.0413570028318,-0.0569715813985,0.997563108746,0.000785479110576,-0.0402667278885,0.000172371940945,0.00533267431615,-0.00035945141955,-0.00687979911817,0.000995130397465,0.0160263542779,2.57257378102,0.597649872303,5.16117858887,0.30260270834,1.23413330317,0.336163371802,1588817.5,1518248386.0,346600536.5,,,,,,419535.5,1518248386.0,358399248.0,,1.48599998355,-1.8889999792,0.00899996459485,0.0164999999106,-0.00349999999162,0.0555000007152,-1.0
27,412.933520769,41307.5,1518248386.0,469112414.5,,2276935.5,1518248386.0,469112414.5,,0.705751053087,-0.264245605059,0.0417296258649,-0.0567881664169,0.997599310096,0.000454221718289,-0.0396287875157,0.0205297534696,-0.00359627432075,0.00531518205147,-0.00127443751722,-0.0374581120251,-0.0112408495997,1.57760298252,0.863447725772,4.80140805244,0.207613736391,0.756011277437,0.325655549765,2277280.5,1518248386.0,467191489.5,,,,,,419547.5,1518248386.0,480020031.5,,2.57099999189,-0.343999999761,-0.945999990775,0.0405000001192,-0.00699999998324,0.0545000005514,-1.0
28,413.036084872,41319.5,1518248386.0,589109224.5,,2276947.5,1518248386.0,589109224.5,,0.707047665893,-0.264093147394,0.0423479735574,-0.0564899680294,0.997657168384,0.000741247614932,-0.0385787965461,0.0111255560698,0.0107900168678,0.0012727519849,0.0149175226234,-0.0230741835686,0.0111142859,1.92559254169,0.7391217947,4.84500718117,0.282944217324,0.913060307504,0.336646959186,1588833.5,1518248386.0,583602135.5,,,,,,419559.5,1518248386.0,599565682.5,,2.92100001574,-0.808999973536,-0.170999982953,0.00849999999627,-0.00549999985378,0.042500000447,-1.0
29,413.138648974,41328.5,1518248386.0,679113550.0,,2276956.5,1518248386.0,679113550.0,,0.707782349554,-0.263601880033,0.0430471801438,-0.0565069602482,0.997678648221,0.000856060738695,-0.037993466535,0.000484591186925,0.00949077308248,0.00772761849623,0.0031686975897,0.0086150627142,0.0193046391937,2.62493264675,0.639700949192,4.61207056046,0.300896525383,1.17556005717,0.316306546331,2277301.0,1518248386.0,672189386.0,,,,,,419568.5,1518248386.0,690141141.0,,1.88599998951,-1.88899997547,-0.31099999845,0.0150000005961,-0.0375000014901,0.0720000006258,-1.0
30,413.241213077,41339.5,1518248386.0,789114306.5,,2276967.5,1518248386.0,789114306.5,,0.708208287301,-0.264146139598,0.0434760893664,-0.0565934051533,0.997691604609,0.000589073079406,-0.0375263089494,0.00798166924473,-0.0172266967589,0.0120986160399,-0.0109761355974,-0.0105353891891,-0.0144218277658,0.793862909078,0.898651957512,5.50220870972,0.176834471524,0.472308546305,0.312535077333,1588847.5,1518248386.0,785099837.0,,,,,,419579.5,1518248386.0,799285355.5,,2.49100000858,-0.873999971151,-0.590999999642,0.0234999991953,-0.0239999992773,0.0670000016689,-1.0
31,413.343777179,41349.5,1518248386.0,889110109.5,,2276977.5,1518248386.0,889110109.5,,0.707805746456,-0.263674442681,0.0430898964103,-0.0565873603697,0.997673119817,0.000822326664843,-0.0380183688178,0.00719793378692,-0.0041531493852,0.00870231137783,0.00159308153802,-0.00433944059305,-0.0049939735268,2.16261136532,1.11138778925,5.37383723259,0.00943465530872,0.961479067803,0.277598962188,900387.0,1518248386.0,873999872.0,,,,,,419589.5,1518248386.0,900432228.5,,2.64599997997,-1.6939999789,-0.10600001514,0.0194999994711,-0.00550000020303,0.0650000013411,-1.0
32,413.446341282,41357.5,1518248386.0,969110479.0,,2276985.5,1518248386.0,969110479.0,,0.708436558301,-0.263417957238,0.0437412447393,-0.0566860037173,0.997690655784,0.000897386516182,-0.0374054949769,0.0220165311874,0.00239222454696,0.0112938886206,0.00834725349822,-0.041591566311,-0.00110562613935,2.05843424797,1.06978449226,5.49961996078,0.0101477503777,0.972853034735,0.270160198212,1588860.5,1518248386.0,968596088.5,,,,,,419597.5,1518248386.0,978698376.5,,1.93099998757,-2.09399997741,-0.245999971033,0.0295000001788,-0.0150000005961,0.0685000009835,-1.0
33,413.548905385,41370.5,1518248387.0,99115358.0,,2276998.5,1518248387.0,99115358.0,,0.698660511909,-0.262333303525,0.0450697881321,-0.0508571908649,0.997446988438,0.00283382440349,-0.0500379947534,-0.19775246291,0.0111769618236,0.0139688864986,0.0513111637218,0.469662345827,0.0690270735212,0.801506489515,1.02658325434,3.64168071747,0.0678706914187,-1.15321969986,0.448509976268,1588869.5,1518248387.0,89086339.0,,,,,,419610.5,1518248387.0,110198598.0,,3.19099996686,2.19600002169,-0.536000007391,-0.0590000003577,0.261500000954,0.148499999195,-1.0
34,413.651469487,41381.5,1518248387.0,209114603.0,,2277009.5,1518248387.0,209114603.0,,0.696538992221,-0.261772797352,0.0440229727233,-0.0527145654112,0.997271468318,0.00364835637777,-0.0515505656294,0.0175991770933,0.0158402980063,0.00934485328527,0.0156589924105,-0.0546444267342,0.0010661734259,3.85826158524,0.526131659746,6.64857172966,0.316404014826,0.62065179646,0.517938017845,2277354.5,1518248387.0,207191325.0,,,,,,419621.5,1518248387.0,218680331.0,,3.72600002289,-0.139000016451,-0.485999980569,-0.00450000015553,0.483000010252,0.266000002623,-1.0
35,413.75403359,41389.5,1518248387.0,289105240.5,,2277017.5,1518248387.0,289105240.5,,0.697518394172,-0.260401529007,0.0446039224574,-0.0519645671683,0.99735456404,0.00499210034227,-0.0505823948169,0.0207390473004,0.0111431452652,0.00132091840494,0.0386603814074,-0.0573466600945,-0.0293170614151,1.55809283257,0.480785161256,6.26442313194,0.283748924733,-0.189466048032,0.519904583693,900403.0,1518248387.0,278000128.0,,,,,,419629.5,1518248387.0,299507613.0,,4.31600005627,0.5860001266,-0.890999997594,-0.00250000011874,0.535999983549,0.322000011802,-1.0
36,413.856597692,41401.5,1518248387.0,409110602.5,,2277029.5,1518248387.0,409110602.5,,0.704098025267,-0.260348852103,0.0454212823682,-0.0518528184868,0.997738519701,0.00498121823997,-0.0424699063317,0.117376103426,-0.0015762654727,0.010155773497,-0.000231554964275,-0.29367813919,-0.00310851806089,-0.619440115987,0.441164344549,6.40926361084,0.317144602537,-0.530932873487,0.475939705968,2277374.5,1518248387.0,407180687.0,,,,,,419641.0,1518248387.0,415331874.0,,1.87599998973,-0.213999944925,-1.54599998295,-0.0289999991655,0.134000003338,0.115000002086,-1.0
37,413.959161795,41411.5,1518248387.0,509117973.0,,2277039.5,1518248387.0,509117973.0,,0.712989847834,-0.260697892814,0.0465401259483,-0.0516487598886,0.998143376586,0.00460022852808,-0.0319500022544,0.019542304758,-0.015620876706,0.0195780020581,-0.00582134772315,-0.0258277177497,-0.026359431543,-2.71281850338,0.522290289402,6.76508593559,0.204625822603,-0.579145222902,0.45739878714,1588898.5,1518248387.0,509091923.0,,,,,,419651.5,1518248387.0,520323764.5,,2.11599997878,-0.114000040292,-0.830999994278,0.0154999996885,-0.0164999996777,0.0489999987185,-1.0
38,414.061725897,41419.5,1518248387.0,589104887.0,,2277047.5,1518248387.0,589104887.0,,0.713548147728,-0.261150298029,0.0478399518624,-0.0529369980914,0.998088661924,0.00327151373293,-0.0317161899922,0.00118931468578,-0.0289128384354,-0.000871273599255,-0.0625822738273,-0.00678551223841,0.0290222538254,-0.338586840779,0.459158599377,5.40078663826,0.298950240016,0.104248808697,0.46631757915,900415.0,1518248387.0,582000128.0,,,,,,419659.5,1518248387.0,600658990.5,,3.61599994898,0.0109999597072,-0.580999994278,0.0090000004857,0.00249999994412,0.0509999990463,-1.0
39,414.16429,41432.5,1518248387.0,719111402.0,,2277060.5,1518248387.0,719111402.0,,0.712589720653,-0.264243867834,0.0472830601013,-0.0548980795619,0.997950732553,5.14204523374e-05,-0.0328701847955,0.000643975232627,-0.0315031667053,-0.0125598122134,-0.0521778973421,-0.0123138664061,0.0381466922697,-1.42013204098,0.475145995617,7.81873583794,0.355346873402,-0.321742787957,0.473341852427,2277405.5,1518248387.0,717182606.5,,,,,,419672.5,1518248387.0,730380786.0,,2.0559999913,-1.12899999619,0.0940000027418,-0.00649999966847,0.011500000488,0.0779999978841,-1.0
