,Unnamed: 0,.header.seq,.header.stamp.secs,.header.stamp.nsecs,.header.frame_id,.endpoint_state.header.seq,.endpoint_state.header.stamp.secs,.endpoint_state.header.stamp.nsecs,.endpoint_state.header.frame_id,.endpoint_state.pose.position.x,.endpoint_state.pose.position.y,.endpoint_state.pose.position.z,.endpoint_state.pose.orientation.x,.endpoint_state.pose.orientation.y,.endpoint_state.pose.orientation.z,.endpoint_state.pose.orientation.w,.endpoint_state.twist.linear.x,.endpoint_state.twist.linear.y,.endpoint_state.twist.linear.z,.endpoint_state.twist.angular.x,.endpoint_state.twist.angular.y,.endpoint_state.twist.angular.z,.endpoint_state.wrench.force.x,.endpoint_state.wrench.force.y,.endpoint_state.wrench.force.z,.endpoint_state.wrench.torque.x,.endpoint_state.wrench.torque.y,.endpoint_state.wrench.torque.z,.joint_state.header.seq,.joint_state.header.stamp.secs,.joint_state.header.stamp.nsecs,.joint_state.header.frame_id,.joint_state.name,.joint_state.position,.joint_state.velocity,.joint_state.effort,.wrench_stamped.header.seq,.wrench_stamped.header.stamp.secs,.wrench_stamped.header.stamp.nsecs,.wrench_stamped.header.frame_id,.wrench_stamped.wrench.force.x,.wrench_stamped.wrench.force.y,.wrench_stamped.wrench.force.z,.wrench_stamped.wrench.torque.x,.wrench_stamped.wrench.torque.y,.wrench_stamped.wrench.torque.z,.tag
0,544.396307,54453.5,1518248517.0,929389486.5,,2290081.5,1518248517.0,929389486.5,,0.761509652417,-0.291578041796,0.126431644733,-0.0260573703783,0.999525405012,0.00510822935869,0.0156056264161,-0.00156638783414,0.0112985684611,0.00150181009833,0.00636688670299,0.00320352389435,0.0122693611126,4.37477326393,-0.0174997597933,4.44949221611,0.38249117136,1.81955218315,0.446698486805,2290426.5,1518248517.0,927474282.0,,,,,,432680.5,1518248517.0,939963370.0,,-2.3459999606,-0.89699999094,-0.508000007271,0.0054999999702,0.0315000005066,0.0159999998286,0.0
1,544.498871103,54462.5,1518248518.0,19388599.5,,2290090.5,1518248518.0,19388599.5,,0.761985646528,-0.291597536619,0.126516144791,-0.0259235258983,0.999522782105,0.00487539620064,0.0160696190219,0.00327735288373,0.0115626871632,-0.00201267790938,0.00563950522534,-0.00355617168488,0.0215544984306,4.00707161426,-0.113554686308,4.46117281914,0.461088433862,1.70137119293,0.467081934214,1598006.0,1518248518.0,18720217.0,,,,,,432689.5,1518248518.0,30608430.0,,-1.15599999279,-1.70699999332,-0.187999999523,-0.0155000002123,0.0570000000298,0.0580000001937,0.0
2,544.601435205,54474.5,1518248518.0,139399435.5,,2290102.5,1518248518.0,139399435.5,,0.761565046562,-0.291933966532,0.126039061306,-0.0260010085924,0.999527530709,0.0047936038966,0.015672965772,-0.00291882511999,-0.00212048515311,-0.00309393202051,-0.00025183303608,0.00653582799485,-0.00662429685191,4.41584658623,-0.10610486567,4.34652948379,0.428375810385,1.81943064928,0.452327698469,2290447.5,1518248518.0,137462177.5,,,,,,432701.5,1518248518.0,151652219.0,,-1.01100001186,-1.79200000167,-0.6530000031,-0.00150000007124,0.0320000005886,0.019999999553,0.0
3,544.703999308,54486.5,1518248518.0,259409483.0,,2290114.5,1518248518.0,259409483.0,,0.761737419793,-0.292041506006,0.125985361842,-0.0254204524141,0.999540061555,0.00500615773267,0.0157478498803,-0.00280995259064,-0.0180708609756,-0.00196029930627,-0.0136520373659,0.00636019614836,-0.00808048744411,4.30234336853,-0.0524405688048,4.42467331886,0.433799833059,1.78567844629,0.478315293789,1598022.0,1518248518.0,255739515.0,,,,,,432713.5,1518248518.0,270579070.0,,-1.43099999875,-0.606999969483,-0.5280000031,0.0010000000475,0.0260000005364,0.0290000010282,0.0
4,544.80656341,54492.5,1518248518.0,319389979.5,,2290120.5,1518248518.0,319389979.5,,0.76175620743,-0.292007244176,0.126007174895,-0.025845980135,0.999529464739,0.00490139128547,0.0157725647599,0.00209245727614,0.00954015320683,0.00141686096328,0.0109390250031,-0.0017796892597,0.00472853234345,4.47220015526,-0.0480822324753,4.39211964607,0.398876681924,1.83425807953,0.456977978349,1598026.5,1518248518.0,318223093.0,,,,,,432719.0,1518248518.0,325883530.0,,-1.92100000829,0.213000023365,-0.472999995947,0.00600000005215,0.0209999997169,0.0240000002086,0.0
5,544.909127513,54504.5,1518248518.0,439390386.5,,2290132.5,1518248518.0,439390386.5,,0.761902778691,-0.291626423714,0.126145761516,-0.0262872735912,0.999514152931,0.0049938056074,0.0159821984759,0.00421293854292,-0.0179682504348,0.00143655877705,0.00199883756027,-0.00742118821854,-0.0370048906906,3.91397750378,0.0753085017204,4.29133653641,0.318471208215,1.62831813097,0.428938448429,2290477.5,1518248518.0,437463697.0,,,,,,432731.5,1518248518.0,451040762.0,,-1.5010000512,-1.92699999586,-0.642999997735,0.00250000006054,0.0209999997169,0.0314999995753,0.0
6,545.011691615,54517.5,1518248518.0,569394912.0,,2290145.5,1518248518.0,569394912.0,,0.762017344701,-0.291754431172,0.126251904506,-0.0259421147616,0.999521038931,0.00486785648278,0.016151472487,-0.00428710514427,0.00185770606124,-0.00708730333628,0.001309334965,0.0127430364663,0.00365881527526,4.13103914261,0.269090443849,4.5392382145,0.190512489527,1.72451889515,0.384974300861,905598.0,1518248518.0,572500096.0,,,,,,432744.5,1518248518.0,581186513.5,,-1.3459999904,-1.43199998737,-0.593000015617,0.00749999983236,0.0320000015199,0.0454999990762,0.0
7,545.114255718,54523.5,1518248518.0,629399634.5,,2290151.5,1518248518.0,629399634.5,,0.761345118869,-0.29195846141,0.126224785798,-0.0258813120918,0.999534718348,0.00483860849835,0.0153929975775,0.00670216133097,0.00715635108026,0.00391902759704,0.0159325785948,-0.0138315094314,-0.00397337335666,3.7748259306,0.397402659059,4.49459433555,0.146567624062,1.58605331183,0.391884356737,1598049.0,1518248518.0,631221363.0,,,,,,432750.5,1518248518.0,640972753.0,,-2.34099996537,-1.72700000406,-0.143000012636,0.00950000039304,0.0254999995232,0.0435000006109,3.0
8,545.216819821,54537.5,1518248518.0,769390422.5,,2290165.5,1518248518.0,769390422.5,,0.761488578597,-0.291401398272,0.125995973805,-0.0260778887692,0.999524711998,0.00514929691241,0.0156089130985,0.00189719447217,-0.00396866212294,-0.00100745864895,-0.00264141593778,-0.00406541285499,0.00213634628575,1.28392207623,0.494081988931,5.57776236534,0.067746076733,0.618351876736,0.364750117064,1598058.5,1518248518.0,770721884.5,,,,,,432764.5,1518248518.0,780926144.0,,-0.130999999866,-2.04199998677,-1.05300000348,0.0235000001266,0.0140000004321,0.0405000001192,3.0
9,545.319383923,54546.5,1518248518.0,859389710.0,,2290174.5,1518248518.0,859389710.0,,0.762051899191,-0.292045864066,0.126138042294,-0.0257623237033,0.999520531588,0.00468886944451,0.0165224439804,0.00541559594652,-0.00500900223916,-0.00086427364852,-0.00577717683683,-0.0203245024784,-0.00362482436976,0.738172262907,0.79729962349,4.90787672997,-0.0378924906254,0.435399234295,0.35906457901,2290518.0,1518248518.0,842447731.0,,,,,,432773.5,1518248518.0,871394313.5,,-0.470999997854,-1.00700000524,-0.738000003993,0.00150000001304,0.0489999987185,0.0339999999851,3.0
10,545.421948026,54554.5,1518248518.0,939392069.5,,2290182.5,1518248518.0,939392069.5,,0.760780781558,-0.291197058446,0.124515877152,-0.0264588011754,0.999517605248,0.00515774809111,0.0154182121001,-0.00412466077978,0.0132481227092,-0.0294548223182,0.00844485422284,-0.00977822951233,0.0165319221898,0.988650158977,0.924427241087,4.86313819885,-0.17339309305,0.411254231818,0.312666386365,2290527.5,1518248518.0,937472171.0,,,,,,432781.5,1518248518.0,951578293.5,,0.219000007212,1.29800006152,-0.683000004292,0.0219999998808,0.0594999995083,0.00950000016018,3.0
11,545.524512128,54566.5,1518248519.0,59389666.5,,2290194.5,1518248519.0,59389666.5,,0.759473921297,-0.290391531058,0.121436454107,-0.0270863703088,0.99950729987,0.00479402111446,0.0151111261219,-0.0278561372291,0.00808309779274,-0.0471771239536,-0.00218598220762,0.0458061290938,0.00967851574125,1.54916068912,1.56428474188,4.69259500503,-0.471279606223,0.831209391356,0.284004345536,2290538.0,1518248519.0,42487390.0,,,,,,432793.5,1518248519.0,70467814.0,,-0.921000008287,-1.42699999213,-0.603000006079,0.0145000000484,0.0374999996275,0.0180000001565,3.0
12,545.627076231,54575.5,1518248519.0,149390461.5,,2290203.5,1518248519.0,149390461.5,,0.755892606575,-0.289153786153,0.118031453156,-0.0287694704577,0.999509091945,0.00427408332649,0.0116419513899,-0.0462263931657,0.0221936513147,-0.030051270984,-0.0144072834657,0.085080069318,0.053896334414,2.76262390614,1.27358669043,4.68622255325,-0.300102159381,1.2609898448,0.361653655767,2290548.0,1518248519.0,142448965.0,,,,,,432802.5,1518248519.0,161138554.0,,-1.04100001305,-1.44200000763,0.0569999754429,0.00200000003679,0.0315000005066,0.0439999997616,3.0
13,545.729640333,54589.5,1518248519.0,289384445.5,,2290217.5,1518248519.0,289384445.5,,0.747599152458,-0.284624776575,0.110487343337,-0.033356352663,0.999431538418,0.0037611413763,0.00305529093113,-0.0454169458325,0.0406684508434,-0.0579935118107,-0.00361409137443,0.0814246465335,0.0680108900235,4.31080973148,1.04379731416,4.85321521759,-0.142506591976,1.72469556332,0.362057894469,1598095.0,1518248519.0,288722006.0,,,,,,432816.5,1518248519.0,301240523.5,,-0.44100000225,-1.52699998617,-0.113000011444,-0.00250000017695,0.0410000011325,0.0535000003875,3.0
14,545.832204436,54598.5,1518248519.0,379389029.5,,2290226.5,1518248519.0,379389029.5,,0.744821627493,-0.281104749482,0.105321839513,-0.0361621951927,0.999337314292,0.00410809108009,0.000513133216906,-0.0226894188313,0.0454748113843,-0.05864656807,0.0047271776944,0.0313968394107,0.0760660010937,2.68716561794,0.752364337444,5.06165122986,0.0346010550856,1.13073068857,0.402172863484,905630.5,1518248519.0,380499968.0,,,,,,432825.0,1518248519.0,385809203.0,,-1.42100000829,-2.23199999463,-0.583000017703,0.0075000002398,0.0345000000671,0.0165000003762,3.0
15,545.934768538,54609.5,1518248519.0,489391272.0,,2290237.5,1518248519.0,489391272.0,,0.741007240267,-0.277446826246,0.0991637836885,-0.0395009304574,0.999206683513,0.00386018468966,-0.00327321792426,-0.0249795412754,0.0570533284802,-0.0393171319143,0.00864259142529,0.0400408611144,0.083817045441,1.74132198096,0.734054148197,4.74501466751,0.0372996628285,0.73856395483,0.397324323654,1598109.0,1518248519.0,489241016.0,,,,,,432836.0,1518248519.0,496398804.5,,-0.646000002324,-2.20699999518,-0.733000008762,0.0250000003725,0.0335000008344,0.030500001274,3.0
16,546.037332641,54619.5,1518248519.0,589386080.0,,2290247.5,1518248519.0,589386080.0,,0.737816724769,-0.273573002039,0.0938447857475,-0.0423384951934,0.999073777554,0.00435411792294,-0.0063023162717,-0.0316888328201,0.0354216338954,-0.0527313918238,-0.00029915570934,0.0751873458416,0.054497367687,3.29140007496,0.761348098516,5.16379928589,-0.0383354276419,1.49204337597,0.356850624084,1598116.0,1518248519.0,589741999.0,,,,,,432846.5,1518248519.0,601487387.0,,-1.30599999874,-1.86199999452,-0.317999994755,0.0180000001565,0.0194999999367,0.0324999997392,3.0
17,546.139896744,54626.5,1518248519.0,659387271.5,,2290254.5,1518248519.0,659387271.5,,0.734448364391,-0.271327751057,0.0902121425645,-0.044540118076,0.998945302922,0.00452619217915,-0.0101942422453,-0.0542333301908,0.023076453154,-0.0480792432698,0.00575155798925,0.117853844221,0.0323166957813,0.810287684202,0.384124428034,4.61350560188,0.221653409302,0.515493586659,0.409692823886,2290598.0,1518248519.0,642459183.0,,,,,,432853.5,1518248519.0,671592829.5,,-1.17100000829,-1.4219999969,-0.683000004292,0.0190000003204,0.0259999996051,0.0230000000447,3.0
18,546.242460846,54638.5,1518248519.0,779392228.5,,2290266.5,1518248519.0,779392228.5,,0.729431933091,-0.268224151026,0.0843157473357,-0.0464818700938,0.998785118106,0.00518480687208,-0.015517536219,-0.0319311218005,0.0244648381181,-0.0433919897535,0.0268844201197,0.0644719979157,0.0189493241569,1.56986224652,0.547840431333,4.85526680947,0.139649808407,0.646669924259,0.377014100552,1598129.0,1518248519.0,780239766.0,,,,,,432865.0,1518248519.0,786939591.0,,-0.641000007093,-2.1569999963,0.0669999659061,0.0140000004321,0.0289999991655,0.0390000008047,3.0
19,546.345024949,54650.5,1518248519.0,899395280.0,,2290278.5,1518248519.0,899395280.0,,0.727014580279,-0.267340679483,0.0789891528834,-0.0490305184803,0.9986314081,0.00385678895502,-0.0177870354047,-0.018940376788,-0.00900624344875,-0.052099710189,-0.0474331000842,0.0239677281974,0.0446030298369,2.67336964607,0.729159414768,4.5742764473,0.037602622062,1.17315116524,0.362432718277,2290623.0,1518248519.0,892480387.0,,,,,,432877.0,1518248519.0,906310903.0,,0.00899999886751,-1.44700000286,0.426999980211,0.0120000001043,0.0320000015199,0.0579999983311,3.0
20,546.447589051,54659.5,1518248519.0,989390179.0,,2290287.5,1518248519.0,989390179.0,,0.722935386607,-0.270285512447,0.0746058227105,-0.0522167872255,0.998385670361,-0.0013155835217,-0.0223078070042,-0.00855807411981,-0.0399467526905,-0.0508646224547,-0.125487712196,-0.0162249789033,-0.0315464909785,3.61209475994,0.73424500227,4.52214360237,0.0983317419889,1.32542335987,0.329359203578,2290632.5,1518248519.0,987485272.5,,,,,,432886.5,1518248519.5,503116477.0,,-1.89600003213,-3.60200000406,0.746999973061,-0.141000002623,0.138500005007,0.0054999999702,3.0
21,546.550153154,54669.5,1518248520.0,89390871.5,,2290297.5,1518248520.0,89390871.5,,0.721688364746,-0.270505118075,0.0722755460154,-0.0523832579714,0.998352677898,-0.00131692124002,-0.0233676702594,-0.0335217707914,0.0136931370347,-0.0106613413906,0.0377962671693,0.0863908228917,-0.0190345517746,1.78151160478,1.07862329483,5.04100751876,-0.112104520202,0.713265746832,0.330985665321,2290642.5,1518248520.0,87452339.0,,,,,,432896.5,1518248520.0,102031189.0,,-2.0959999606,-1.83200000823,-0.737999996543,0.0650000013411,0.00150000001304,0.0415000002831,-1.0
22,546.652717256,54680.5,1518248520.0,199533149.5,,2290308.5,1518248520.0,199533149.5,,0.720157696041,-0.26977089646,0.0697011465569,-0.0530045365681,0.998286342452,-0.00115973705192,-0.0247673049252,-0.0156114436307,0.0141911505787,-0.01544000151,-0.00880889969517,0.0399150767384,0.0363492766296,3.64603602886,0.75796726346,4.50226521492,0.145969569683,1.45021212101,0.374508112669,2290653.0,1518248520.0,192480572.0,,,,,,432907.0,1518248520.0,206942287.0,,-0.820999984443,-1.4069999814,0.0170000135899,0.0189999993891,0.0120000001043,0.0289999991655,-1.0
23,546.755281359,54689.5,1518248520.0,289658498.0,,2290317.5,1518248520.0,289658498.0,,0.719593386529,-0.269436023551,0.0686590899228,-0.0529682594697,0.998271561167,-0.00110253490392,-0.0254361415428,-0.00264346587393,0.0079880278588,-0.01688242241,0.00993346725302,0.00725863385095,0.00724713483922,1.79719030857,0.552501350641,5.40239548683,0.218922145665,0.934040307999,0.387145891786,1598164.5,1518248520.0,288861427.5,,,,,,432916.0,1518248520.0,297459060.0,,-0.090999995172,-1.4370000124,-0.523000007868,0.0299999993294,0.0270000007004,0.00999999977648,-1.0
24,546.857845462,54701.5,1518248520.0,409691145.5,,2290329.5,1518248520.0,409691145.5,,0.719735126484,-0.269770698851,0.0689098680977,-0.0529793928377,0.998277074861,-0.00140150150584,-0.0251808602757,0.0121357923486,0.0010662484726,0.00478942975126,0.00561321383868,-0.0280370610859,0.00452340249935,1.49432700873,1.31542718411,4.87769818306,-0.239499904215,0.676002472639,0.318928822875,905671.0,1518248520.0,395000064.0,,,,,,432928.0,1518248520.0,417025205.0,,-1.7510000512,-1.02699998617,-0.0329999983311,0.00800000037998,0.0520000010729,0.0289999991655,-1.0
25,546.960409564,54712.5,1518248520.0,519655784.0,,2290340.5,1518248520.0,519655784.0,,0.719700035075,-0.26875610804,0.0688277986676,-0.0538608027801,0.998228705355,-0.00116512476263,-0.0252360242421,-0.00101733020676,0.00790703903347,-0.00433039775217,0.00484186136872,-0.00305205255466,0.0156673551788,1.54739904404,1.19715839624,4.7516310215,-0.15822019428,0.806353271008,0.316018000245,1598180.5,1518248520.0,509871293.0,,,,,,432939.0,1518248520.0,528081427.5,,0.548999990523,0.0079999804495,0.166999989748,-0.00200000009499,0.0344999991358,0.0185000002384,-1.0
26,547.062973667,54722.5,1518248520.0,619662544.5,,2290350.5,1518248520.0,619662544.5,,0.719756784744,-0.268838109818,0.0687601611947,-0.0541098586921,0.998214346034,-0.00153321327762,-0.0252525970658,-0.00810052332036,0.00394983267274,-0.0031816113176,-0.0052524216609,0.0157556352276,0.0158077539978,2.15911281109,0.655859470368,4.96894788742,0.225159529596,0.962987929583,0.373505681753,1598187.5,1518248520.0,610374924.5,,,,,,432949.0,1518248520.0,627021511.0,,-1.44099998921,-0.887000000477,-0.362999981642,0.0340000018477,0.0170000009239,0.0329999998212,-1.0
27,547.165537769,54729.5,1518248520.0,689658600.5,,2290357.5,1518248520.0,689658600.5,,0.720143213864,-0.268306593658,0.0689209611488,-0.0539986981419,0.998235595549,-0.00128046936532,-0.0246608839779,0.00576233873002,-0.005189333072,0.00316093016125,-0.00201275139662,-0.0128667193478,-0.00419226318905,1.76433342695,0.461130440235,5.29702806473,0.270803369582,0.91218367219,0.374294579029,2290702.5,1518248520.0,687747516.0,,,,,,432956.0,1518248520.0,697123037.0,,-1.06099999398,-0.357000029087,-0.692999994755,0.0250000003725,0.0260000005364,0.0289999991655,-1.0
28,547.268101872,54740.5,1518248520.0,799657095.0,,2290368.5,1518248520.0,799657095.0,,0.719734506963,-0.268832701823,0.0690325573207,-0.0537797154621,0.998234635926,-0.00128571552561,-0.0251727191919,0.00846902762719,-0.0105897825658,-0.0022023328297,-0.00489683946274,-0.0165904619529,-0.0187279530081,1.35063546896,0.649555265903,4.93118166924,0.188209719956,0.709333211184,0.355512142182,1598200.0,1518248520.0,796368309.5,,,,,,432967.0,1518248520.0,806442878.0,,-1.4709999606,-1.63200000524,0.0519999802113,-0.000500000081955,0.0279999999329,0.0409999992698,-1.0
29,547.370665974,54752.5,1518248520.0,919652333.5,,2290380.5,1518248520.0,919652333.5,,0.719772797872,-0.268652159128,0.0684050043643,-0.0536778960595,0.998237929345,-0.00119939757534,-0.025260970643,-0.0109429187943,0.00163083985803,-0.00780653312051,0.00896859849719,0.0255262336359,-0.00168306507169,1.72341752052,0.680531293154,5.07942080498,0.228173308074,0.850606769323,0.380438327789,1598208.5,1518248520.0,911865473.0,,,,,,432978.5,1518248520.0,923513609.5,,-1.41099995822,-1.73700000942,0.291999989748,0.00099999998929,0.01600000076,0.0289999991656,-1.0
30,547.473230077,54763.5,1518248521.0,29653913.5,,2290391.5,1518248521.0,29653913.5,,0.719983821371,-0.268512022618,0.068911736865,-0.0539184479846,0.998231592149,-0.00141824046693,-0.0249879901052,0.00558328393143,0.00694884453014,0.0067452904233,0.00596172022926,-0.0141341585208,0.00875784881142,1.51867890358,0.675295829773,4.88958621025,0.185232065619,0.745918035507,0.374865829945,2290736.5,1518248521.0,27724379.5,,,,,,432990.0,1518248521.0,36685418.5,,-1.70099997967,-0.11700001955,0.397000008821,-0.00500000035392,0.0614999979735,0.0215000002645,-1.0
31,547.575794179,54771.5,1518248521.0,109658921.0,,2290399.5,1518248521.0,109658921.0,,0.719808276277,-0.268442733506,0.0688657079159,-0.0541220478708,0.998219007972,-0.00133111728074,-0.0250537264754,-0.00558152297822,-0.00101657650342,-0.00041718260346,-0.0060609372181,0.0125718400911,0.0061326808318,1.10430309176,0.559053957462,4.87738895416,0.242869824171,0.56865683198,0.353188976645,905699.0,1518248521.0,103000064.0,,,,,,432997.5,1518248521.0,114960067.5,,-0.251000006497,-1.32199997306,0.577000015974,0.00400000018998,0.00100000016391,0.0174999998417,-1.0
32,547.678358282,54783.5,1518248521.0,229661821.0,,2290411.5,1518248521.0,229661821.0,,0.719711617393,-0.268714964502,0.0688130503234,-0.0542144685193,0.998208586195,-0.00154775399391,-0.0252531828474,-0.00648728958393,0.000821001757845,-0.00879337664596,-0.00578743467051,0.0181851569962,0.0131072099733,1.89299839735,0.65336716175,5.1505215168,0.203168056905,0.869052410126,0.353078216314,2290756.5,1518248521.0,227745611.0,,,,,,433009.5,1518248521.0,234419342.0,,-0.905999992787,0.313000047206,0.531999999285,0.0054999999702,0.0130000002682,-0.00950000016017,-1.0
33,547.780922385,54791.5,1518248521.0,309659993.5,,2290419.5,1518248521.0,309659993.5,,0.720283683844,-0.267813659081,0.0690613964559,-0.0541788895211,0.998223456773,-0.000989411803422,-0.0247700767869,0.00329374725511,0.0024448391763,0.00309308284264,0.00013584739945,-0.00445440624872,0.00771230786115,1.47062659264,0.666141808033,5.03552937507,0.190697260201,0.72525793314,0.358164250851,905707.0,1518248521.0,304999936.0,,,,,,433017.5,1518248521.0,314655974.0,,-0.951000009476,-1.02199999094,0.451999956369,0.0129999998026,0.01600000076,0.0159999998286,-1.0
34,547.883486487,54804.5,1518248521.0,439672516.0,,2290432.5,1518248521.0,439672516.0,,0.720521848171,-0.268166927271,0.0692010212471,-0.0540554003181,0.998232517695,-0.00119025063452,-0.0246631198546,0.0188645891584,-0.00305298598417,0.00930158430521,0.00179688211635,-0.0372681203202,-0.0181610395676,2.18468922376,0.568273544311,5.14811468124,0.279441080987,0.978629648684,0.362134084106,1598244.5,1518248521.0,439878790.0,,,,,,433031.5,1518248521.0,454501372.0,,-2.01099998206,-0.191999948024,0.967000001667,0.000500000081955,0.0394999999553,0.0384999997913,-1.0
35,547.98605059,54812.5,1518248521.0,519658468.0,,2290440.5,1518248521.0,519658468.0,,0.721118089853,-0.268405128249,0.0693132903948,-0.0540467960553,0.998249981586,-0.00149301523539,-0.0239470963301,0.00649740048373,0.00331337954264,0.00478731814857,0.0010348293921,-0.00824825971132,-0.0117803382679,1.36647838354,0.510646656156,5.0736606121,0.339266732335,0.71260073781,0.388412430882,1598250.5,1518248521.0,515375356.0,,,,,,433039.0,1518248521.0,528568671.0,,0.159000004828,0.113000118732,-0.333000010252,0.0240000002086,-0.0120000001043,0.01600000076,-1.0
36,548.088614692,54824.5,1518248521.0,639658880.5,,2290452.5,1518248521.0,639658880.5,,0.72101348008,-0.268614095304,0.0695555881519,-0.0538891579317,0.998256595488,-0.0013740044376,-0.024036756456,-0.000347574176721,0.0115413607244,0.00524280885332,0.00889617438236,-0.00012622084385,-0.00471746487845,1.58281993866,0.449337616562,5.22370362282,0.354702457785,0.765682309866,0.369497537612,2290797.5,1518248521.0,637730418.5,,,,,,433050.5,1518248521.0,643531259.0,,-1.37100002617,-1.98700000942,-0.983000005037,0.0195000004024,0.0140000004321,0.0235000001266,-1.0
37,548.191178795,54833.5,1518248521.0,729657645.0,,2290461.5,1518248521.0,729657645.0,,0.721388837339,-0.268702396698,0.0699629154976,-0.0537866069695,0.998273896744,-0.00139463738986,-0.0235417066255,-0.00648519919397,-0.00237573193442,-0.00380207198728,-0.00125139526737,0.0183801216107,-0.000951469904205,1.67116379738,0.408039197325,5.44945383072,0.382650956511,0.793171674013,0.37367117405,2290806.5,1518248521.0,727741744.5,,,,,,433060.5,1518248521.0,743480710.0,,-0.0709999993442,-1.0620000124,-0.728000006079,0.0205000005662,0.00550000020303,0.0154999997467,-1.0
38,548.293742897,54842.5,1518248521.0,819655878.0,,2290470.5,1518248521.0,819655878.0,,0.721377309929,-0.268598476875,0.0699609053245,-0.0538113896206,0.998264010339,-0.00112687651389,-0.0239155560838,0.0166862056837,-0.0173696995548,0.0139590883695,-0.018918384525,-0.0250347583014,-0.0102621767266,2.69357311726,0.459130689502,5.58270072937,0.347386628389,1.10895287991,0.369564816356,1598271.5,1518248521.0,816873245.5,,,,,,433069.0,1518248521.0,827515665.0,,-0.101000000536,-1.08700004816,0.0469999849796,0.0010000000475,0.0240000002086,0.0170000009239,-1.0
39,548.396307,54855.5,1518248521.0,949660426.5,,2290483.5,1518248521.0,949660426.5,,0.724029282263,-0.268680957826,0.07120165843,-0.0536807081854,0.998327378304,-0.00132053517593,-0.0214234852073,0.00887399601252,-0.00668801280746,0.00810620575436,-0.0121721027048,-0.0200886498575,0.0111700785476,0.7097388953,0.450075611472,5.19520473481,0.345442950726,0.430735766888,0.372252359986,1598280.0,1518248521.0,948357178.5,,,,,,433081.5,1518248521.0,955319027.5,,-0.56099999398,-0.667000031471,0.0019999980925,0.00600000005215,0.0365000003949,0.0289999991656,-1.0
