,Unnamed: 0,.header.seq,.header.stamp.secs,.header.stamp.nsecs,.header.frame_id,.endpoint_state.header.seq,.endpoint_state.header.stamp.secs,.endpoint_state.header.stamp.nsecs,.endpoint_state.header.frame_id,.endpoint_state.pose.position.x,.endpoint_state.pose.position.y,.endpoint_state.pose.position.z,.endpoint_state.pose.orientation.x,.endpoint_state.pose.orientation.y,.endpoint_state.pose.orientation.z,.endpoint_state.pose.orientation.w,.endpoint_state.twist.linear.x,.endpoint_state.twist.linear.y,.endpoint_state.twist.linear.z,.endpoint_state.twist.angular.x,.endpoint_state.twist.angular.y,.endpoint_state.twist.angular.z,.endpoint_state.wrench.force.x,.endpoint_state.wrench.force.y,.endpoint_state.wrench.force.z,.endpoint_state.wrench.torque.x,.endpoint_state.wrench.torque.y,.endpoint_state.wrench.torque.z,.joint_state.header.seq,.joint_state.header.stamp.secs,.joint_state.header.stamp.nsecs,.joint_state.header.frame_id,.joint_state.name,.joint_state.position,.joint_state.velocity,.joint_state.effort,.wrench_stamped.header.seq,.wrench_stamped.header.stamp.secs,.wrench_stamped.header.stamp.nsecs,.wrench_stamped.header.frame_id,.wrench_stamped.wrench.force.x,.wrench_stamped.wrench.force.y,.wrench_stamped.wrench.force.z,.wrench_stamped.wrench.torque.x,.wrench_stamped.wrench.torque.y,.wrench_stamped.wrench.torque.z,.tag
0,507.050721,50721.5,1518248480.0,609473223.5,,2286349.5,1518248480.0,609473223.5,,0.76274790937,-0.295360390896,0.127004196915,-0.0245669294785,0.999547700345,0.00326888967175,0.0170322533411,0.00525034617998,0.0146457216091,0.00144877802995,0.0155531440002,-0.0110596207555,0.0076272043741,2.51364743709,0.584610909224,4.5362701416,0.199175216258,1.15690743923,0.351589694619,2286693.0,1518248480.0,592517936.0,,,,,,428952.0,1518248480.0,617275370.0,,1.72800002098,0.568000054359,-0.662999975681,0.00300000002608,0.0120000001043,0.0590000003576,3.0
1,507.153285103,50728.5,1518248480.0,679472691.5,,2286356.5,1518248480.0,679472691.5,,0.762286534325,-0.296252531662,0.126476310741,-0.0241971790523,0.999568254436,0.00280206595982,0.0164267460029,-0.00791306861133,-0.00148472938785,-0.00228914300581,-0.002328953429,0.0125955650201,0.011100128732,1.32506608963,0.727942228317,4.57095360755,0.103521138429,0.59306961298,0.369178205729,2286701.5,1518248480.0,677582276.0,,,,,,428959.0,1518248480.0,687427659.0,,1.58799997568,0.397999978065,-0.392999994755,-0.00999999977648,0.0189999993891,0.0439999997616,3.0
2,507.255849205,50740.5,1518248480.0,799471538.5,,2286368.5,1518248480.0,799471538.5,,0.761363361426,-0.294983903913,0.124907082259,-0.0253146641516,0.999549516895,0.00320124180611,0.015791688529,-0.00399854016325,0.00713120456649,-0.00543641512902,0.00252122559983,-0.0069767017724,0.00255880803323,1.54011684656,1.39933669567,5.08516311645,-0.323686897754,0.712444752455,0.273909687996,2286713.0,1518248480.0,792562944.0,,,,,,428971.0,1518248480.0,807011697.0,,0.597999995947,0.447999930382,-0.522999989986,0.00999999977648,0.0289999991655,0.0149999996647,3.0
3,507.358413308,50751.5,1518248480.0,909470410.0,,2286379.5,1518248480.0,909470410.0,,0.759436594903,-0.29424348308,0.1224463837,-0.0260014967897,0.999552085607,0.00286931955724,0.014533931561,-0.0190728367055,0.0253050029575,-0.022155613081,-0.0105163406639,0.0286201601941,0.0551346743836,0.173395138234,2.00328445435,4.38010621071,-0.583507955074,0.161243926734,0.199817799031,2286723.0,1518248480.0,892527927.0,,,,,,428982.5,1518248480.0,922475285.5,,1.23299998641,-0.29200001955,-1.47300000787,0.0150000001304,-0.0105000000913,0.0305000003428,3.0
4,507.46097741,50758.5,1518248480.0,979484534.5,,2286386.5,1518248480.0,979484534.5,,0.757497286728,-0.292589587376,0.119891575265,-0.0277762730056,0.999523785398,0.00249198320937,0.0131985456084,-0.0254160345943,0.0210426127862,-0.0327222784525,-0.00838169835458,0.0337124153504,0.0467931874822,0.665404986592,1.25284826756,4.80389499665,-0.244009427727,0.462073422969,0.295898497105,1595421.0,1518248480.0,980782245.0,,,,,,428989.0,1518248480.0,988497495.0,,0.60799998641,-1.01199998856,-1.15299998522,0.0260000005364,0.0219999998808,0.0359999984503,3.0
5,507.563541513,50771.5,1518248481.0,109473396.5,,2286399.5,1518248481.0,109473396.5,,0.750859621765,-0.288935313656,0.113883729747,-0.0316599189554,0.99947609192,0.00195694218385,0.00642370490602,-0.0681539658416,0.0253646957584,-0.0548185985966,0.00648580544562,0.136250324618,0.0435336984491,1.68884989619,1.01168572903,4.51718711853,-0.0043490678072,0.793551906943,0.334348335862,2286743.0,1518248481.0,92578202.0,,,,,,429001.5,1518248481.0,114945153.0,,0.827999999186,-0.62200000286,-0.568000006675,0.015000000596,0.00900000031104,0.0374999996275,3.0
6,507.666105615,50778.5,1518248481.0,179474820.0,,2286406.5,1518248481.0,179474820.0,,0.746821559676,-0.285635603565,0.110210145854,-0.0341520364716,0.999411865373,0.00220234436361,0.00216556834913,-0.0617620926435,0.0571609973711,-0.0583918719997,0.00381823304992,0.126368472098,0.0891329768132,1.47820347548,1.08468639851,3.9132181406,-0.103685885668,0.41309209913,0.322049587965,1595435.0,1518248481.0,179783047.5,,,,,,429008.5,1518248481.0,184917630.0,,1.62799999341,0.578000044823,-0.668000030518,-0.00399999972432,-0.00200000032785,0.0230000000447,3.0
7,507.768669718,50792.5,1518248481.0,319464830.0,,2286420.5,1518248481.0,319464830.0,,0.743052970029,-0.280891910612,0.10214009303,-0.0379342157711,0.999276220258,0.00272118639977,-0.000756741644742,-0.0331195914145,0.038765094842,-0.0643052172485,0.0121305417534,0.0409592792684,0.0569823953725,2.7898709774,1.31235128641,5.17103862763,-0.253306031227,1.16699802875,0.30006210506,2286764.5,1518248481.0,307559444.5,,,,,,429023.0,1518248481.0,330933351.0,,1.07799999453,0.28800008297,-0.442999947071,0.00700000021607,0.0170000009239,0.019999999553,3.0
8,507.871233821,50800.5,1518248481.0,394467558.5,,2286428.0,1518248481.0,394467558.5,,0.740782829289,-0.277829645812,0.0980240653997,-0.0403404459625,0.999177569946,0.00285493611715,-0.00292860269591,-0.0225315880662,0.0380113325832,-0.0512178029646,0.00573016555406,0.0326614820189,0.0490807992231,1.27240812778,0.690673291684,5.46429109573,0.117255952209,0.667861551046,0.331933662295,2286773.0,1518248481.0,392561036.0,,,,,,429031.0,1518248481.0,409185603.0,,1.02799999565,-0.79699997008,-0.537999975681,0.00999999977649,0.0240000002086,0.0334999989718,3.0
9,507.973797923,50812.5,1518248481.0,519472283.0,,2286440.5,1518248481.0,519472283.0,,0.735649785312,-0.275017564856,0.0918551940217,-0.0436925089993,0.999004963069,0.00188257493862,-0.00874238216375,-0.0554794396763,0.0247531738145,-0.0491960848014,-0.0242247683162,0.11732784088,0.0621683151502,1.87681156397,0.50481647253,5.34268712997,0.252303987742,0.881702393293,0.346420168877,2286784.5,1518248481.0,507547925.5,,,,,,429043.0,1518248481.0,528448862.0,,1.60800001621,-0.161999964714,-1.03299998045,0.0439999997616,0.0,0.0329999998212,3.0
10,508.076362026,50820.5,1518248481.0,599472026.5,,2286448.5,1518248481.0,599472026.5,,0.731844873668,-0.27329899147,0.0883065859146,-0.0454235347785,0.99888085686,0.00215548774746,-0.0129918874744,-0.0315694244195,0.0366144682327,-0.0453269171009,0.0119686187312,0.0543663948966,0.065188738426,3.11495387554,0.765411257743,5.0210108757,-0.00976059585805,1.35890781879,0.327574819326,2286793.0,1518248481.0,592552259.0,,,,,,429051.0,1518248481.0,608972819.0,,0.592999996059,-1.92200000919,-1.52800000012,0.0369999986142,0.0129999995697,0.0444999989122,3.0
11,508.178926128,50830.5,1518248481.0,699473154.5,,2286458.5,1518248481.0,699473154.5,,0.729164350546,-0.272684897406,0.0835038185117,-0.0464223623246,0.998798829651,0.00192904935097,-0.0155500393062,-0.0146911351019,0.00654437107039,-0.0507201380284,-0.00572884532305,0.0177342493663,0.0166769301056,3.94151031971,0.752894669771,5.32711601257,0.0379752479492,1.72060596943,0.326987445354,2286803.0,1518248481.0,692562517.0,,,,,,429061.0,1518248481.0,707973313.0,,0.868000006677,-2.83700001389,-0.467999982833,0.0314999995754,0.0,0.0345000009984,3.0
12,508.281490231,50841.5,1518248481.0,814473825.0,,2286470.0,1518248481.0,814473825.0,,0.7276421335,-0.271192811956,0.0785625678715,-0.0479751954088,0.998704658702,0.00194973835062,-0.0168399475094,-0.00994195578706,0.0241529936844,-0.0398818949727,0.0202784589421,0.0165868013024,0.0212490483317,1.8842676878,1.31535506248,4.81127309799,-0.345367670059,0.884332001209,0.229442000389,2286813.0,1518248481.0,792531441.0,,,,,,429072.5,1518248481.0,825387309.5,,-0.342000031472,-2.1920000013,-0.517999994754,0.00249999994415,-0.00349999975879,0.0260000005365,3.0
13,508.384054333,50854.5,1518248481.0,939475027.0,,2286482.5,1518248481.0,939475027.0,,0.724000081005,-0.270608655526,0.0736997349141,-0.0492687202678,0.998579393829,0.00148285566793,-0.0202369561988,-0.00853869691305,0.0156431511883,-0.0384073294519,0.00043656650694,-0.00646738629359,0.0406213235343,3.41117727756,1.14755180478,4.83260583878,-0.139005310833,1.37064242363,0.281699195504,904148.5,1518248481.0,940999936.0,,,,,,429084.5,1518248481.0,944207087.0,,1.4479999844,-3.17199999988,-1.16300000548,-0.00150000001304,0.0185000002384,0.0475000012666,3.0
14,508.486618436,50864.5,1518248482.0,39472113.0,,2286492.5,1518248482.0,39472113.0,,0.722567303975,-0.269452078806,0.0702691318653,-0.0502531631201,0.998507375945,0.00146773659811,-0.0213398625883,-0.00674535331522,0.0259602636292,-0.039281501133,0.019088875818,-0.0102385915017,0.0328578863027,3.4928842783,1.27794587612,4.52921867371,-0.167767524719,1.31884354353,0.282570764423,904152.5,1518248482.0,42000000.0,,,,,,429094.5,1518248482.0,44563849.5,,0.862999989092,-3.81200000047,-1.53299999908,0.0245000002905,-0.00200000009499,0.00200000009499,3.0
15,508.589182538,50874.5,1518248482.0,139476675.5,,2286502.5,1518248482.0,139476675.5,,0.722182277511,-0.268079654629,0.0670286610925,-0.0515091977631,0.998442009114,0.00179438588855,-0.0213803409737,0.00579678559976,0.0166458324027,-0.0346008107002,-0.00222956962874,-0.0281983590712,0.0230052869867,4.16372656822,0.890123575926,4.43983316421,0.0159827396273,1.74048429728,0.308352440596,1595502.0,1518248482.0,139279262.5,,,,,,429105.0,1518248482.0,149317909.0,,0.958000010252,-1.11199998259,-1.25299999416,0.0360000003129,-0.00850000022909,0.00099999993108,3.0
16,508.691746641,50881.5,1518248482.0,209477284.5,,2286509.5,1518248482.0,209477284.5,,0.722291239064,-0.2678191764,0.06512991269,-0.051921720431,0.998424975711,0.00166265664389,-0.0211858636901,0.000783572899995,0.0158112134928,-0.041661909428,0.0183126164217,-0.0208569219918,0.0116816049204,2.65701663494,0.790909290313,4.18226289749,0.0775625444949,1.14437636733,0.30498225987,904159.0,1518248482.0,196999936.0,,,,,,429111.5,1518248482.0,214983493.0,,0.802999994159,-0.487000012398,-1.563000004,0.0244999998249,0.00050000008196,-0.00950000016017,3.0
17,508.794310744,50895.5,1518248482.0,349472912.5,,2286523.5,1518248482.0,349472912.5,,0.720755519811,-0.266414462284,0.0596454002936,-0.0525392876328,0.998350105601,0.00237300338725,-0.0230423596814,-0.0162717604294,-0.00188572923291,-0.0463865189856,0.00491023087442,0.053025447118,-0.00904455338784,1.70356214047,0.627163022756,3.59340596199,0.186355508864,0.660949259997,0.313347995281,904165.0,1518248482.0,348000000.0,,,,,,429126.5,1518248482.0,363634621.0,,0.032999998331,-1.01700001359,-0.212999987602,0.00400000019001,0.0065000000759,0.0209999997169,3.0
18,508.896874846,50902.5,1518248482.0,419476614.5,,2286530.5,1518248482.0,419476614.5,,0.719889899458,-0.265244515519,0.056757186328,-0.0530789040937,0.99830174377,0.00266477036351,-0.0238538097568,-0.00650892404826,0.0129274841417,-0.0346851711557,-0.0051149244133,0.0242542127157,0.02324573182,3.09808945655,0.840165644884,4.46242690087,0.001516841352,1.40223646164,0.275692105293,1595521.5,1518248482.0,410787710.5,,,,,,429132.5,1518248482.0,425555845.5,,-0.296999955177,-0.507000052928,-0.28299998045,0.0105000005569,-0.00050000008196,0.0170000004582,3.0
19,508.999438949,50914.5,1518248482.0,539465704.0,,2286542.5,1518248482.0,539465704.0,,0.719528443651,-0.264914253786,0.0524667498782,-0.052799167418,0.998304468286,0.00239491981554,-0.0243847517455,-0.00353838046284,0.0082856420188,-0.0375535597156,-0.00342777225915,0.016913250022,0.0296506610195,1.4224152565,1.01487642526,4.08667373657,-0.0435069724917,0.522710606456,0.272204861045,1595529.5,1518248482.0,539264494.5,,,,,,429145.0,1518248482.0,551034189.0,,0.42800000906,-1.8620000124,-0.0930000424385,0.0280000008643,-0.0109999999404,0.00499999988824,3.0
20,509.102003051,50924.5,1518248482.0,639469579.5,,2286552.5,1518248482.0,639469579.5,,0.711483895659,-0.253628109249,0.0494733011986,-0.0469378298348,0.998244921253,0.0129921012372,-0.0336601727374,-0.125451905803,0.0788798948874,-0.053501831258,0.00194786783775,0.264675156911,0.272465974044,6.06556844711,0.576413244008,2.12815594673,-1.92203378677,0.885514002293,0.250753253698,1595536.5,1518248482.0,639784788.0,,,,,,429154.5,1518248482.0,645743644.0,,-1.6919999063,2.73800013066,-1.0879999876,-0.568499982357,0.514500007033,0.134000003338,3.0
21,509.204567154,50936.5,1518248482.0,759466671.0,,2286564.5,1518248482.0,759466671.0,,0.710054877884,-0.251419818989,0.0421649652378,-0.0585124304462,0.997679193724,0.00434940673322,-0.0345473283462,0.0348821221121,0.0335150741888,-0.0384702176757,-0.106299474108,-0.118580001076,0.234518799226,1.92921978236,-2.81476867199,5.36203026772,2.07236838341,0.574464514851,0.333684027194,904181.0,1518248482.0,752999936.0,,,,,,429166.5,1518248482.0,765273349.0,,0.952999992668,-1.40200003385,-1.64299999475,0.0190000003204,0.0639999993145,0.0109999999404,-1.0
22,509.307131256,50946.5,1518248482.0,859471436.0,,2286574.5,1518248482.0,859471436.0,,0.710393326349,-0.243568670782,0.0403854830343,-0.0543648320683,0.997866144073,0.0131696472749,-0.0336517348683,-0.0584522900899,0.0868061866859,0.00111374886708,0.255214291664,0.156477671737,-0.197539614021,0.379587933423,-1.3935136795,5.08682751656,1.05675154924,0.385022588074,0.410259455442,904185.0,1518248482.0,852999936.0,,,,,,429176.5,1518248482.0,866307029.5,,0.312999999523,-1.87700000182,-0.637999999523,0.014999999723,-0.00400000007357,0.0164999999106,-1.0
23,509.409695359,50957.5,1518248482.0,969479024.5,,2286585.5,1518248482.0,969479024.5,,0.705763487863,-0.24334033126,0.0400437034014,-0.0528757926693,0.997714502038,0.01465674992,-0.0394324960532,-0.0339709857685,-0.0423992022554,0.00173755015264,-0.0686595485466,0.0748785535356,0.00554144153275,2.85715401173,-0.775971323251,4.85415506363,0.863961368799,1.16088581085,0.467636227608,1595560.0,1518248482.0,963292515.5,,,,,,429187.5,1518248482.0,975448874.5,,-0.522000038624,-0.0219999790192,-1.28800000548,0.0175000000745,0.0515000000596,0.0104999998003,-1.0
24,509.512259462,50964.5,1518248483.0,39498197.5,,2286592.5,1518248483.0,39498197.5,,0.706134612673,-0.248597619202,0.0402333099889,-0.0549884984891,0.997669657116,0.00947973874647,-0.0392611122736,0.0331150710906,-0.0794039480106,0.00620733656039,-0.168462347493,-0.0782418069576,0.09272717898,1.73018091917,-0.380071446299,4.42643785477,0.780436754227,0.661704808473,0.440112575889,2286937.5,1518248483.0,37555854.5,,,,,,429194.5,1518248483.0,45110399.5,,1.107999992,-1.13699998855,-0.0930000424385,-0.0179999996908,0.0714999996126,0.00299999979324,-1.0
25,509.614823564,50975.5,1518248483.0,149493606.5,,2286603.5,1518248483.0,149493606.5,,0.70687052397,-0.251791505438,0.0405411065997,-0.0530671631358,0.997806023885,0.00895036734655,-0.0385579127506,-0.0149037010451,-0.00235871155775,0.0049055856234,0.0653823937701,0.038866317022,-0.0877176306438,0.51276089251,-0.0289349257946,4.39404463768,0.722781419754,0.317265495658,0.44798412919,1595572.5,1518248483.0,149775390.5,,,,,,429205.5,1518248483.0,156501189.0,,0.0629999697206,-2.62200000286,0.362000000477,0.00949999969453,0.0244999993592,0.0169999999925,-1.0
26,509.717387667,50987.5,1518248483.0,269503695.5,,2286615.5,1518248483.0,269503695.5,,0.706327626216,-0.255402411751,0.0399934829471,-0.0487399589091,0.997989336388,0.0104209341588,-0.0391540313133,0.00669504052739,-0.0236537344913,0.00184459664506,0.00680091669771,-0.0154888907735,-0.0327495232741,1.83252042532,0.045073494315,4.7430100441,0.723876208067,0.732600927353,0.431700751185,1595581.0,1518248483.0,265291349.5,,,,,,429217.5,1518248483.0,276041168.0,,-0.202000015974,-3.0019999981,-0.558000016213,-0.00099999993108,0.0339999999851,0.0249999994412,-1.0
27,509.819951769,50995.5,1518248483.0,349494476.5,,2286623.5,1518248483.0,349494476.5,,0.707377120665,-0.257378599129,0.0401950894283,-0.0468642966764,0.99812504201,0.0108115866029,-0.0378550497507,0.00830910365939,-0.03998369423,0.00331290002022,-0.00257219669623,-0.0206205045731,-0.0782525280112,1.26051646471,0.0364168584346,5.51045775414,0.60068756342,0.748237371445,0.439270272851,1595586.0,1518248483.0,348775279.0,,,,,,429225.5,1518248483.0,356353488.5,,-0.006999993324,-3.4569999814,-0.552999961376,0.015000000596,0.0320000005886,0.0109999999404,-1.0
28,509.922515872,51007.5,1518248483.0,469494019.5,,2286635.5,1518248483.0,469494019.5,,0.707013868009,-0.260546654555,0.0403018772197,-0.045289363613,0.998186220702,0.0101851518128,-0.0383308720857,0.0012669517428,-0.0152433143725,-0.00231604558377,0.00970776844493,0.00217629860785,-0.0474958387011,1.55136084557,1.76269572973,5.05279064179,-0.215275123716,0.764060139656,0.350965633988,1595595.0,1518248483.0,466289721.0,,,,,,429237.5,1518248483.0,475850472.0,,0.00299999713895,-2.35200000331,-0.443000006676,0.0,0.026999999769,-0.00599999993574,-1.0
29,510.025079974,51015.5,1518248483.0,549495433.0,,2286643.5,1518248483.0,549495433.0,,0.707407246018,-0.261197974848,0.0406906989117,-0.0444023108219,0.998240950041,0.0101474663416,-0.0379505589588,0.0125072826386,0.00980092242184,0.00634379863246,0.00512135917347,-0.0261528148201,0.0100180503249,1.23439079523,1.29810160399,5.09962511063,0.0625365450978,0.60017132759,0.38825276494,1595600.0,1518248483.0,550273143.5,,,,,,429245.5,1518248483.0,556099497.0,,-0.352000021934,-3.39199998379,-0.0580000162125,0.00349999999162,0.0305000003427,0.0130000002682,-1.0
30,510.127644077,51024.5,1518248483.0,639494726.5,,2286652.5,1518248483.0,639494726.5,,0.707045522132,-0.259807736768,0.0404984861565,-0.0457253964026,0.998164185457,0.010441657315,-0.0383192648698,0.00660208040492,0.0103825763151,-0.000237738550993,0.00116268678618,-0.00834811732553,0.0109647170929,1.81392747164,0.670540183783,5.00898241996,0.323719292879,0.774853944779,0.404685944319,2286997.5,1518248483.0,637580387.0,,,,,,429255.0,1518248483.0,650857617.5,,1.19299999289,-3.64200004339,0.24699999094,-0.0010000000475,0.0230000000447,0.00849999999628,-1.0
31,510.230208179,51037.5,1518248483.0,769496474.0,,2286665.5,1518248483.0,769496474.0,,0.708413345057,-0.259732791599,0.0413576737401,-0.0452073066641,0.998235574022,0.0105755045491,-0.0370152961895,-0.00912030183319,0.00287711462872,0.00799369896084,-0.00654787294988,0.0169986642475,0.0196320692261,0.402599796653,0.472568362952,5.16498446465,0.370479047299,0.303642377257,0.398580491542,1595616.0,1518248483.0,768792373.5,,,,,,429267.5,1518248483.0,776536799.0,,0.812999992073,-2.47700000704,-1.41300000548,0.0249999994413,-0.00399999984075,-0.00900000007822,-1.0
32,510.332772282,51049.5,1518248483.0,889496058.5,,2286677.5,1518248483.0,889496058.5,,0.707761315349,-0.259842066742,0.0415635045139,-0.0450096070659,0.998215361894,0.0105579588698,-0.0377955926273,0.0128867171291,-0.00403025097358,0.0105048822109,0.00362725020444,-0.0132656564272,-0.0114135435588,2.14168649912,0.752058506012,5.43135023117,0.255389414727,0.962075829507,0.405380621552,2287022.5,1518248483.0,887565627.0,,,,,,429279.5,1518248483.0,897956808.0,,-0.812000000477,-2.83700000644,-0.702999997139,0.0259999996051,-0.0010000000475,0.00399999995716,-1.0
33,510.435336385,51059.5,1518248483.0,989497516.5,,2286687.5,1518248483.0,989497516.5,,0.708390688817,-0.259996526073,0.0416927363781,-0.0448227798041,0.9982343996,0.0105891885668,-0.0375069968538,0.0085874217212,-0.00573415281695,0.00424752302921,-0.00377172591534,-0.0129814313966,-0.00586087684385,0.860033303499,0.621723651886,5.29722738266,0.319113582372,0.414504766465,0.394570201635,2287032.5,1518248483.0,987578466.5,,,,,,429289.5,1518248483.5,496794832.0,,-1.07199999094,-2.18700000421,-0.142999994755,0.00649999978485,0.0255000013858,0.0339999990538,-1.0
34,510.537900487,51066.5,1518248484.0,59501690.5,,2286694.5,1518248484.0,59501690.5,,0.709218191978,-0.259601161106,0.0422930669389,-0.0451157661428,0.998252653747,0.010605589811,-0.0366549087528,0.00286305854009,-0.00559631855286,0.012312752376,-0.00948568788235,-0.00523869351573,-0.00561402527691,-1.20162731409,0.754058778286,6.81050515175,0.191358633339,-0.348244741559,0.362108528614,1595635.5,1518248484.0,54274667.0,,,,,,429296.5,1518248484.0,68258674.5,,-0.751999998092,-3.01700001359,-0.582999992371,-0.00150000024585,0.0190000003203,0.0260000005365,-1.0
35,510.64046459,51077.5,1518248484.0,169501957.0,,2286705.5,1518248484.0,169501957.0,,0.710828672706,-0.259204989711,0.0440877810018,-0.0450883036152,0.998320977883,0.0107904113451,-0.0347245309886,0.0183747516551,-0.00501946428491,0.0134466772847,-0.00385048611813,-0.0425718603049,-0.0195550438266,0.314378581941,0.810745865107,6.17937755585,0.130688499659,0.271192960441,0.349055409431,1595644.0,1518248484.0,170297057.0,,,,,,429308.0,1518248484.0,181718590.5,,-0.506999993324,-1.77199999392,-0.352999973297,0.00350000016624,0.0285000000149,0.007500000298,-1.0
36,510.743028692,51090.5,1518248484.0,299497716.5,,2286718.5,1518248484.0,299497716.5,,0.712466978075,-0.260022111336,0.0464222464506,-0.044966696745,0.99840145066,0.0101955007173,-0.032686159608,0.0184736859179,0.00372215960601,0.0211699278223,-0.0031954362407,-0.046517901735,0.00375709426474,-0.511920809746,1.19866603612,6.62252163887,-0.110029116273,0.0593324583022,0.321008503437,2287063.0,1518248484.0,292543504.0,,,,,,429320.5,1518248484.0,307073742.0,,-0.662000083924,-1.50700000823,-0.548000025749,0.00649999966843,0.0204999996349,0.010000000475,-1.0
37,510.845592795,51099.5,1518248484.0,389496880.0,,2286727.5,1518248484.0,389496880.0,,0.712708666583,-0.259534516693,0.0472215475843,-0.0450078126838,0.998408907016,0.0101522866368,-0.0324158130418,0.00681332061072,-0.00604796847315,0.00627864025301,-0.0175338308353,-0.0130652233769,0.0171788200451,-0.0087392292917,1.31036502123,5.71579241752,-0.159115538001,0.0685804896056,0.317351043225,2287072.5,1518248484.0,387573026.5,,,,,,429329.5,1518248484.0,397317936.0,,0.647999989242,-2.99700003267,-0.823000001907,-0.00449999980628,0.0300000002607,0.0154999997467,-1.0
38,510.948156897,51107.5,1518248484.0,469496658.5,,2286735.5,1518248484.0,469496658.5,,0.713220978019,-0.258217714987,0.0478412850722,-0.0456529305477,0.99838639325,0.0104240253734,-0.032117591614,-0.0018323426646,0.02283131141,0.00626366769178,0.0101757948523,0.0104362545577,0.0224802425706,-1.47568303346,0.80157610774,5.99369573594,0.108975682408,-0.351586952806,0.339419782162,1595664.5,1518248484.0,470292559.0,,,,,,429337.5,1518248484.0,477425013.0,,0.05300000906,-2.67700001001,-0.95299999714,-0.00099999998929,0.0115000000223,0.010000000475,-1.0
39,511.050721,51121.5,1518248484.0,609524140.0,,2286749.5,1518248484.0,609524140.0,,0.711424982888,-0.257745278847,0.0468974622708,-0.0464993927123,0.998280198339,0.0105504114127,-0.0340976446367,-0.00028146903156,0.00134389989302,-0.00478659809106,-0.00196776083909,0.0046161920665,0.0010172228944,0.208288053051,0.600478410721,6.54212474823,0.200106583535,0.119062114507,0.36812376976,2287093.0,1518248484.0,592586798.0,,,,,,429351.5,1518248484.0,617059285.0,,-1.26200004816,-2.16200000569,-0.457999992371,-0.00700000015785,0.0190000003204,0.026999999769,-1.0
