,Unnamed: 0,.header.seq,.header.stamp.secs,.header.stamp.nsecs,.header.frame_id,.endpoint_state.header.seq,.endpoint_state.header.stamp.secs,.endpoint_state.header.stamp.nsecs,.endpoint_state.header.frame_id,.endpoint_state.pose.position.x,.endpoint_state.pose.position.y,.endpoint_state.pose.position.z,.endpoint_state.pose.orientation.x,.endpoint_state.pose.orientation.y,.endpoint_state.pose.orientation.z,.endpoint_state.pose.orientation.w,.endpoint_state.twist.linear.x,.endpoint_state.twist.linear.y,.endpoint_state.twist.linear.z,.endpoint_state.twist.angular.x,.endpoint_state.twist.angular.y,.endpoint_state.twist.angular.z,.endpoint_state.wrench.force.x,.endpoint_state.wrench.force.y,.endpoint_state.wrench.force.z,.endpoint_state.wrench.torque.x,.endpoint_state.wrench.torque.y,.endpoint_state.wrench.torque.z,.joint_state.header.seq,.joint_state.header.stamp.secs,.joint_state.header.stamp.nsecs,.joint_state.header.frame_id,.joint_state.name,.joint_state.position,.joint_state.velocity,.joint_state.effort,.wrench_stamped.header.seq,.wrench_stamped.header.stamp.secs,.wrench_stamped.header.stamp.nsecs,.wrench_stamped.header.frame_id,.wrench_stamped.wrench.force.x,.wrench_stamped.wrench.force.y,.wrench_stamped.wrench.force.z,.wrench_stamped.wrench.torque.x,.wrench_stamped.wrench.torque.y,.wrench_stamped.wrench.torque.z,.tag
0,73.740844,7390.5,1518248047.0,299101081.5,,2243018.5,1518248047.0,299101081.5,,0.752763340455,-0.287514865214,0.11612260281,-0.0331484146987,0.999409770367,0.00196807003849,0.00879632789434,-0.0398630179777,0.042184626734,-0.0355903635757,-0.00762635580422,0.076947626424,0.0730003473276,2.5470379591,1.02246820927,4.98275518417,-0.107249721885,1.17510482669,0.365100234747,2243363.5,1518248047.0,297152650.5,,,,,,385664.5,1518248047.0,308990552.5,,0.910000031255,0.477999996021,0.456999969482,0.0439999997616,0.0179999996908,0.0515000000596,3.0
1,73.8434081026,7397.5,1518248047.0,369089059.0,,2243025.5,1518248047.0,369089059.0,,0.74967574019,-0.28502690028,0.112376064372,-0.0356570808874,0.999346347409,0.00172448430467,0.00569161285686,-0.0512585728014,0.0405911542308,-0.0600378262012,-0.0196704798767,0.095776668828,0.0833307839733,1.60841584206,0.733123630285,4.37705636024,0.0509638041257,0.617245391011,0.43104442954,1565161.5,1518248047.0,364086882.0,,,,,,385671.5,1518248047.0,380808374.0,,-0.639999988118,0.772999997811,-0.09800003767,0.0169999999926,-0.00300000002607,0.0480000004172,3.0
2,73.9459722051,7409.5,1518248047.0,489087904.0,,2243037.5,1518248047.0,489087904.0,,0.744477518512,-0.280375380515,0.105046466636,-0.0400138403675,0.999197126698,0.0018265045299,0.000711258358812,-0.0391801111642,0.032648089875,-0.059604175063,0.00185662928375,0.0754546880853,0.0524830561503,3.29908907413,0.692608714104,5.19071292877,0.0440862551331,1.39659327269,0.407870590687,2243382.5,1518248047.0,487168045.0,,,,,,385683.5,1518248047.0,500098173.5,,-0.814999992587,0.782999988273,0.926999998092,0.00100000016391,0.0105000003241,0.0319999996572,3.0
3,74.0485363077,7417.5,1518248047.0,569091120.5,,2243045.5,1518248047.0,569091120.5,,0.741442173755,-0.277339622828,0.100175865527,-0.0422989676146,0.999099616925,0.00212266477399,-0.00245818595107,-0.0481476228298,0.0411594598655,-0.0591935567062,0.0258421880667,0.0980598142305,0.0400778437717,1.78490942717,0.300729766488,4.83915996551,0.27167763561,0.803886413575,0.41706302762,1565175.5,1518248047.0,565084926.0,,,,,,385691.5,1518248047.0,580168621.5,,-1.78499996159,-0.396999989078,0.981999990346,0.0290000000968,0.0185000002384,0.0564999990165,3.0
4,74.1511004103,7428.5,1518248047.0,679103632.0,,2243056.5,1518248047.0,679103632.0,,0.736278578982,-0.274877049715,0.0929369469034,-0.0454000305668,0.99893400943,0.00158444580563,-0.00818898304206,-0.0438821658684,0.0156388368895,-0.0740959750474,-0.0182554277692,0.0948475612893,0.0454154212305,3.12018501759,0.289860159159,4.89833974839,0.294600144028,1.25657165051,0.400319904089,1565184.0,1518248047.0,680087607.5,,,,,,385702.5,1518248047.0,689269322.0,,0.0300000118095,0.842999990658,1.16699999273,0.00449999986449,0.0160000002943,0.0285000009462,3.0
5,74.2536645128,7441.5,1518248047.0,809089929.5,,2243069.5,1518248047.0,809089929.5,,0.731693902034,-0.272827322297,0.0866307927612,-0.0475494387683,0.998781129994,0.00149410004275,-0.0131485239897,-0.07549182978,0.0214159538492,-0.0560684628148,-0.00560689176635,0.165089544478,0.0513629616616,1.58334821462,0.768417596817,4.91478896141,0.02340593189,0.806655675173,0.334639623761,2243414.0,1518248047.0,802178442.0,,,,,,385715.0,1518248047.0,814406770.0,,-1.07999997828,-0.921999995038,1.57699999288,-0.00200000009499,0.0209999997169,0.0529999993742,3.0
6,74.3562286154,7449.5,1518248047.0,889102760.0,,2243077.5,1518248047.0,889102760.0,,0.727516629534,-0.27181164184,0.082152708214,-0.0487751736646,0.998647242801,0.00158775646044,-0.0179368324868,-0.047682170606,0.00921300086864,-0.0476802196665,-0.00236563683368,0.0945385536509,0.0295856967575,3.54463160038,1.03313827515,4.98523426055,-0.164046317339,1.3942745924,0.30781044066,2243422.5,1518248047.0,887186378.5,,,,,,385723.5,1518248047.0,900566567.0,,-0.135000000335,0.992999996617,1.05199999809,0.0094999996363,0.0410000011324,0.0405000001192,3.0
7,74.4587927179,7461.5,1518248048.0,9103825.5,,2243089.5,1518248048.0,9103825.5,,0.72612723591,-0.270506767095,0.077290009536,-0.050468227308,0.998558156499,0.00137138514106,-0.0182369478572,-0.00333959014395,-0.00920876947732,-0.0438611913466,-0.0151452800913,-0.0171994118691,0.00952515817842,3.92312252521,0.573892652989,5.1770067215,0.057623051107,1.76002722978,0.320232868194,2243434.0,1518248048.0,2161846.0,,,,,,385735.5,1518248048.0,19532905.0,,1.33499998357,0.853000025822,0.722000014783,0.0449999999255,0.0169999999925,0.0295000011101,3.0
8,74.5613568205,7468.5,1518248048.0,79090750.0,,2243096.5,1518248048.0,79090750.0,,0.725199830996,-0.270006108071,0.0750242272253,-0.050160768062,0.998555286906,0.00122577198771,-0.0192270325506,-0.0309414854761,-0.00711612949763,-0.0387071377577,-0.0197414593221,0.0581169838031,0.0009705844946,0.922021120787,1.27907526493,4.13742733002,-0.232129991054,0.400021895766,0.27493968606,1565211.0,1518248048.0,69569299.5,,,,,,385742.5,1518248048.0,89381845.0,,0.0699999978766,-0.0920000042766,1.07699997425,0.00799999991432,0.0164999999106,0.0520000010729,3.0
9,74.6639209231,7479.5,1518248048.0,189086747.0,,2243107.5,1518248048.0,189086747.0,,0.723910981126,-0.270558710331,0.0718287733069,-0.0511417548434,0.998495101229,-1.72395361995e-05,-0.0197945119667,0.00507398374894,0.00894740102078,-0.0287833146299,0.0029747031371,-0.0435136704778,-0.00526009223935,4.1384692192,1.1591514349,4.62867641449,-0.139645118267,1.79022490979,0.267594054341,1565220.0,1518248048.0,190078074.5,,,,,,385753.5,1518248048.0,200699425.0,,0.215000008605,1.22800004072,1.27699999959,0.0224999999628,0.0270000002347,0.0195000004023,3.0
10,74.7664850256,7491.5,1518248048.0,309088216.5,,2243119.5,1518248048.0,309088216.5,,0.722426199271,-0.26870473288,0.0680098415053,-0.0514056187538,0.998459556715,0.000798963834795,-0.0208560290441,-0.0161421740697,0.0223546685922,-0.0297245690253,0.016995818184,0.027206398459,0.0297890783151,2.52707660198,1.35944664478,4.69051861763,-0.310289338232,1.15112578869,0.244214437902,2243464.0,1518248048.0,302148094.0,,,,,,385765.5,1518248048.0,320272942.5,,-0.609999994374,0.452999990061,1.48699999396,0.0144999995828,-0.0190000003203,0.0389999998733,3.0
11,74.8690491282,7502.5,1518248048.0,419105534.0,,2243130.5,1518248048.0,419105534.0,,0.720877483259,-0.267644003811,0.06375611015,-0.0521835259161,0.998379058865,0.00105325294288,-0.0226869682239,-0.00835540014978,0.00186059981512,-0.051943014187,0.0003546326426,0.0218660154148,0.010433793482,3.10433840751,0.876716315746,4.56908869744,-0.0620102062823,1.43141680956,0.263648837805,2243474.0,1518248048.0,402138525.0,,,,,,385776.0,1518248048.0,425132827.0,,0.374999986402,-0.136999998614,1.2019999966,0.0305000003427,0.0084999995306,0.0435000006109,3.0
12,74.9716132308,7509.5,1518248048.0,489100853.5,,2243137.5,1518248048.0,489100853.5,,0.720183391961,-0.266395013572,0.0614576332595,-0.0526780120482,0.998342842018,0.0018172319245,-0.0230872802989,-0.0107006131274,0.00321529250788,-0.046015586797,0.00434253101549,-0.00165196520255,0.00582801809218,2.52958160639,0.977798372505,4.55836510658,-0.135919868946,1.17031222582,0.267279028892,1565240.5,1518248048.0,488589908.5,,,,,,385783.5,1518248048.0,501400537.0,,0.889999990723,2.09299999066,1.07199997902,0.00850000040375,0.0499999988824,0.0220000008121,3.0
13,75.0741773333,7523.5,1518248048.0,629093937.0,,2243151.5,1518248048.0,629093937.0,,0.719148006317,-0.266792421981,0.056245130621,-0.0543846244999,0.998221956696,0.00039885149049,-0.0243926093132,-0.0240966899552,-0.00603917686845,-0.0336818001791,-0.0338204812849,0.0625098429579,0.0332452574637,0.903631448746,0.860618054867,4.14616012573,-0.0403037369251,0.284760609269,0.258206039667,1565249.0,1518248048.0,619070472.5,,,,,,385797.0,1518248048.0,635227867.5,,-0.654999996165,-0.527000002936,1.25200000107,-0.00050000008196,0.00849999999627,0.0464999992401,3.0
14,75.1767414359,7530.5,1518248048.0,699090425.5,,2243158.5,1518248048.0,699090425.5,,0.719102282697,-0.266475890923,0.0541313206069,-0.0548796652031,0.998198060173,0.000375505322847,-0.0242616608672,0.00223548756944,0.00437555844373,-0.0282683365533,0.0109446821754,-0.00435806817085,-0.00241009382365,2.64837026596,0.634968340396,4.41631937027,0.0536638274787,1.07946011424,0.266443625092,2243503.5,1518248048.0,697171253.5,,,,,,385804.0,1518248048.0,704876668.5,,-1.23500000927,1.6779999692,1.13199999631,0.019500000868,0.00300000049175,0.0155000002123,3.0
15,75.2793055385,7544.5,1518248048.0,839084458.5,,2243172.5,1518248048.0,839084458.5,,0.719801110123,-0.265438726131,0.0494806466822,-0.055590203829,0.998179283421,0.000683882305423,-0.0233955965042,0.0254299939353,0.0036062495677,-0.0367560989034,-0.0188278177325,-0.0639512897323,0.0256511422074,3.42555403709,1.39344900846,3.99171936512,-0.327121347189,1.34380072356,0.254073530436,1565265.0,1518248048.0,839575365.5,,,,,,385818.5,1518248048.0,849730296.5,,0.409999971651,0.328000014275,0.162000012398,0.0350000010804,-0.00700000021606,0.058500001207,3.0
16,75.381869641,7553.5,1518248048.0,929090603.5,,2243181.5,1518248048.0,929090603.5,,0.721107383169,-0.26632974107,0.046761775012,-0.0554239717124,0.998213913111,-0.000174158078586,-0.0222930605939,0.010326248827,0.00294234913867,-0.029578635322,-0.0136598902046,-0.0197136801473,0.00798483494692,0.895509034395,0.913439840079,4.25703287125,-0.120319012552,0.409206077456,0.216508306563,1565270.0,1518248048.0,920578811.5,,,,,,385827.5,1518248048.0,941917041.0,,-1.21000000332,0.848000015692,0.966999989749,0.0185000002384,0.0034999998752,0.0379999987781,3.0
17,75.4844337436,7562.5,1518248049.0,19088577.5,,2243190.5,1518248049.0,19088577.5,,0.721363618265,-0.2651765767,0.043776398222,-0.0541159747507,0.998295384856,0.000904278823166,-0.0218391535093,-0.00717304034544,0.0155732455426,-0.0436714525991,0.0161063177157,0.0101026760025,0.0173843148423,2.81259930134,0.67690551281,3.95350539684,0.00933349877595,1.11264622211,0.239669270813,2243534.0,1518248049.0,2174980.0,,,,,,385836.0,1518248049.0,26064854.0,,-1.39999997113,-0.35200000219,1.16700000763,-0.00300000002608,0.0219999998808,0.0370000004768,3.0
18,75.5869978462,7574.5,1518248049.0,139086944.5,,2243202.5,1518248049.0,139086944.5,,0.721853381876,-0.264961501213,0.0398292639075,-0.0543722614399,0.998290533514,0.00124870716233,-0.0214031339585,0.0354031437192,0.00898583958617,-0.0293161472827,0.0184614463293,-0.0868885544571,-0.00267712226355,2.31617188454,0.726294010878,4.69014859199,0.026522308588,0.855119824409,0.260049849748,1565286.0,1518248049.0,139586992.5,,,,,,385848.0,1518248049.0,144960823.0,,-1.86000000928,1.09800004549,1.53699999377,0.0130000002682,0.0370000004768,0.0270000007004,3.0
19,75.6895619487,7584.5,1518248049.0,239088185.0,,2243212.5,1518248049.0,239088185.0,,0.724606828586,-0.264930075869,0.037326212918,-0.0540201510921,0.998368295162,0.00178494086746,-0.0184196171435,0.0187793896898,0.00256309651415,-0.0113127475241,0.0152368365327,-0.0298533459617,-0.00973478091726,0.432705916464,0.903103470801,4.13648247719,-0.0970802828668,0.252888165414,0.246640816331,1565293.0,1518248049.0,240574332.5,,,,,,385858.0,1518248049.0,246010547.5,,-0.775000000929,0.532999988275,1.9069999855,0.0664999966975,-0.0215000004973,-0.00250000040975,3.0
20,75.7921260513,7595.5,1518248049.0,349090612.0,,2243223.5,1518248049.0,349090612.0,,0.686115327563,-0.268191697908,0.0287459293959,-0.0425819831739,0.997130840756,0.0023752202139,-0.0625113574613,-0.312200622095,-0.0357860960864,-0.145330550091,-0.06601478177,0.670085823483,-0.00927264499495,31.175157547,1.06126868725,1.18752399087,0.177763834596,9.05826139449,0.672005832196,1565300.5,1518248049.0,348072454.5,,,,,,385869.0,1518248049.0,355384577.0,,4.64999998119,5.13799988814,3.87699992657,-0.0719999969006,0.925000011921,0.544000029564,-1.0
21,75.8946901538,7605.5,1518248049.0,449087761.5,,2243233.5,1518248049.0,449087761.5,,0.672922458782,-0.2726217494,0.0207388360277,-0.0416126763756,0.996068376657,0.00040985701936,-0.0782048000912,-0.0783337235328,-0.016975166658,-0.0680274898197,0.00699384035607,0.18853030016,-0.0703860547931,7.78991556168,1.79251569509,3.53090083599,0.123841449618,0.987248539923,0.669843673706,2243578.5,1518248049.0,447167351.0,,,,,,385878.5,1518248049.0,452288590.5,,2.54499996211,4.00300001689,3.02699996233,-0.0580000001937,0.50799998641,0.414499998093,-1.0
22,75.9972542564,7612.5,1518248049.0,519249701.5,,2243240.5,1518248049.0,519249701.5,,0.674663188026,-0.272851649974,0.0154192052635,-0.0410614014383,0.996322891855,0.000945821903794,-0.0751886043809,0.0489699723371,0.0139002325292,-0.071005960108,0.0493774451322,-0.169366611359,-0.0010611921129,10.7103719711,1.9258954525,7.44144678116,-0.391049668193,3.41008388996,0.479559704661,2243584.0,1518248049.0,502202666.0,,,,,,385886.0,1518248049.0,526282772.5,,0.854999971948,2.62800001688,1.72699999511,-0.0109999999404,0.208499997855,0.215000003577,-1.0
23,76.099818359,7624.5,1518248049.0,639250606.5,,2243252.5,1518248049.0,639250606.5,,0.682234084794,-0.269214560837,0.0165879866244,-0.0415916364552,0.996899775706,0.00292857752639,-0.066724747171,0.055141119794,0.0376030128679,0.00507914341778,0.031109680114,-0.123982653919,0.037317581754,1.60124194622,0.314329177141,5.61752080917,0.402095839382,0.09495883435,0.527768790722,1565320.5,1518248049.0,639170179.0,,,,,,385898.0,1518248049.0,645706205.5,,1.81999993827,1.97799998112,4.08199996948,-0.0559999998659,0.293999999762,0.234999999404,-1.0
24,76.2023824615,7635.5,1518248049.0,749256798.0,,2243263.5,1518248049.0,749256798.0,,0.684613692967,-0.267603850554,0.0186423740781,-0.0426568684024,0.99703056727,0.00272499601124,-0.0640496634166,0.0544741961351,0.0202148002214,0.0357608810026,-0.00588160259436,-0.102785219711,0.0281000285503,1.90911442041,-0.192799463868,3.75391066074,0.730496376753,0.346136316657,0.496050730348,1565328.5,1518248049.0,750163357.0,,,,,,385909.5,1518248049.0,761297347.0,,-0.0549999946725,2.37300002165,0.616999995706,-0.0370000004768,0.243499994278,0.113000001759,-1.0
25,76.3049465641,7645.5,1518248049.0,849249091.5,,2243273.5,1518248049.0,849249091.5,,0.687156172535,-0.267660956033,0.0190805995577,-0.0426938344516,0.997210693941,0.00273039194669,-0.0611590810957,0.0241857108536,0.0124654873167,0.00165840281862,0.0131665913475,-0.070573603943,0.0184577125966,3.90726912022,0.0166843831539,4.71413636207,0.544722229242,1.08144938946,0.510116517544,2243618.5,1518248049.0,847322130.0,,,,,,385919.5,1518248049.0,862135779.5,,-0.500000002422,2.33299994059,-0.0830000519751,-0.0334999989719,0.22650000453,0.104000002146,-1.0
26,76.4075106667,7652.5,1518248049.0,919252085.0,,2243280.5,1518248049.0,919252085.0,,0.688503018818,-0.268215754307,0.019264684214,-0.0423729366905,0.997281459662,0.00243818702104,-0.0602350594153,0.0125586770858,0.00759278519926,0.00616332966093,0.0147848130957,-0.00633355488495,-0.00843596449342,1.4520098567,0.235008150339,5.24801254273,0.507867559791,0.129907432944,0.514627337455,2243624.0,1518248049.0,902297707.0,,,,,,385926.0,1518248049.0,926139255.5,,0.364999979178,2.65799998827,0.631999981403,-0.0299999993295,0.239999994636,0.103000000119,-1.0
27,76.5100747692,7667.5,1518248050.0,69253648.5,,2243295.5,1518248050.0,69253648.5,,0.690454122327,-0.268394282552,0.020158153165,-0.0420765719434,0.997407995802,0.00251224360061,-0.0583132391269,0.021661672716,0.00613691479638,0.013354137806,0.005203727053,-0.0402526825456,0.0156935030353,2.65433132648,0.555186897516,5.02977418899,0.385669901967,0.806383699179,0.518885970115,887061.0,1518248050.0,54000128.0,,,,,,385941.0,1518248050.0,76723631.0,,-1.12500002477,2.46299999543,0.141999971867,-0.0295000011101,0.23599999398,0.104499999434,-1.0
28,76.6126388718,7673.5,1518248050.0,129253065.0,,2243301.5,1518248050.0,129253065.0,,0.690348029069,-0.267946624088,0.0204725196973,-0.0423331223429,0.997392581273,0.00254824319817,-0.0583897461489,0.0130872648732,-0.00360363687978,0.0183634355434,0.0074248378134,-0.0295662960715,-0.0208988880092,3.01599514485,0.327427536249,7.02767682075,0.467294856906,0.927179217338,0.501902878284,1565355.0,1518248050.0,118671822.5,,,,,,385947.0,1518248050.0,136496780.5,,-0.165000001527,2.16300004311,0.737000000477,-0.00700000021605,0.138499997556,0.10000000149,-1.0
29,76.7152029744,7685.5,1518248050.0,249268557.0,,2243313.5,1518248050.0,249268557.0,,0.692001034953,-0.268423502059,0.0222352589726,-0.0422776366154,0.997481872902,0.00226648830496,-0.05689786396,0.0150465244166,0.00757357596753,0.0169969096787,0.00989478986639,-0.0303750180334,0.00669685827548,2.07379543781,0.583642661572,5.15770173072,0.387261211872,0.50505296886,0.514285326004,1565363.5,1518248050.0,249665037.0,,,,,,385959.0,1518248050.0,255946300.0,,-0.579999993185,3.48800003118,0.181999993324,-0.0194999999367,0.22500000149,0.109999999404,-1.0
30,76.8177670769,7695.5,1518248050.0,349255089.5,,2243323.5,1518248050.0,349255089.5,,0.694438097476,-0.268173790246,0.0230241108811,-0.0425042500014,0.997596494637,0.00237039913307,-0.0546717299032,0.031990605059,0.0141451294618,0.00768239202515,0.0111229945184,-0.0662258882211,0.0117404909248,2.18653523922,0.31693290174,6.38725399971,0.564202040434,0.747067093849,0.540846318006,1565370.5,1518248050.0,350177135.5,,,,,,385969.0,1518248050.0,356585944.0,,-0.00999998543411,4.38799988814,0.727000010014,-0.0189999993891,0.170000001788,0.105999998748,-1.0
31,76.9203311795,7708.5,1518248050.0,479249324.0,,2243336.5,1518248050.0,479249324.0,,0.698910136947,-0.268593880592,0.0263526143724,-0.0422122255912,0.997871755852,0.00164297025045,-0.049671995287,0.0497972328982,-0.0152370628279,0.0411298517616,-0.0264578072965,-0.119482766369,-0.0131512723277,0.232602301985,0.43959698081,7.88242244721,0.441814780236,0.162460662425,0.490626513958,1565379.5,1518248050.0,471152728.5,,,,,,385982.0,1518248050.0,488185669.5,,-0.94499998782,1.69800000973,1.41699999273,0.00350000010803,0.0315000005066,0.0370000004769,-1.0
32,77.0228952821,7717.5,1518248050.0,569249356.5,,2243345.5,1518248050.0,569249356.5,,0.702270738351,-0.269581024677,0.0301823866276,-0.0431848386563,0.998008120229,2.13391690242e-05,-0.045985338048,0.0485505761995,-0.0228307266548,0.0402686116097,-0.0566173517414,-0.0982873455652,0.0346563420718,-0.314735800027,0.713619709015,5.49672532082,0.362736403942,0.0114204138515,0.509808778763,887081.0,1518248050.0,560999936.0,,,,,,385991.0,1518248050.0,576858944.0,,-0.460000003316,2.13300001212,0.297000002861,0.00250000017695,0.0145000002812,0.023000000976,-1.0
33,77.1254593846,7728.5,1518248050.0,679260769.0,,2243356.5,1518248050.0,679260769.0,,0.706313576941,-0.27001849927,0.0343092353712,-0.0433509626875,0.998197043951,-0.000945314130301,-0.0415020390042,0.051411369013,0.0247678332854,0.0477902160826,0.0496200424031,-0.119558997047,-0.042300423851,-1.68431764841,0.415408983827,6.45348596573,0.815673828125,-0.469533637166,0.481353893877,1565393.5,1518248050.0,672152067.0,,,,,,386002.0,1518248050.0,688228020.0,,-0.215000005998,0.787999983506,1.3819999963,-0.0010000001639,0.0259999996052,0.0224999999627,-1.0
34,77.2280234872,7737.5,1518248050.0,769268824.0,,2243365.5,1518248050.0,769268824.0,,0.707114493094,-0.268365017502,0.0363467980975,-0.0426699344793,0.998281165722,0.00111552082839,-0.0401585467463,-0.00341792999028,0.0067279597723,0.01526501161,0.00448062845356,-0.000561595484205,0.0213904660371,0.0749637559054,0.475933015347,4.96393513679,0.343358322978,0.223568499088,0.457727879286,887089.0,1518248050.0,763000064.0,,,,,,386011.0,1518248050.0,777021032.0,,-0.640000003019,1.07800000496,0.281999957561,0.00599999981932,0.0150000005961,0.0560000017286,-1.0
35,77.3305875897,7749.5,1518248050.0,889253853.5,,2243377.5,1518248050.0,889253853.5,,0.706748073829,-0.2678123994,0.0362044359886,-0.0435617400318,0.998227182088,0.00106085205223,-0.040541244865,-0.00396789164687,0.0104303510574,-0.00501745201588,0.0122095666105,0.0148057278457,0.00588283415463,-0.748398631812,0.368481740356,6.60077190399,0.49724677205,-0.146467983723,0.475007832051,2243722.5,1518248050.0,887315909.5,,,,,,386022.5,1518248050.0,894359624.5,,-0.154999996163,1.64799999781,0.827000004053,0.0109999999404,0.0195000004024,0.0329999998212,-1.0
36,77.4331516923,7757.5,1518248050.0,969249990.0,,2243385.5,1518248050.0,969249990.0,,0.706603457014,-0.268050594108,0.0354561442145,-0.0433519219855,0.998224381461,0.000993867205463,-0.0408373878389,-0.0124931691741,0.0027419100204,-0.0141039293726,-0.00875169619304,0.031592864018,0.0233513495152,-0.897845953703,0.404727190733,7.40173339843,0.47282640636,-0.219375684858,0.467932403087,887097.0,1518248050.0,967000064.0,,,,,,386031.0,1518248050.0,978937935.5,,-0.26500000488,1.35299998112,0.652000021935,0.0010000000475,0.0194999994711,0.0300000002608,-1.0
37,77.5357157949,7769.5,1518248051.0,89246951.0,,2243397.5,1518248051.0,89246951.0,,0.706231631709,-0.267754443098,0.03564018035,-0.0435415740477,0.998203379511,0.00118923491784,-0.0411394794193,-0.00624394772428,0.00156094924113,0.00600632382017,-0.00080526683405,0.00843463521545,0.00687071401956,-0.838929176331,0.444745063782,7.26711153984,0.55582934618,-0.153013244272,0.51210668683,2243742.5,1518248051.0,87302790.5,,,,,,386042.5,1518248051.0,92483320.5,,0.324999993108,2.54799997397,0.636999976635,0.00449999980628,0.027999999933,-0.00350000010803,-1.0
38,77.6382798974,7777.5,1518248051.0,169254077.0,,2243405.5,1518248051.0,169254077.0,,0.706300378594,-0.267634753924,0.0365046718035,-0.0433081475067,0.998211006783,0.00127448613935,-0.041198982652,-0.0196293315617,0.0067449965301,0.00417807805859,0.00075687562545,0.042859182754,0.0163450686704,-1.88001126051,0.508635103702,6.94373440742,0.567972838878,-0.436664178967,0.524531900883,887105.0,1518248051.0,168999936.0,,,,,,386051.0,1518248051.0,178199629.0,,-0.0049999902025,0.217999990657,0.971999999879,0.019499999471,0.0109999999404,0.0409999992698,-1.0
39,77.740844,7790.5,1518248051.0,299268687.0,,2243418.5,1518248051.0,299268687.0,,0.705201234627,-0.266925056964,0.0359954135205,-0.0436997617691,0.998139512149,0.00163731777613,-0.0424862333269,0.0030789902922,-0.00655365671741,-0.0037669899379,0.00941073565042,-0.00938025866861,-0.0189298113418,-0.484802871942,0.201928436756,6.88899445533,0.636827528477,-0.0535654444248,0.497222095728,2243763.5,1518248051.0,297332658.0,,,,,,386064.0,1518248051.0,308188331.0,,-1.81500002239,-0.017000001296,0.801999998092,0.00950000016017,0.0305000003427,0.0134999998845,-1.0
