,Unnamed: 0,.header.seq,.header.stamp.secs,.header.stamp.nsecs,.header.frame_id,.endpoint_state.header.seq,.endpoint_state.header.stamp.secs,.endpoint_state.header.stamp.nsecs,.endpoint_state.header.frame_id,.endpoint_state.pose.position.x,.endpoint_state.pose.position.y,.endpoint_state.pose.position.z,.endpoint_state.pose.orientation.x,.endpoint_state.pose.orientation.y,.endpoint_state.pose.orientation.z,.endpoint_state.pose.orientation.w,.endpoint_state.twist.linear.x,.endpoint_state.twist.linear.y,.endpoint_state.twist.linear.z,.endpoint_state.twist.angular.x,.endpoint_state.twist.angular.y,.endpoint_state.twist.angular.z,.endpoint_state.wrench.force.x,.endpoint_state.wrench.force.y,.endpoint_state.wrench.force.z,.endpoint_state.wrench.torque.x,.endpoint_state.wrench.torque.y,.endpoint_state.wrench.torque.z,.joint_state.header.seq,.joint_state.header.stamp.secs,.joint_state.header.stamp.nsecs,.joint_state.header.frame_id,.joint_state.name,.joint_state.position,.joint_state.velocity,.joint_state.effort,.wrench_stamped.header.seq,.wrench_stamped.header.stamp.secs,.wrench_stamped.header.stamp.nsecs,.wrench_stamped.header.frame_id,.wrench_stamped.wrench.force.x,.wrench_stamped.wrench.force.y,.wrench_stamped.wrench.force.z,.wrench_stamped.wrench.torque.x,.wrench_stamped.wrench.torque.y,.wrench_stamped.wrench.torque.z,.tag
0,112.392848,11253.5,1518248085.0,929762903.0,,2246881.5,1518248085.0,929762903.0,,0.761639887421,-0.294612987134,0.127456683799,-0.0250878283578,0.9995510681,0.00285656490261,0.0161204141491,0.00471903967839,0.00407267634614,-0.0016027823635,0.0087326973701,-0.00419254148065,0.00021072816037,4.3668808937,0.499195665121,4.38064312935,0.26492267847,1.81082963944,0.398654922843,888479.5,1518248085.0,923500032.0,,,,,,389523.5,1518248085.0,938427764.5,,-0.098000008799,-1.90599997789,-0.366999997944,0.0125000001863,0.0129999998026,0.00350000010803,0.0
1,112.495412103,11265.5,1518248086.0,49777037.0,,2246893.5,1518248086.0,49777037.0,,0.761507805731,-0.293521611513,0.127247560743,-0.0256700790644,0.999536719026,0.00347051357951,0.015977784451,0.00186851700452,-0.0106315071902,0.00375478152325,-0.00984920836935,-0.0109071533541,-0.00169727107305,4.67168688774,0.425960883498,4.35402870178,0.300321370363,1.89718014001,0.413980722428,2247238.5,1518248086.0,47821706.5,,,,,,389535.5,1518248086.0,59799756.0,,-1.18800001983,-2.55099999234,-0.407000000775,0.0209999997169,0.00200000009499,0.00500000012107,0.0
2,112.597976205,11273.5,1518248086.0,129759955.0,,2246901.5,1518248086.0,129759955.0,,0.761692200666,-0.29420868014,0.127430027083,-0.0248105077392,0.999556121922,0.00334830801113,0.0161431255828,-0.00795247645547,-0.0141112905487,-0.00716838376433,-0.00805539069757,0.0145658790678,-0.0195868630546,4.7965593338,0.555162802339,4.39923357964,0.219666615128,1.96155250072,0.396167099475,888488.0,1518248086.0,129999872.0,,,,,,389543.5,1518248086.0,137848231.5,,-1.91799991969,-2.11599999369,-0.326999995112,0.0204999996349,0.0169999999926,0.0195000004023,0.0
3,112.700540308,11284.5,1518248086.0,239767877.0,,2246912.5,1518248086.0,239767877.0,,0.76155212261,-0.294895368818,0.127302736314,-0.0244765554826,0.99956619302,0.00302311834702,0.0160968087858,0.0047021504428,0.0113854549702,-0.000172149621595,0.00464407831786,-0.0112015688581,0.0102597409258,4.60015606881,0.552383780479,4.35040974617,0.248317763209,1.86946773529,0.399267956614,1567875.0,1518248086.0,233915736.0,,,,,,389554.5,1518248086.0,248867817.0,,-0.643000062741,-1.07099999189,-0.23200000003,0.0150000005961,0.00250000006054,0.0180000001565,3.0
4,112.80310441,11292.5,1518248086.0,319766143.0,,2246920.5,1518248086.0,319766143.0,,0.761384126547,-0.29461804191,0.127243316617,-0.0245960394963,0.99956539493,0.00326149659526,0.0159170642234,0.00356414455226,0.000365088314806,0.00242764327778,-0.00061809907655,-0.0112302248488,-0.0056002010974,3.69426989555,0.652189940214,4.65358638764,0.162930961698,1.47409075499,0.366921558976,888495.5,1518248086.0,320499968.0,,,,,,389562.5,1518248086.0,329238105.0,,-1.64799999836,-0.960999977588,-0.646999995411,0.0194999994711,-0.00200000003679,0.0164999999106,3.0
5,112.905668513,11306.5,1518248086.0,459758100.5,,2246934.5,1518248086.0,459758100.5,,0.763156549968,-0.292919894958,0.126909745673,-0.0256979099891,0.999496043679,0.00360755964236,0.0182804849164,-0.00965224885141,-0.0168123501592,-0.00153785689722,-0.0136375464177,0.0168964891725,-0.0165711491421,1.85924583673,0.753240495921,5.01307392121,0.106609083712,1.00794649124,0.362509280443,1567890.0,1518248086.0,460422838.5,,,,,,389576.5,1518248086.0,469448897.5,,-1.4029999936,-2.07099999189,-0.94200000465,0.01300000021,0.0120000001043,0.0544999986887,3.0
6,113.008232615,11314.5,1518248086.0,539759905.0,,2246942.5,1518248086.0,539759905.0,,0.761693002558,-0.29330187864,0.125399293207,-0.0257942155982,0.99952070728,0.00318174274453,0.0168043885878,-0.0204113302305,-0.00470397779783,-0.0174403627313,-0.00392348754378,0.030566364088,-0.00657629789301,1.06003022194,1.17195123435,4.49061059952,-0.16336300224,0.520080462098,0.328163161874,1567896.0,1518248086.0,535926854.5,,,,,,389584.5,1518248086.0,549478432.5,,-0.643000003137,-0.911000025271,-1.24199997187,0.0254999995232,-0.0279999999329,0.0105000003241,3.0
7,113.110796718,11326.5,1518248086.0,659778072.5,,2246954.5,1518248086.0,659778072.5,,0.759042607353,-0.292722282094,0.122406650315,-0.0277439063112,0.999501390813,0.00196702790867,0.0149427879359,-0.0377220267716,0.00821946099046,-0.0438555850159,-0.0409967300211,0.0775243540564,0.0516570945661,-1.03027117252,1.40894699097,4.49444055557,-0.159376531839,-0.148685880005,0.303185880184,1567904.0,1518248086.0,660929576.5,,,,,,389596.5,1518248086.0,668971524.0,,-2.46299999599,-1.51599998474,0.00300000309945,-0.00200000009499,-0.00150000007124,0.0159999998286,3.0
8,113.213360821,11333.5,1518248086.0,729762873.0,,2246961.5,1518248086.0,729762873.0,,0.756132495982,-0.290954605446,0.119303598334,-0.0292094810325,0.999495690862,0.00186459192901,0.012299985783,-0.0373433825322,0.0421697350244,-0.0498785763847,0.0129302448666,0.0731397622826,0.0656035264294,2.17957872152,1.50810825825,4.62417912483,-0.243613734842,0.969670325518,0.312354564667,888511.5,1518248086.0,726000000.0,,,,,,389603.5,1518248086.0,738999390.5,,-1.17300003413,-2.05099998116,0.193000000715,0.00400000018998,0.00399999978254,0.0109999999404,3.0
9,113.315924923,11346.5,1518248086.0,859779380.0,,2246974.5,1518248086.0,859779380.0,,0.749208616916,-0.287080764125,0.112072497431,-0.033807888219,0.999414368166,0.00114163541648,0.00513134738389,-0.0506497133829,0.0141367469489,-0.0669980305275,-0.0430499973778,0.103711574656,0.0648778987447,2.04562735558,1.10727155209,4.7366039753,-0.0874974131585,0.719902709126,0.3518692106,2247319.5,1518248086.0,857835846.5,,,,,,389616.5,1518248086.0,869004330.0,,-1.78800004367,-1.19099999666,-0.136999997497,0.00300000002607,0.0235000001266,0.0374999996275,3.0
10,113.418489026,11357.5,1518248086.0,969763993.5,,2246985.5,1518248086.0,969763993.5,,0.744320545352,-0.282663163093,0.104513822768,-0.0382083537537,0.999269521489,0.000643782554911,0.000198047680268,-0.0280250133428,0.029314441805,-0.0492210514733,0.016288842353,0.0491809670003,0.0262879122834,1.20017504692,1.02328783274,4.91414141655,0.043712235987,0.576502621174,0.349373742938,1567925.5,1518248086.0,967938330.0,,,,,,389627.5,1518248086.0,977931869.0,,-1.1830000246,-2.45099999458,-0.176999992877,0.0144999995828,0.00200000009499,0.0255000004545,3.0
11,113.521053128,11366.5,1518248087.0,59769087.5,,2246994.5,1518248087.0,59769087.5,,0.741453986533,-0.279352996464,0.0988772948168,-0.0410065260508,0.999155316821,0.000998556183062,-0.00235274054863,-0.0233719887485,0.0521052377247,-0.0560782285836,0.0234640911382,0.0269005234605,0.0732038036377,1.88219070435,0.479181244969,5.49023461341,0.280144162476,0.830473661423,0.415451422334,2247339.5,1518248087.0,57837408.5,,,,,,389636.5,1518248087.0,68696203.5,,-1.81300001983,-1.82600001693,-0.556999999285,0.0215000007302,0.0109999999404,0.0185000002384,3.0
12,113.623617231,11377.5,1518248087.0,169766260.5,,2247005.5,1518248087.0,169766260.5,,0.736818126074,-0.274019371634,0.0917919328191,-0.0436850973506,0.999014651578,0.00236299924267,-0.00746374015536,-0.0452201582484,0.030076811937,-0.0664817922996,0.0125335233428,0.0995541822703,-0.0213309479424,1.72029179334,0.289532899856,5.49711108207,0.386757209897,0.89032173157,0.410992890596,1567939.5,1518248087.0,169408759.5,,,,,,389647.5,1518248087.0,179985532.0,,-0.418000009097,-2.98599999845,-1.37699999214,0.042500000447,0.0164999999106,0.0295000001788,3.0
13,113.726181333,11386.5,1518248087.0,259774300.5,,2247014.5,1518248087.0,259774300.5,,0.73271221241,-0.271373849911,0.0876218697841,-0.0452756259307,0.998896921053,0.00280273207437,-0.0121270875049,-0.0580149671857,0.0195949050565,-0.0526670749058,0.0201631882366,0.126991494783,0.0196739738936,0.74787068367,0.339467555285,4.97687220574,0.321007445454,0.435974150896,0.394626691937,2247359.5,1518248087.0,257835118.5,,,,,,389656.5,1518248087.0,268325085.0,,-0.453000005521,-1.19099999667,-0.77199998796,0.0185000002384,0.0380000006408,0.0284999990836,3.0
14,113.828745436,11397.5,1518248087.0,369763473.0,,2247025.5,1518248087.0,369763473.0,,0.727214910932,-0.270458283681,0.0819605713893,-0.0477160629135,0.998694186226,0.001745460905,-0.0181634707845,-0.0370028058696,0.00019591028994,-0.0428977520623,-0.0500893513553,0.0758728518345,0.0533352353533,2.7535687089,0.57257142663,5.09226083755,0.151474967599,1.13471344113,0.341340139508,1567953.5,1518248087.0,370419776.5,,,,,,389667.5,1518248087.0,378974094.5,,-0.473000016249,-0.771000039578,-1.41200001836,0.0370000004769,0.00850000046195,-0.00799999968151,3.0
15,113.931309538,11409.5,1518248087.0,489764496.5,,2247037.5,1518248087.0,489764496.5,,0.725977630697,-0.270463202503,0.0775507391838,-0.0483594349503,0.998656996948,0.000174155847312,-0.0185781466272,-0.00748975810917,0.00240745187922,-0.0272893126476,-0.0117697700251,0.00531724461038,0.0243191095534,0.570010364058,0.975115835666,5.15485572815,0.0170465037227,0.291666065343,0.341522291303,1567962.0,1518248087.0,486425441.0,,,,,,389679.0,1518248087.0,494492222.0,,-1.97300010566,-3.03100000024,-0.952000010014,0.0299999993294,-0.0170000009239,0.0,3.0
16,114.033873641,11418.5,1518248087.0,579758511.5,,2247046.5,1518248087.0,579758511.5,,0.724255536469,-0.269317281268,0.0747240462613,-0.0490221102253,0.998595843703,0.000769470348309,-0.0200617714968,-0.0306678320461,0.0133924045174,-0.029666803392,0.0002161730679,0.0550669518049,0.0167918095651,1.72391343117,0.885520219803,4.46092820167,-0.0011301934719,0.635107666254,0.303580150008,1567967.5,1518248087.0,571932826.5,,,,,,389688.5,1518248087.0,589108594.5,,-1.46800005082,-2.18099999129,0.30300001502,0.0179999993416,0.0,0.0310000004247,3.0
17,114.136437744,11429.5,1518248087.0,689760988.5,,2247057.5,1518248087.0,689760988.5,,0.722831302297,-0.268950274677,0.0717168823287,-0.0498914101906,0.998536187718,0.000664131636373,-0.0208755244901,-0.00893648205618,-0.0257523541492,-0.0327469551514,-0.0238024145739,0.0162225608761,-0.0320283041651,1.81297755242,1.40453135967,4.25267720222,-0.189534731209,0.761688113212,0.339512541891,1567976.0,1518248087.0,687425894.5,,,,,,389699.5,1518248087.0,699585270.5,,-0.443000015057,-2.58599999156,0.177999985218,-0.00200000003679,0.0329999998211,0.0120000001043,3.0
18,114.239001846,11440.5,1518248087.0,799764624.0,,2247068.5,1518248087.0,799764624.0,,0.722340482757,-0.267631995008,0.06781210397,-0.0510943845608,0.998471503009,0.000957997618548,-0.0210459608789,-0.00181239242165,0.0139277846897,-0.0352101680025,0.00937185191337,-0.0099187387772,0.0285980638212,4.51234054566,1.01827818155,5.06526470184,-0.0885436162355,2.02820330858,0.290299460291,1567984.0,1518248087.0,799906310.5,,,,,,389710.0,1518248087.0,804736229.0,,-0.743000026978,-1.56599999666,-0.371999996901,0.0254999992903,0.0204999991693,0.0069999998086,3.0
19,114.341565949,11449.5,1518248087.0,889769151.5,,2247077.5,1518248087.0,889769151.5,,0.721811064581,-0.266268136012,0.0645389594655,-0.0516682101094,0.998430194126,0.00187187515669,-0.0215382102584,0.001415019305,0.0181874487,-0.0448322251531,0.0427553777626,-0.0136702292435,0.00644869355635,4.45414400101,0.638585448265,4.93676042556,0.0523037053644,2.0081794858,0.305422514677,888557.5,1518248087.0,890999936.0,,,,,,389719.0,1518248087.0,895148910.5,,0.871999980695,-1.82600001693,-1.58700000048,0.0419999994338,0.0125000004191,0.010000000475,3.0
20,114.444130051,11460.5,1518248087.5,499761245.0,,2247088.5,1518248087.5,499761245.0,,0.704154880504,-0.265555173002,0.0591230972615,-0.051133435638,0.997829501358,0.00315611912532,-0.0413663905737,-0.206894428395,0.0124752246698,-0.0677945257833,0.00529139475834,0.4420223191,0.0134952610994,16.1897096634,1.15050798655,0.742520093918,-0.460132077337,3.95680856705,0.370106130838,1567998.0,1518248087.5,500439318.5,,,,,,389730.5,1518248088.0,9929506.0,,1.15699997899,0.913999903203,-1.06199997962,0.122499998659,0.0949999969453,0.0065000001923,1.0
21,114.546694154,11470.5,1518248088.0,99761494.0,,2247098.5,1518248088.0,99761494.0,,0.703529488375,-0.263851610701,0.0539172089706,-0.0546807262069,0.997675863355,0.0020333310722,-0.0406032305962,0.0249570579826,0.0160123889117,-0.0469005007962,-0.000682880427815,-0.0888769129241,0.0320890296245,1.61763995886,0.379686325789,5.27470636368,0.319538071752,0.384846508503,0.348640009761,1568005.0,1518248088.0,100428234.0,,,,,,389740.5,1518248088.0,110803225.5,,-0.252999987639,-1.88099999427,-0.206999997795,-0.00150000007124,0.0210000006482,0.00500000012107,-1.0
22,114.649258256,11478.5,1518248088.0,179762264.5,,2247106.5,1518248088.0,179762264.5,,0.704499203904,-0.260638482052,0.0512463393091,-0.0560480249478,0.997668640119,0.00334608989273,-0.0387873683926,-0.0290958867407,0.0475403230863,-0.0165008924689,0.043109649545,0.0736833587779,0.0319619082782,1.89526820183,0.245272964239,5.84606814384,0.190451927483,1.32375979423,0.319479748606,2247450.0,1518248088.0,162853698.0,,,,,,389748.5,1518248088.0,189362156.5,,-1.00300001744,-1.89100001641,-0.377000021932,0.0379999997094,-0.042500000447,-0.0125000001863,-1.0
23,114.751822359,11489.5,1518248088.0,289761311.5,,2247117.5,1518248088.0,289761311.5,,0.69615780159,-0.259198941542,0.0517008943999,-0.0575173794893,0.997120279509,0.00292480901421,-0.0493363775371,-0.0532085880199,0.0136226487445,0.0119725405501,-0.0164709686399,0.147077925524,0.0410415232525,3.43579733372,-0.0742224380374,4.43618559837,0.564955294133,1.1393752098,0.36391377449,1568018.0,1518248088.0,290924414.0,,,,,,389759.0,1518248088.0,294919551.5,,-0.497999992409,-2.25600000172,0.443000000715,0.0209999997169,0.0294999992475,0.00950000050944,-1.0
24,114.854386462,11497.5,1518248088.0,369759802.5,,2247125.5,1518248088.0,369759802.5,,0.693818433683,-0.258424842561,0.051858653984,-0.0582407589391,0.99693175756,0.00293156266167,-0.0522154729922,-0.0168035674833,0.00029355101345,0.00088423026375,-0.0133064887671,0.0577736617103,0.00924367597815,4.32627081871,0.147891834378,3.89376533031,0.41344127059,1.3839456439,0.337931379676,2247470.0,1518248088.0,362856385.0,,,,,,389767.5,1518248088.0,381193921.0,,-1.13800000791,-2.51599999033,-0.401999998093,0.020499999635,0.0329999998212,0.0230000000447,-1.0
25,114.956950564,11511.5,1518248088.0,509764418.5,,2247139.5,1518248088.0,509764418.5,,0.699046095105,-0.258878799852,0.0516861912157,-0.0577299358924,0.997272499462,0.00282362780735,-0.0459002075457,0.0278302252053,-0.00282915142305,-0.00870585224586,0.00465277194451,-0.0805433026369,-0.00068676046835,2.06169766187,0.0394218713045,4.61790442467,0.485910624266,0.969567537307,0.373389869928,1568033.5,1518248088.0,508426993.5,,,,,,389781.0,1518248088.0,515133699.0,,-0.563000019826,-1.64099998474,-0.22199999094,0.0359999984503,0.0209999997169,0.00200000009499,-1.0
26,115.059514667,11520.5,1518248088.0,599762161.0,,2247148.5,1518248088.0,599762161.0,,0.701221577507,-0.259693281559,0.0516281858652,-0.0575621758241,0.997408615444,0.00256000007911,-0.043076892209,0.00494910052053,-0.0014899427876,0.00285054122318,-0.00235910010376,-0.0102996428777,-0.00696069695042,2.09953457117,0.0404381155967,4.9946463108,0.476476073265,1.24654579163,0.372273907066,1568039.5,1518248088.0,598427135.5,,,,,,389790.5,1518248088.0,609994436.5,,-0.238000009395,-1.69099999666,-1.43700002432,0.0565000008791,-0.0375000014901,-0.0179999992251,-1.0
27,115.162078769,11531.5,1518248088.0,709776639.5,,2247159.5,1518248088.0,709776639.5,,0.69988197599,-0.261287920255,0.0513008800224,-0.0569174946213,0.997379605958,0.00228768669552,-0.0445987342911,-0.00258562303922,-0.0194624041596,-0.0029431842685,-0.0231788701947,0.00352160176426,-0.0119064013836,3.84830462932,0.461931183935,4.93150901795,0.260134011507,1.60145783425,0.339373603463,1568047.5,1518248088.0,709407064.0,,,,,,389801.0,1518248088.0,715220084.5,,0.446999985538,-2.12099998891,-1.08199997544,0.0405000001192,-0.00150000007124,0.0,-1.0
28,115.264642872,11539.5,1518248088.0,789759609.5,,2247167.5,1518248088.0,789759609.5,,0.699782534881,-0.262332476495,0.0514912326162,-0.0562190302106,0.997413901743,0.00184566069993,-0.0447381580266,0.0129361353805,-0.010860010929,0.00181384195696,-0.00868889167398,-0.023611383789,-0.00181601199293,2.71299445629,0.9902382195,4.87694692612,-3.6031007765e-05,1.10202723741,0.340543419123,1568051.5,1518248088.0,779421738.5,,,,,,389809.5,1518248088.0,799571328.5,,-0.573000040091,-3.40599997044,-0.101999993622,0.0010000000475,0.0355000011623,-0.00499999988824,-1.0
29,115.367206974,11552.5,1518248088.0,919766738.0,,2247180.5,1518248088.0,919766738.0,,0.700428820838,-0.264776504985,0.0519811113404,-0.0570438376743,0.997384551052,-0.000619257702161,-0.0443792195447,-0.0066053679227,-0.0147200980605,0.00518529624506,-0.0175438416403,0.0246516980054,-0.0128788514897,2.07088583708,0.630405962467,4.43894076347,0.477757275105,0.869586497546,0.298157215119,2247525.0,1518248088.0,912872833.0,,,,,,389822.5,1518248088.0,930815010.5,,0.351999985799,-2.07099999189,-0.587000004202,0.0184999997728,-0.0149999996647,0.00300000014249,-1.0
30,115.469771077,11560.5,1518248088.5,499774336.0,,2247188.5,1518248088.5,499774336.0,,0.701154511187,-0.261864799135,0.0518487687086,-0.0551764423665,0.997526448353,0.00291344245451,-0.0434496552715,-0.00372468368022,0.0334976400426,-0.00322854549814,0.0726819450685,0.00943839320714,-0.0291369620699,2.25085300207,0.900381147862,4.99885082245,-0.035402558744,1.19516426325,0.351304545998,2247533.5,1518248088.5,497845787.0,,,,,,389830.0,1518248089.0,4791965.0,,-0.532999988832,-1.28100003004,-1.06200002432,0.0410000011325,-0.00499999988824,-0.0230000000447,-1.0
31,115.572335179,11572.5,1518248089.0,119758120.0,,2247200.5,1518248089.0,119758120.0,,0.700023897955,-0.261848420303,0.0516771150988,-0.0561737637753,0.997419217224,0.00217360357286,-0.0446608311751,-0.0001705776581,0.00716885074598,-0.00184581057908,-0.00448595510301,0.00290813922805,0.0345278985279,2.90275764465,0.272204250097,5.0779299736,0.399400293827,1.22671812772,0.375860840082,2247545.0,1518248089.0,112847320.0,,,,,,389842.0,1518248089.0,126255205.5,,-0.528000023402,-1.95599998236,0.0229999989272,0.0149999996647,0.0115000000224,0.0134999998845,-1.0
32,115.674899282,11581.5,1518248089.0,209758964.5,,2247209.5,1518248089.0,209758964.5,,0.700394009299,-0.262735126238,0.0517689782886,-0.0553898447433,0.997470160276,0.0020343754474,-0.0445059790226,0.00494523088225,-0.0287448342439,0.00353239913538,-0.0210805107713,-0.00677497863134,-0.0256468103481,2.41833794117,0.44314981997,5.03461289406,0.282252773643,1.15937876701,0.375264957547,2247554.5,1518248089.0,207837400.0,,,,,,389850.5,1518248089.0,212393375.0,,-0.313000004925,-2.77100000233,-1.00199999213,0.0314999995753,0.0175000000745,-0.00149999978021,-1.0
33,115.777463385,11592.5,1518248089.0,319761592.5,,2247220.5,1518248089.0,319761592.5,,0.70168800753,-0.26272474263,0.0526027494747,-0.0554996246658,0.997510690806,0.00179206983184,-0.04345904273,0.023836660083,-0.000205694478075,0.0108261293339,0.0028476162177,-0.0390618478122,0.0025623373134,2.12740063667,0.44145333767,5.00923538208,0.302391290664,1.00409057737,0.338865816593,2247565.0,1518248089.0,312850739.0,,,,,,389862.0,1518248089.0,325557095.0,,0.956999961101,-1.5410000205,-0.151999998093,0.0250000003725,0.0010000000475,0.00400000018999,-1.0
34,115.880027487,11602.5,1518248089.0,419758422.5,,2247230.5,1518248089.0,419758422.5,,0.703341757785,-0.263168449796,0.0536618531553,-0.0552240370983,0.997581480565,0.00171919015461,-0.0421697810014,-0.00148561280216,0.00290975013547,-7.449055187e-05,0.00305679625585,0.0131508921633,0.00469986377082,1.52270469069,0.116827249527,4.83118534088,0.458141505719,0.772384196519,0.351229771972,2247575.0,1518248089.0,412828850.0,,,,,,389871.5,1518248089.0,422155771.0,,-2.18800001983,-2.26099998951,-0.0170000076294,0.022500000894,0.0109999999986,0.0105000003241,-1.0
35,115.98259159,11614.5,1518248089.0,539760531.5,,2247242.5,1518248089.0,539760531.5,,0.705147849269,-0.263493551662,0.0546154312648,-0.0550801298082,0.997659561427,0.00155018880439,-0.0404864220481,0.020710926299,-0.00565442828551,0.0138140600331,-0.00811481373635,-0.0297616780185,-0.00071695647113,0.89265654981,0.160339385271,5.3934893608,0.425590127707,0.563021540642,0.338969200849,1568105.0,1518248089.0,528429114.0,,,,,,389884.0,1518248089.0,546009433.0,,-0.503000047244,-2.06599998176,-0.851999986172,0.0590000003577,-0.0230000000447,-0.00350000004982,-1.0
36,116.085155692,11624.5,1518248089.0,639762074.5,,2247252.5,1518248089.0,639762074.5,,0.706189131204,-0.264729909846,0.0553524681643,-0.0540341116753,0.997757095445,0.00141703631099,-0.0394845723575,0.0223788991683,-0.0093597324728,0.00922266561088,0.0104710010341,-0.0496445036446,-0.0299259167723,0.51718300581,0.0816488713027,5.39064979553,0.471693411469,0.446116417647,0.359779983759,1568112.0,1518248089.0,628909063.0,,,,,,389894.0,1518248089.0,646210351.0,,-0.352999981679,-2.99099997878,-1.41199998856,0.0460000000894,0.00300000002608,-0.00200000009499,-1.0
37,116.187719795,11634.5,1518248089.0,739766832.0,,2247262.5,1518248089.0,739766832.0,,0.705885344285,-0.264688411642,0.0552672924872,-0.053846668989,0.997760132312,0.00176867992906,-0.039644681276,-0.00879861363772,-0.0146270055046,-0.000411036820905,-0.00369349288313,0.0185885342489,-0.014079987976,1.87919330597,0.182301133871,5.43415379525,0.442582696676,0.94040516019,0.327365547418,1568119.0,1518248089.0,729919353.5,,,,,,389904.0,1518248089.0,746343757.0,,-0.628000017444,-2.46099998504,-0.216999991984,0.0289999991655,0.0129999998026,-0.00700000009964,-1.0
38,116.290283897,11645.5,1518248089.0,849764429.0,,2247273.5,1518248089.0,849764429.0,,0.704081478538,-0.265360138501,0.0549489093229,-0.0534340776922,0.997684762046,0.00162996134274,-0.0420381060882,-0.0134693945104,-0.00286847783363,0.01286453377,0.0100895229742,0.0422548806882,-0.0197245466228,0.672073081136,0.0939591974018,5.54669427871,0.446236118674,0.472688034177,0.330633938313,1568126.5,1518248089.0,849421417.0,,,,,,389915.0,1518248089.0,854931324.0,,-1.96300011519,-3.13099999428,-0.461999996752,0.0320000015199,-0.0109999999404,-0.00499999988824,-1.0
39,116.392848,11655.5,1518248089.0,949766823.5,,2247283.5,1518248089.0,949766823.5,,0.703666321828,-0.26670844798,0.0553509675278,-0.0521135198349,0.99773655267,0.0017113037875,-0.0424607649952,0.00422201558524,-0.0045038292303,-0.00223854797845,0.00715047449083,-0.00885708874261,-0.0235762914195,1.66171437502,0.224435180426,5.40613698959,0.457119613886,0.772540688514,0.341037899256,1568133.5,1518248089.0,950416634.0,,,,,,389925.5,1518248089.0,961512306.0,,-1.57300001029,-4.12599999904,-1.2169999957,0.0235000010579,0.0259999996052,-0.00300000014249,-1.0
