,Unnamed: 0,.header.seq,.header.stamp.secs,.header.stamp.nsecs,.header.frame_id,.endpoint_state.header.seq,.endpoint_state.header.stamp.secs,.endpoint_state.header.stamp.nsecs,.endpoint_state.header.frame_id,.endpoint_state.pose.position.x,.endpoint_state.pose.position.y,.endpoint_state.pose.position.z,.endpoint_state.pose.orientation.x,.endpoint_state.pose.orientation.y,.endpoint_state.pose.orientation.z,.endpoint_state.pose.orientation.w,.endpoint_state.twist.linear.x,.endpoint_state.twist.linear.y,.endpoint_state.twist.linear.z,.endpoint_state.twist.angular.x,.endpoint_state.twist.angular.y,.endpoint_state.twist.angular.z,.endpoint_state.wrench.force.x,.endpoint_state.wrench.force.y,.endpoint_state.wrench.force.z,.endpoint_state.wrench.torque.x,.endpoint_state.wrench.torque.y,.endpoint_state.wrench.torque.z,.joint_state.header.seq,.joint_state.header.stamp.secs,.joint_state.header.stamp.nsecs,.joint_state.header.frame_id,.joint_state.name,.joint_state.position,.joint_state.velocity,.joint_state.effort,.wrench_stamped.header.seq,.wrench_stamped.header.stamp.secs,.wrench_stamped.header.stamp.nsecs,.wrench_stamped.header.frame_id,.wrench_stamped.wrench.force.x,.wrench_stamped.wrench.force.y,.wrench_stamped.wrench.force.z,.wrench_stamped.wrench.torque.x,.wrench_stamped.wrench.torque.y,.wrench_stamped.wrench.torque.z,.tag
0,152.604767,15273.5,1518248126.0,129899956.0,,2250901.5,1518248126.0,129899956.0,,0.761671639966,-0.292443501637,0.128144109157,-0.0262300492773,0.999516047372,0.00357067059266,0.016333752214,0.00350486317888,-0.000701030858905,-0.0169983084466,0.00466819966018,-0.00284453210764,-0.00107110694923,4.42362737656,-0.114740341902,4.80427670479,0.503349483013,1.88566744328,0.482916384936,1570657.5,1518248126.0,123976838.0,,,,,,393539.5,1518248126.0,139075860.5,,-1.78900000192,0.905000001191,-1.1629999891,0.00499999988824,0.0504999998957,0.0099999998347,0.0
1,152.707331103,15285.5,1518248126.0,249892759.5,,2250913.5,1518248126.0,249892759.5,,0.761860810394,-0.292791006288,0.127953321473,-0.0263853808408,0.999511564472,0.00359284135025,0.0163539650577,0.00973516146231,-0.00427080226402,0.00467458469098,0.00869345961166,-0.0252443762355,-0.022796669971,4.51463603974,-0.157637119293,4.66206669807,0.538900226355,1.92534661293,0.495492011309,1570667.0,1518248126.0,250495310.5,,,,,,393551.5,1518248126.0,258738903.0,,-1.24900004007,0.825000017882,-0.957999994605,0.0069999998086,0.0544999986887,0.0414999984205,0.0
2,152.809895205,15293.5,1518248126.0,329895609.5,,2250921.5,1518248126.0,329895609.5,,0.761218877718,-0.292149937967,0.127562301991,-0.0268604904608,0.999510181216,0.00377606488709,0.0156028814834,0.0025286877177,-0.0014527996884,0.00303283726022,-0.00628338736041,-0.00903037293055,-0.000758253365325,4.456148386,-0.178721293807,4.40372800827,0.525840535759,1.88270682096,0.497925639152,1570671.5,1518248126.0,324976422.5,,,,,,393559.5,1518248126.0,339024392.5,,-2.52899995185,-0.994999974966,-1.02799998745,0.0115000000224,0.035000000149,0.0300000002608,0.0
3,152.912459308,15305.5,1518248126.0,449891300.0,,2250933.5,1518248126.0,449891300.0,,0.761541396213,-0.292576010213,0.127866822258,-0.0265764910591,0.99951260341,0.00363053022996,0.0159587412481,0.0124266153958,-0.00219245304843,0.00640956149134,0.00520218858535,-0.0201203914442,-0.00451864323072,4.50973391533,-0.151702612639,4.47027564049,0.483992949128,1.86665892601,0.477983877063,2251278.5,1518248126.0,447965072.0,,,,,,393571.5,1518248126.0,458638733.5,,-2.46400001385,-1.70499998331,-1.11299999952,0.0129999998026,0.0460000000894,0.0535000003874,0.0
4,153.01502341,15313.5,1518248126.0,529889938.5,,2250941.5,1518248126.0,529889938.5,,0.761373082268,-0.293112255059,0.12744663632,-0.0259144119601,0.999533527575,0.00323727384024,0.0158326179085,0.00380785519753,0.00852078441251,-0.000839512736709,0.0118850250588,-0.00709540006225,0.00923294766146,4.36106324196,-0.194604687393,4.56415915489,0.525797367096,1.85091871023,0.479619771242,2251285.0,1518248126.0,512976358.0,,,,,,393579.5,1518248126.0,539051416.0,,-1.23399999477,0.294999986887,-0.732999991253,0.00900000007822,0.0354999992997,0.0280000008642,0.0
5,153.117587513,15325.5,1518248126.0,649900062.0,,2250953.5,1518248126.0,649900062.0,,0.761383875195,-0.292747824523,0.127656039724,-0.0261794444707,0.999526989983,0.00345927856467,0.0157453714195,0.00616995556639,1.3540634291e-05,0.0118043374599,-0.00737883789063,-0.0167533288428,0.00262230229881,4.27000784874,-0.0138868093491,4.44153189659,0.417191430927,1.79922634363,0.465140238404,2251298.5,1518248126.0,647965116.0,,,,,,393591.5,1518248126.0,660136822.0,,-1.76899996139,-0.0949999690055,-0.117999994755,0.00899999961257,0.019999999553,0.0540000014007,0.0
6,153.220151615,15337.5,1518248126.0,769894851.5,,2250965.5,1518248126.0,769894851.5,,0.762004439978,-0.2924747776,0.127912456537,-0.0264003157294,0.999507033805,0.00360001918125,0.0166030315393,0.00825454925334,-0.00546137812872,0.014264667479,-0.00790601673283,-0.0278894146204,0.00063118134575,4.27967810631,-0.105515778065,4.60523176194,0.515117764473,1.81449621916,0.493434399366,2251310.0,1518248126.0,762996538.0,,,,,,393603.5,1518248126.0,779568442.0,,-0.399000001327,1.60500004888,-0.492999994755,0.0010000000475,0.0240000002086,0.0339999999851,0.0
7,153.322715718,15347.5,1518248126.0,869892351.5,,2250975.5,1518248126.0,869892351.5,,0.76144302165,-0.29265862972,0.127648799988,-0.0260045854148,0.999529731135,0.00367392931271,0.0158281003939,-0.00442401287934,-0.0088393919038,2.4918825325e-05,-0.00404697755145,0.00491330073056,-0.0147317529725,4.57060623169,-0.142993599177,4.48938250542,0.48558819294,1.90218830109,0.476039379835,2251320.0,1518248126.0,862949589.0,,,,,,393613.5,1518248126.0,880369442.5,,-0.844000009075,0.760000020265,-0.25300001502,0.00849999999628,0.0254999995232,0.0319999996572,0.0
8,153.425279821,15357.5,1518248126.0,969891738.5,,2250985.5,1518248126.0,969891738.5,,0.76322121059,-0.291916803068,0.127975647994,-0.0266432141015,0.999473018061,0.00372394785286,0.0181590117131,0.0167097539557,-0.00032588656916,-0.00568133156334,0.00107435480338,-0.0437795621925,-7.74328661e-05,4.65477323532,-0.129755377769,4.6484105587,0.488570898771,1.9965492487,0.466536134481,2251330.0,1518248126.0,962952077.0,,,,,,393623.5,1518248126.0,979364384.0,,-1.39899995662,-0.359999984503,0.0070000052452,0.0160000002943,0.019999999553,0.0289999991655,0.0
9,153.527843923,15366.5,1518248127.0,59895795.0,,2250994.5,1518248127.0,59895795.0,,0.763600206645,-0.292458481773,0.128115216929,-0.0261847807954,0.99947833605,0.00379037014301,0.0185186722742,0.0039908260156,-0.0173137597826,0.0129542645067,-0.00841523811467,-0.0128560007593,-0.0278735159016,3.88149499894,-0.0412555336952,4.43719315528,0.46260099113,1.7006495595,0.462936088443,1570723.5,1518248127.0,60474092.0,,,,,,393632.5,1518248127.0,69170309.5,,-1.49399998523,0.805000036955,-0.242999994755,0.00799999991432,0.0190000003204,0.0389999989421,0.0
10,153.630408026,15379.5,1518248127.0,189922776.0,,2251007.5,1518248127.0,189922776.0,,0.763351888968,-0.292125764585,0.128154482342,-0.0264269579218,0.999475332411,0.00373191830049,0.0183359639191,0.00491277385615,0.0059172822245,0.00396260701996,-0.00516860772375,-0.0116741971456,0.0135541567426,4.11597239971,-0.0557746738196,4.51133131981,0.454389929771,1.72637629509,0.46411819756,890112.5,1518248127.0,194000128.0,,,,,,393645.5,1518248127.0,198611738.5,,-0.268999998644,-0.204999983311,-0.248000019789,0.0115000000224,0.0255000004545,0.0439999997616,3.0
11,153.732972128,15385.5,1518248127.0,249889275.5,,2251013.5,1518248127.0,249889275.5,,0.763694218858,-0.292346451978,0.128297994398,-0.0262437712142,0.99947363762,0.00363527054319,0.0187183697481,-0.00252736487257,0.00579041081702,-0.00509276889821,0.00611411758028,0.006982349984,0.0121419011864,4.05047106742,-0.0508207827806,4.76463055611,0.442050591112,1.78904157877,0.468761846423,1570737.0,1518248127.0,250995009.5,,,,,,393651.5,1518248127.0,258463987.5,,-0.159000002966,0.174999982118,-0.293000006675,0.0220000008121,-0.00149999978021,0.0305000012741,3.0
12,153.835536231,15397.5,1518248127.0,369895149.5,,2251025.5,1518248127.0,369895149.5,,0.763042626597,-0.292744141781,0.12702344275,-0.0262127803694,0.999484579899,0.00343178799773,0.0182100813475,-0.00044096745203,-0.021554234237,-0.0085073041262,-0.016573603527,-0.0106145321817,-0.0315916651604,1.9408018589,0.40240034461,4.51856184006,0.206721231342,0.958890825509,0.434940069914,2251370.0,1518248127.0,362998340.0,,,,,,393663.5,1518248127.0,379949044.0,,-0.908999976886,-0.269999980926,-1.68299999237,0.0355000011623,0.00500000012107,0.0325000006706,3.0
13,153.938100333,15407.5,1518248127.0,469893501.5,,2251035.5,1518248127.0,469893501.5,,0.762376527741,-0.292132151446,0.125047338263,-0.0267174330518,0.999472430795,0.00353033332725,0.0181263081299,-0.0190819409424,-0.0178733684138,-0.0282777884352,-0.0191868479091,0.0274023831134,-0.019511793353,2.32470774651,1.3192781806,4.87572932243,-0.3033997491,1.13685837388,0.332021594047,2251380.0,1518248127.0,462982922.0,,,,,,393673.5,1518248127.0,480853121.5,,-1.05399998761,-0.639999985695,-0.45799998343,0.0245000012219,-0.0175000000745,0.0424999985844,3.0
14,154.040664436,15418.5,1518248127.0,579890723.5,,2251046.5,1518248127.0,579890723.5,,0.75973931815,-0.290605890155,0.12164203313,-0.0282891735774,0.999463526658,0.00333064659085,0.0161537256204,-0.035108321989,0.0125498258942,-0.0423070527644,0.00255925043575,0.0623160274109,0.0194022053758,0.60339936614,1.46688115597,4.25232315064,-0.385335475206,0.494258835911,0.334230065346,2251390.0,1518248127.0,562995565.0,,,,,,393684.5,1518248127.0,589718762.5,,-0.299000007287,0.854999989272,-0.668000001088,0.0294999992475,-0.00199999986216,0.0264999996871,3.0
15,154.143228538,15426.5,1518248127.0,659892371.5,,2251054.5,1518248127.0,659892371.5,,0.755445252741,-0.289455405229,0.117843639547,-0.0303573063879,0.999467093509,0.00255693501281,0.0117170258864,-0.0772268811679,0.0263566171243,-0.0529742070049,-0.0500649999973,0.17193866406,0.0990653723666,1.92666864395,1.31409227848,4.1062374115,-0.263823762536,0.946896851062,0.394343093038,1570765.5,1518248127.0,658978077.5,,,,,,393692.5,1518248127.0,669390045.5,,-0.134000000731,-0.269999951124,-1.27299999594,0.0390000008046,-0.0140000004321,0.0334999999031,3.0
16,154.245792641,15440.5,1518248127.0,799896665.0,,2251068.5,1518248127.0,799896665.0,,0.747995000132,-0.285334240577,0.110010968767,-0.0350481086476,0.999375468286,0.00199588072722,0.00397503365903,-0.0489700946632,0.056842534816,-0.0704901968063,0.0252349107412,0.089763002228,0.0675808717908,2.43581616879,1.00008285045,5.04984712601,-0.0602559000253,1.09208583832,0.389991924166,1570775.0,1518248127.0,799991797.0,,,,,,393706.0,1518248127.0,804339189.0,,-1.1289999757,-1.34999999404,-0.907999993861,0.0430000014603,-0.00400000018999,0.0469999983907,3.0
17,154.348356744,15451.5,1518248127.0,909895970.5,,2251079.5,1518248127.0,909895970.5,,0.744365344889,-0.280527961561,0.102911029757,-0.0382504183118,0.999263785754,0.00284542031919,0.000742129867571,-0.0294080561421,0.0276027738547,-0.0656971942767,-0.00122582279637,0.0507519889595,0.0548887932414,0.822293668986,0.921885639429,5.38218855858,-0.116316333413,0.443023175001,0.324267283082,1570783.0,1518248127.0,910998010.0,,,,,,393717.5,1518248127.0,920019359.5,,-1.42399999238,-0.684999972582,-0.37800000012,0.0164999999106,0.0109999999404,0.0494999997318,3.0
18,154.450920846,15458.5,1518248127.0,979903955.0,,2251086.5,1518248127.0,979903955.0,,0.742908731086,-0.276732534397,0.0984705276825,-0.0408672790748,0.999158239228,0.00351195175145,-0.000541915167141,-0.0206816336344,0.0381387006005,-0.0573842106615,0.0188320732095,0.0341278056252,0.0589317981819,2.59801805019,0.469030663371,5.26887607575,0.17829310149,1.11426973343,0.397513225674,2251430.0,1518248127.0,962992190.0,,,,,,393724.5,1518248127.0,990094828.0,,-1.13399997093,0.0,-0.50299998522,0.0325000006705,0.01200000057,0.04649999924,3.0
19,154.553484949,15469.5,1518248128.0,89906094.0,,2251097.5,1518248128.0,89906094.0,,0.738443405403,-0.273431345968,0.0921459051134,-0.0437946888554,0.999019118851,0.00350242382016,-0.0055175482444,-0.04662885106,0.00114570374673,-0.0519758230374,-0.0419088552672,0.10652669407,0.050234778928,1.12564909458,0.580528318882,5.65352582931,-0.0403428450226,0.689103811979,0.379920572042,1570794.0,1518248128.0,80500883.5,,,,,,393735.0,1518248128.0,95358391.0,,-1.07400002815,-0.224999994039,-1.10299998112,0.0300000011921,0.0010000000475,0.0134999996517,3.0
20,154.656049051,15480.5,1518248128.0,199909841.5,,2251108.5,1518248128.0,199909841.5,,0.724674653197,-0.271934230589,0.0870862405602,-0.0455290558641,0.998713409851,0.00235032361945,-0.0221825863367,-0.219212247577,0.00630570684721,-0.0470063862816,-0.0387243174681,0.527377070252,0.0622295388937,1.75900292396,0.922012209892,2.62954902649,0.0212697014213,-0.666806235909,0.389380156994,1570803.0,1518248128.0,200981335.0,,,,,,393746.0,1518248128.0,204639237.0,,-0.469000009075,1.1099999249,-1.36799996495,-0.082000002265,0.115000002086,0.254999995232,-1.0
21,154.758613154,15488.5,1518248128.0,279915393.0,,2251116.5,1518248128.0,279915393.0,,0.721287176855,-0.270878337357,0.0818957815366,-0.046477158966,0.998578325411,0.00275281739742,-0.0259536948736,0.0148526497256,0.0367260163896,-0.0536361450497,0.0558424696421,0.0017068643418,0.0220975661243,2.53584289551,0.264997884631,5.98195838928,0.275706753135,0.636956036091,0.401364952326,2251460.0,1518248128.0,263022112.0,,,,,,393754.0,1518248128.0,285004120.0,,-1.18400004246,-0.499999985099,-0.932999992368,0.00699999998324,0.0125000001863,0.0455000009388,-1.0
22,154.861177256,15500.5,1518248128.0,399154976.0,,2251128.5,1518248128.0,399154976.0,,0.729102474001,-0.269984377863,0.0785341088605,-0.0481309852195,0.998705138399,0.0020427959052,-0.0163458229795,0.0494902059579,-0.002368678782,-0.0133582502744,-0.0367470954747,-0.103706452731,0.0445640855053,-0.913683265446,0.482898846268,7.65549659729,0.0785605683923,0.542678833007,0.372858390212,2251473.5,1518248128.0,397245285.0,,,,,,393766.5,1518248128.0,410532888.5,,-0.434000010789,-1.36499997228,-1.16799999177,0.0439999997616,-0.054999999702,0.0169999999926,-1.0
23,154.963741359,15508.5,1518248128.0,479150847.0,,2251136.5,1518248128.0,479150847.0,,0.726566085795,-0.271166169161,0.0785416374225,-0.0479966040922,0.998651725382,0.00135894098602,-0.0197196109295,-0.0402791296696,-0.00132273357675,0.00458821952116,-0.0106957485523,0.105321628797,0.00867608465112,0.590612232685,0.569916546345,4.65382313728,0.176747992635,0.239733844995,0.407400548458,2251480.0,1518248128.0,462231295.0,,,,,,393774.0,1518248128.0,484817011.0,,-0.889000025764,1.20000007749,-0.747999989986,0.0410000011325,-0.00600000005215,0.0270000007004,-1.0
24,155.066305462,15519.5,1518248128.0,589166970.5,,2251147.5,1518248128.0,589166970.5,,0.723381968543,-0.271078076725,0.0782093358657,-0.0482877888997,0.998553777311,0.00129006692624,-0.023599987537,-0.00897498403012,-0.00302276219627,0.016744322402,-0.0133561853481,0.0396031728861,0.0124787337714,2.00825220347,0.704183995724,4.72669863701,0.101300567388,0.706459254027,0.39694519341,2251491.5,1518248128.0,577221358.5,,,,,,393785.5,1518248128.0,600364225.0,,-0.638999999688,-0.094999998808,-0.15799998641,0.0169999999925,0.0125000006519,0.0300000002608,-1.0
25,155.168869564,15532.5,1518248128.0,719151363.5,,2251160.5,1518248128.0,719151363.5,,0.725223423112,-0.27159289175,0.0785176725018,-0.0483280807992,0.998603210965,0.000870698255911,-0.021334458296,-0.00905484158026,-0.0191096993189,0.013272222857,-0.0139235505846,0.0298885183728,-0.0148114316308,0.339580751955,0.751320362091,5.27193117141,0.0471750125289,0.301861569286,0.382811099291,890173.0,1518248128.0,715000064.0,,,,,,393798.5,1518248128.0,730224499.0,,-3.38399997092,0.300000011921,-0.812999987604,0.0230000000447,0.0160000005271,0.00400000018997,-1.0
26,155.271433667,15543.5,1518248128.0,829148734.0,,2251171.5,1518248128.0,829148734.0,,0.725608628368,-0.271660741824,0.0790796768637,-0.0483042101167,0.998614407827,0.000545346685389,-0.0208716846442,-0.0137417259513,0.00980072957897,-0.00711078544737,-0.00199603010115,0.0250952357833,0.0275110422253,1.98539108038,0.568372935057,5.24405407906,0.179863974452,0.975590288638,0.420374140144,890177.0,1518248128.0,816000000.0,,,,,,393809.0,1518248128.0,834765746.0,,-2.99899998046,-2.41999992728,0.352000063658,0.0120000001043,0.0149999996647,0.0340000018477,-1.0
27,155.373997769,15553.5,1518248128.0,929157296.0,,2251181.5,1518248128.0,929157296.0,,0.725327658674,-0.271692949586,0.0785920741283,-0.0480248425365,0.99862319152,0.000906344526099,-0.0210782330807,0.00686292607655,-0.00348992966568,-0.00825829151074,0.007211521579,-0.0182133666108,-0.0125624788462,1.24034065008,0.605606853962,5.81811499596,0.235717333854,0.793123811483,0.403325453401,890181.0,1518248128.0,916999936.0,,,,,,393819.0,1518248128.0,935863997.0,,-2.44400003292,-0.305000007155,-0.0630000174045,0.0315000005066,0.0164999999106,0.0175000000745,-1.0
28,155.476561872,15563.5,1518248129.0,29148750.0,,2251191.5,1518248129.0,29148750.0,,0.724768562032,-0.270938482863,0.0785985648864,-0.048006604025,0.998607248427,0.00159308704292,-0.0218241571051,-0.000796841169355,0.00272001071,0.00274045384105,0.00568246782735,0.00273500965895,-0.0101410382957,1.69923514127,0.648248493672,5.50571513176,0.173231467605,0.835338830948,0.39064450562,890185.0,1518248129.0,17999872.0,,,,,,393829.5,1518248129.0,40954945.0,,-2.14900007584,1.06999996305,-0.10300000906,0.0145000000484,0.0309999994934,0.00200000009499,-1.0
29,155.579125974,15573.5,1518248129.0,129156808.0,,2251201.5,1518248129.0,129156808.0,,0.725105405118,-0.270743087653,0.0788139132469,-0.0480622957493,0.99861460715,0.00164804264277,-0.0213518422826,0.0174180399445,-0.00863859224899,0.00694222672897,0.00386450917024,-0.0414842972927,-0.00824824002402,1.15905249118,0.623400360346,5.67778301239,0.132627684623,0.639925181866,0.384509995579,890189.0,1518248129.0,120000000.0,,,,,,393839.0,1518248129.0,135169811.0,,-4.06900015213,-0.839999973774,-0.797999994457,0.0189999993891,0.0149999996647,0.0140000004321,-1.0
30,155.681690077,15584.5,1518248129.0,239167029.5,,2251212.5,1518248129.0,239167029.5,,0.724835874548,-0.27124056928,0.0788719395269,-0.0480268225092,0.998605759803,0.00138720619395,-0.0218639270599,-0.0139618223342,-0.00027346157735,-0.00233259865676,-0.000789190236645,0.0304097139906,-0.00503225213867,1.25585705042,0.620416283608,5.63923025131,0.190045967699,0.681014895439,0.407754972577,1570875.5,1518248129.0,231613919.0,,,,,,393850.5,1518248129.0,250120392.5,,-1.96900000908,-1.52499997616,-0.462999993563,0.011000000406,0.0125000001863,0.0339999999851,-1.0
31,155.784254179,15594.5,1518248129.0,339150267.5,,2251222.5,1518248129.0,339150267.5,,0.724854412088,-0.270873060514,0.0790363504943,-0.0480387890145,0.99860723834,0.00133819625628,-0.0217720701244,-0.0109430675159,0.00324222273046,0.00353380437679,-0.0129863200022,0.0272400821591,0.00989373229003,0.895514160395,0.505686119199,5.69023513794,0.202937960625,0.548851653933,0.377965837717,1570882.5,1518248129.0,332631504.0,,,,,,393860.0,1518248129.0,345010514.0,,-2.31899991371,-0.299999982119,-0.268000000715,0.019999999553,0.0,-0.00899999961257,-1.0
32,155.886818282,15604.5,1518248129.0,439154090.5,,2251232.5,1518248129.0,439154090.5,,0.725143990693,-0.271134593656,0.0791747842758,-0.0478798484522,0.998621401449,0.00145914777135,-0.0214618633373,0.0173776708183,-0.0129247827852,0.0123939357597,-0.0100630986154,-0.0397982508975,-7.506993185e-05,0.38394151628,0.595909327268,6.19897890091,0.164494648576,0.34833650291,0.393483072519,1570889.5,1518248129.0,433631533.5,,,,,,393870.0,1518248129.0,446198540.5,,-2.68400004246,-0.249999970195,-0.082999968529,-0.0625000009315,0.0175000000745,0.0444999989122,-1.0
33,155.989382385,15614.5,1518248129.0,539153056.0,,2251242.5,1518248129.0,539153056.0,,0.716836059593,-0.264135679486,0.0789995448233,-0.0448650510678,0.998449056227,0.0100329665682,-0.0313852114085,-0.0538549795674,-0.00480799165789,0.00516132895435,-0.117272599624,0.118863628395,0.139788038481,5.01263904571,0.489069446922,5.66429400444,-0.769014954568,1.46065551043,0.298392221332,1570896.5,1518248129.0,534602909.0,,,,,,393880.0,1518248129.0,546695008.0,,-2.24899998046,0.880000025034,-1.50800001025,-0.0419999994338,0.054999999702,0.0320000015199,-1.0
34,156.091946487,15624.5,1518248129.0,639156593.5,,2251252.5,1518248129.0,639156593.5,,0.722257943444,-0.268673662609,0.0797513191177,-0.0523172576372,0.998305871154,-0.000768838126337,-0.0254296942396,0.106153662331,-0.0424346205521,0.0200186086553,-0.19497596966,-0.252891907498,0.150828995851,-0.788087219,-0.145502083003,6.00538134575,0.734500139951,-0.386707663536,0.328645527363,1570903.5,1518248129.0,635620601.5,,,,,,393890.0,1518248129.0,647060905.5,,-0.0790000084785,-0.514999985695,-0.497999989986,0.0089999996126,0.0260000005364,0.042500000447,-1.0
35,156.19451059,15632.5,1518248129.0,719153110.5,,2251260.5,1518248129.0,719153110.5,,0.729143652617,-0.26731449506,0.0805732453794,-0.0511835118194,0.998542332448,0.000800735376275,-0.0171034302124,0.0660894062034,0.0277307220762,0.0256644991214,0.134879194609,-0.128922269495,-0.112784780083,-2.13699066639,-0.0267852395773,6.98336648941,0.36104440689,-0.103946618736,0.41158080101,2251605.0,1518248129.0,712240671.0,,,,,,393898.0,1518248129.0,726864061.0,,-1.50899997093,-1.12999998033,0.362000054121,0.0509999990463,-0.0329999998212,0.0250000003725,-1.0
36,156.297074692,15645.5,1518248129.0,849151124.5,,2251273.5,1518248129.0,849151124.5,,0.729067678757,-0.26720073486,0.0823618215079,-0.0500513394766,0.998583632894,0.00162695172527,-0.0179700174014,-0.00783722220733,-0.00695463787627,-0.00216380627478,-0.0362794000483,0.020185047037,0.036666950009,0.495837211609,-0.0752072036268,5.17744064331,0.473721891642,0.305668443442,0.423473268748,2251618.5,1518248129.0,847240975.0,,,,,,393911.0,1518248129.0,856540180.5,,-1.65400001146,0.330000013113,-0.622999989986,0.00849999999627,0.0219999998807,-0.0105000003241,-1.0
37,156.399638795,15656.5,1518248129.0,959156255.0,,2251284.5,1518248129.0,959156255.0,,0.728925408861,-0.268445700407,0.0821144766678,-0.0502639904874,0.99856424986,0.000647517115171,-0.0185048039856,0.0123485348875,-0.00557799047819,-0.00656416448426,0.00564882899914,-0.0345281453957,-0.0311333881762,1.07066074014,-0.156353861094,6.29652166366,0.597102224826,0.741031080484,0.418353021145,1570925.5,1518248129.0,959120109.5,,,,,,393922.0,1518248129.0,965685722.0,,-1.41900005676,-1.30999997258,-0.807999994233,0.0209999997169,0.0419999994338,0.00800000037998,-1.0
38,156.502202897,15663.5,1518248130.0,29147144.5,,2251291.5,1518248130.0,29147144.5,,0.728112445978,-0.269165622932,0.0818682213609,-0.0499002649332,0.998564960427,0.000755728109121,-0.0194195464472,-0.000811338080285,-0.005772776044,0.000787741972275,0.00939416579408,-0.0031314519406,-0.0176789562339,1.45863294602,-0.0766991078854,6.16299414635,0.500636428594,0.638481020928,0.40433138609,890224.5,1518248130.0,25500032.0,,,,,,393929.0,1518248130.0,35575850.0,,-0.82900002338,0.299999982119,-0.697999992967,0.0260000005364,0.0240000002086,0.0140000004321,-1.0
39,156.604767,15676.5,1518248130.0,159151290.5,,2251304.5,1518248130.0,159151290.5,,0.72888192243,-0.270878700045,0.0825296878646,-0.0484650817927,0.998651215773,0.000470820837809,-0.0186142778559,0.00840954995057,-0.00228661457021,0.0148278141986,0.00570675532714,-0.0238800328555,-0.00116320537041,-0.406090524048,-0.0610472112893,6.30604624748,0.514433741569,0.0742331072685,0.414943322539,1570939.5,1518248130.0,160104551.0,,,,,,393942.0,1518248130.0,167099369.0,,-2.33899989463,-0.369999974966,-0.60799998939,0.0419999994338,0.00200000009499,0.0370000004768,-1.0
