,Unnamed: 0,.header.seq,.header.stamp.secs,.header.stamp.nsecs,.header.frame_id,.endpoint_state.header.seq,.endpoint_state.header.stamp.secs,.endpoint_state.header.stamp.nsecs,.endpoint_state.header.frame_id,.endpoint_state.pose.position.x,.endpoint_state.pose.position.y,.endpoint_state.pose.position.z,.endpoint_state.pose.orientation.x,.endpoint_state.pose.orientation.y,.endpoint_state.pose.orientation.z,.endpoint_state.pose.orientation.w,.endpoint_state.twist.linear.x,.endpoint_state.twist.linear.y,.endpoint_state.twist.linear.z,.endpoint_state.twist.angular.x,.endpoint_state.twist.angular.y,.endpoint_state.twist.angular.z,.endpoint_state.wrench.force.x,.endpoint_state.wrench.force.y,.endpoint_state.wrench.force.z,.endpoint_state.wrench.torque.x,.endpoint_state.wrench.torque.y,.endpoint_state.wrench.torque.z,.joint_state.header.seq,.joint_state.header.stamp.secs,.joint_state.header.stamp.nsecs,.joint_state.header.frame_id,.joint_state.name,.joint_state.position,.joint_state.velocity,.joint_state.effort,.wrench_stamped.header.seq,.wrench_stamped.header.stamp.secs,.wrench_stamped.header.stamp.nsecs,.wrench_stamped.header.frame_id,.wrench_stamped.wrench.force.x,.wrench_stamped.wrench.force.y,.wrench_stamped.wrench.force.z,.wrench_stamped.wrench.torque.x,.wrench_stamped.wrench.torque.y,.wrench_stamped.wrench.torque.z,.tag
0,26.303667,2643.5,1518247999.0,829298860.5,,2238271.5,1518247999.0,829298860.5,,0.761431200376,-0.294603791705,0.126946847398,-0.024703480934,0.999564088298,0.00329635943504,0.0158245885467,0.00651593181069,0.00915023682937,0.00131770781876,0.00074310396539,-0.0134304214365,0.0150505116382,4.2879421711,0.268090888858,4.45458889007,0.303264461458,1.78608977795,0.466388270259,1561845.0,1518247999.0,821194182.5,,,,,,380922.0,1518247999.0,836873519.5,,0.672999986261,-0.894999974967,0.478999990038,0.0285000000149,-0.00900000007823,0.020499999635,0.0
1,26.4062311026,2655.5,1518247999.0,949313930.5,,2238283.5,1518247999.0,949313930.5,,0.761229734457,-0.293533373403,0.12737608422,-0.0254614366271,0.999547646796,0.00330265355138,0.0156587699255,-0.00477318538438,-0.0046250328538,0.00186202211577,-0.0107481464713,0.0145676454639,-0.00680371529777,4.36889243126,0.152187943459,4.474360466,0.377310052514,1.7958818078,0.477374643087,2238628.5,1518247999.0,947388937.0,,,,,,380934.5,1518247999.0,962511621.5,,-0.597000002116,-0.24500002861,0.0389999812469,0.0179999992251,0.00700000021606,0.0374999996275,0.0
2,26.5087952051,2663.5,1518248000.0,29314458.0,,2238291.5,1518248000.0,29314458.0,,0.761328228618,-0.294545970873,0.127541603443,-0.025137489557,0.999553939214,0.00306410694519,0.015826812749,0.0115803266501,-0.0110376162111,0.00221972638533,0.00210001764933,-0.0235798804096,-0.0152476851746,4.11499691009,0.268316879869,4.49233531952,0.29111367464,1.73139840365,0.438518732786,1561859.0,1518248000.0,22196267.5,,,,,,380941.5,1518248000.0,33042240.0,,-0.652000009269,-0.884999984504,0.24399999436,0.0259999996052,-0.00249999994412,0.0344999991357,0.0
3,26.6113593077,2675.5,1518248000.0,149331990.0,,2238303.5,1518248000.0,149331990.0,,0.761031857515,-0.294084930717,0.127009032193,-0.0248059210118,0.999567670734,0.00357233263845,0.0153658845281,0.00820785721613,0.00108091465902,0.0115353528332,0.00944924429697,-0.0290168946981,-0.00838938148419,4.44364619255,0.191176444292,4.49617147446,0.346602335572,1.83692610264,0.458410993218,1561867.0,1518248000.0,151191516.0,,,,,,380954.0,1518248000.0,155742980.0,,1.06299999431,0.0300000071525,-0.0060000205415,0.0320000015199,-0.00649999990128,0.0160000002943,0.0
4,26.7139234103,2684.5,1518248000.0,239345913.0,,2238312.5,1518248000.0,239345913.0,,0.761340254822,-0.294127539097,0.127539890559,-0.0250772266578,0.999553071582,0.00329317481611,0.0159319209268,0.0086080991353,0.00572009255535,0.00480791631047,0.000133563452281,-0.0187017452801,0.0143907633174,4.24343824387,0.0986848026514,4.55540704727,0.401589587331,1.76614564658,0.46535782516,2238657.5,1518248000.0,237382469.0,,,,,,380963.5,1518248000.0,252111586.0,,0.702999983728,1.8800000906,-0.131000020541,0.0289999991655,-0.00750000029802,0.0124999999534,0.0
5,26.8164875128,2697.5,1518248000.0,369330561.5,,2238325.5,1518248000.0,369330561.5,,0.761367346266,-0.294051844535,0.127347592284,-0.0246532063479,0.999564358105,0.00386310132232,0.0157557228271,-0.00323453380461,-0.000731208816125,0.00075386514796,-0.0013314091111,0.00720216499475,-0.006199280773,3.91976428032,0.291346341372,4.50352501869,0.315566092729,1.64395958185,0.449421972037,885095.0,1518248000.0,366000128.0,,,,,,380976.0,1518248000.0,375260028.0,,-0.817000030726,-0.294999980927,-0.415999987163,0.0170000009239,0.0,0.0209999997169,0.0
6,26.9190516154,2707.5,1518248000.0,469328586.0,,2238335.5,1518248000.0,469328586.0,,0.761047993551,-0.293797002927,0.127063629198,-0.0249751824831,0.999560793008,0.00391199501679,0.0154588627426,8.08551937715e-05,0.00196063069763,0.00162730034314,0.00631778721593,0.00359402891559,0.00774635989398,4.41051149368,0.218899160624,4.4896273613,0.346190139651,1.80071735382,0.47325989604,885099.0,1518248000.0,467000064.0,,,,,,380986.0,1518248000.0,475577758.5,,0.0829999752345,0.65999994278,0.0939999883994,0.0255000004545,0.00350000010803,0.0389999989421,0.0
7,27.0216157179,2718.5,1518248000.0,579331591.5,,2238346.5,1518248000.0,579331591.5,,0.761024941629,-0.293600585415,0.126942953965,-0.0251682508454,0.999558227741,0.00366914864417,0.015365257975,-0.00446628788774,0.00449728790929,-0.00778429968004,0.00965443116699,0.015049357583,0.00098485460988,4.3001139164,0.277780801058,4.52529668808,0.284545488656,1.78493994475,0.433147534728,885103.5,1518248000.0,576999936.0,,,,,,380996.5,1518248000.0,583100195.0,,0.997999991102,-0.270000004769,-0.286000021733,0.0255000004545,0.00900000007822,0.0339999999851,3.0
8,27.1241798205,2728.5,1518248000.0,679328979.0,,2238356.5,1518248000.0,679328979.0,,0.76273390648,-0.293908734212,0.127405947132,-0.0249501655877,0.999524164492,0.00368649037038,0.0177543742744,0.019985367021,0.00479811134812,-0.00757735013188,0.00101773159954,-0.0469433241802,0.015608514754,4.52106904984,0.221904590726,4.85775089264,0.325632899999,1.93830281496,0.461723163724,1561904.5,1518248000.0,674203319.5,,,,,,381006.5,1518248000.0,683463648.5,,-0.402000009269,-0.279999995231,-0.43100000266,0.0435000006109,-0.000500000081955,0.0319999996572,3.0
9,27.2267439231,2738.5,1518248000.0,779330684.5,,2238366.5,1518248000.0,779330684.5,,0.762704502076,-0.293707134648,0.12713856534,-0.0252177787182,0.999519931679,0.00376608921479,0.0175935052929,0.0062642744421,-0.00395931913818,0.00526706091963,0.00091217566658,-0.0213224684464,0.00107350844615,2.4839105606,0.687483310699,4.89795565606,0.0316936001182,1.11665898561,0.389781922102,1561911.5,1518248000.0,774722806.0,,,,,,381017.0,1518248000.0,786212662.0,,-0.687000035495,-1.38500001431,0.143999985419,0.0130000002682,-0.00800000037998,0.0390000008047,3.0
10,27.3293080256,2747.5,1518248000.0,869323785.0,,2238375.5,1518248000.0,869323785.0,,0.762394014583,-0.294204290094,0.127210285778,-0.0250342894911,0.999527817204,0.00311175601948,0.0175410814149,-0.0201755895132,-0.018116411511,-0.00960135540757,-0.0219808529758,0.0299561489214,0.00029638746935,0.668298035859,0.862769722939,4.77336740493,-0.0282051935792,0.404882013797,0.382309317589,885115.0,1518248000.0,868000000.0,,,,,,381026.0,1518248000.0,876786438.0,,0.572999984771,0.434999918938,0.303999996744,0.0149999996647,0.0010000000475,0.0170000009239,3.0
11,27.4318721282,2759.5,1518248000.0,989325160.0,,2238387.5,1518248000.0,989325160.0,,0.760694885716,-0.29299767162,0.124083116719,-0.0267121869619,0.999501725233,0.00277742371401,0.0165810069385,-0.0170173436216,0.0106206336607,-0.0304964976289,-0.0270996765309,0.019926625882,0.0347979169599,0.565765112639,1.67046052217,4.80095386505,-0.436618223786,0.383842632174,0.262681387364,1561926.0,1518248000.0,988201215.0,,,,,,381038.0,1518248000.0,996304711.0,,-0.226999997348,-0.914999985695,-0.225999989547,0.00300000002608,0.00400000018999,0.0570000000298,3.0
12,27.5344362308,2765.5,1518248001.0,49326076.0,,2238393.5,1518248001.0,49326076.0,,0.759050577238,-0.291737186926,0.122165926401,-0.027772101141,0.999494872585,0.00269386014273,0.0152118904981,-0.0307765382578,0.0245029460583,-0.0432985385951,0.0003657313311,0.0502376642077,0.0453485368866,0.547995818778,1.49912685155,4.99003767967,-0.227168567479,0.393274568022,0.318006977439,1561930.5,1518248001.0,48208783.5,,,,,,381043.5,1518248001.0,53654567.0,,-0.467000006885,-1.52999999523,-0.0609999978916,0.0105000000913,-0.0205000005662,0.0734999999404,3.0
13,27.6370003333,2777.5,1518248001.0,169323905.5,,2238405.5,1518248001.0,169323905.5,,0.753421620955,-0.288169693654,0.116728443897,-0.0312680157259,0.999460153729,0.00258035683886,0.00973877218172,-0.0609905967379,0.0456708061726,-0.0428370871762,-0.00684762627709,0.120687037934,0.0946243290065,1.9884814024,1.27297520637,4.44100522995,-0.204757459462,0.958607435228,0.373002082109,1561938.0,1518248001.0,161710830.0,,,,,,381055.5,1518248001.0,173114524.5,,0.987999976427,0.960000014306,0.488999987952,0.0405000019818,-0.019500000868,0.023000000976,3.0
14,27.7395644359,2787.5,1518248001.0,269323556.5,,2238415.5,1518248001.0,269323556.5,,0.747995181938,-0.284558239663,0.11054295641,-0.0356531333127,0.999353820715,0.00152706723517,0.00427383553694,-0.0455136344886,0.0345582429183,-0.0704246146102,-0.0189324178509,0.0865644716765,0.0894538822325,2.90934360027,0.351419016718,5.47446990013,0.307558208704,1.26077389717,0.455289751292,1561945.0,1518248001.0,262193596.5,,,,,,381065.5,1518248001.0,274136247.0,,0.017999955267,0.554999983313,0.663999992423,0.0190000003203,0.0105000005569,0.0104999996256,3.0
15,27.8421285385,2800.5,1518248001.0,399323600.0,,2238428.5,1518248001.0,399323600.0,,0.742329453297,-0.279890904042,0.102398982637,-0.0400995314804,0.999193527488,0.00136378149285,-0.00151462041556,-0.0447747081528,0.0439205233213,-0.0734670665078,0.00894892691532,0.0965800855018,0.062700419156,2.79409474134,0.850786209106,5.65808391571,0.0451751053334,1.19011390209,0.381370007992,1561955.0,1518248001.0,400692834.5,,,,,,381078.5,1518248001.0,404010963.5,,0.357999981194,0.060000038147,0.383999995887,0.0149999996647,0.0200000000186,0.0465000011026,3.0
16,27.944692641,2809.5,1518248001.0,489329976.0,,2238437.5,1518248001.0,489329976.0,,0.738139734653,-0.275353857725,0.0967226404617,-0.0431670559581,0.99904744167,0.00215156318173,-0.00600779225242,-0.0351003682228,0.0522861450826,-0.0684644025169,0.0133501746403,0.0768441316621,0.0639761081238,2.21466374397,0.5592931211,4.80409193039,0.219983361662,0.92339155078,0.365198820829,1561961.0,1518248001.0,483217387.5,,,,,,381087.5,1518248001.0,494642498.5,,0.182999969274,-0.734999978542,-0.246000000276,0.0279999999329,-0.0085000002291,0.0455000009388,3.0
17,28.0472567436,2817.5,1518248001.0,569325218.0,,2238445.5,1518248001.0,569325218.0,,0.735801031126,-0.272980938403,0.0922329073972,-0.0449508961702,0.998950805826,0.00250137840927,-0.00838548579991,-0.0153952892868,0.0217223623103,-0.0509920540391,0.00754498751501,0.0318692734697,0.0220552621955,1.41755157709,0.368779331446,4.84555220604,0.301557511091,0.602381169796,0.373884037137,1561966.0,1518248001.0,563716426.0,,,,,,381095.5,1518248001.0,572799172.5,,0.687999979407,-0.100000047683,0.238999984227,0.0449999999255,-0.0235000001266,0.0260000005364,3.0
18,28.1498208462,2828.5,1518248001.0,679325478.0,,2238456.5,1518248001.0,679325478.0,,0.732168348661,-0.270048334241,0.0872139799313,-0.0469714409034,0.998816496175,0.0032593307458,-0.0121904916031,-0.0516981391639,0.00620452128023,-0.0521943679166,-0.00498576710471,0.104909680418,0.0132715862418,1.07055874169,0.477338284254,5.1384780407,0.189500048757,0.680471885952,0.337915733457,1561974.5,1518248001.0,679199518.0,,,,,,381106.5,1518248001.0,683634416.5,,-0.277000009268,-0.625000023842,0.238999991678,0.0369999995455,-0.0050000003539,0.0370000004768,3.0
19,28.2523849487,2840.5,1518248001.0,799326312.0,,2238468.5,1518248001.0,799326312.0,,0.726278214481,-0.26939522111,0.0815459147292,-0.0495827571967,0.99859299707,0.00196127788482,-0.0186966343545,-0.0294531390614,0.0087472990355,-0.0207454832627,-0.0307546603844,0.0582412431816,0.0455530594754,2.15237021446,1.09028476477,4.63953447342,-0.0764439366757,0.798887878656,0.310568034649,1561982.5,1518248001.0,799202406.0,,,,,,381119.0,1518248001.0,808768702.0,,0.127999977023,-0.314999961853,-0.761000015773,0.00149999931455,-0.00200000003679,0.0379999997094,3.0
20,28.3549490513,2850.5,1518248001.0,899331610.5,,2238478.5,1518248001.0,899331610.5,,0.692594700269,-0.268136630696,0.0784620836185,-0.0480523096132,0.997242357366,0.00300207684601,-0.056461312135,-0.341688008881,0.00735429910644,-0.0998418031933,-0.0442331429179,0.630872796245,0.111930420749,38.2141914367,0.104069381952,-1.77021229267,0.121676549315,10.9152488709,0.525278896093,1561989.5,1518248001.0,899717751.0,,,,,,381129.0,1518248001.0,907215842.0,,10.2130000599,1.86499986648,-1.90099994186,-0.105499997735,0.712500005961,0.255500003696,1.0
21,28.4575131538,2861.5,1518248002.0,9335778.5,,2238489.5,1518248002.0,9335778.5,,0.682564541236,-0.269317747663,0.0734236521189,-0.0507727618622,0.996373859562,0.000327370184797,-0.0682720281334,0.00978648253412,0.0197923533269,-0.0287324245421,0.0141281591911,-0.0374083567298,0.0398572591052,6.36928462982,0.681871563196,3.78492832184,0.261036977172,1.23570558429,0.406232208014,885160.0,1518248002.0,8000000.0,,,,,,381139.5,1518248002.0,13693322.0,,2.3280000098,0.244999980926,-2.70600000862,0.0044999998063,0.214000001549,0.145499996841,-1.0
22,28.5600772564,2872.5,1518248002.0,119537962.0,,2238500.5,1518248002.0,119537962.0,,0.690463695041,-0.267758831816,0.0687922005069,-0.0499691067106,0.99710272172,0.00216040455894,-0.0573106266006,0.0251252777486,0.000820360911105,0.00100596859501,0.0155050863335,-0.0716891007315,-0.0163338760213,8.52114653586,1.24570161104,5.66753745079,-0.137411512435,3.28995478154,0.428598672152,885164.0,1518248002.0,108000000.0,,,,,,381150.5,1518248002.0,124799586.0,,-0.562000035495,-3.07000001669,-0.146000006236,-0.0149999991991,0.0530000003055,0.0965000018478,-1.0
23,28.662641359,2878.5,1518248002.0,179540381.5,,2238506.5,1518248002.0,179540381.5,,0.691401151746,-0.266794890444,0.0707953104627,-0.051320536177,0.997053148248,0.00174313571887,-0.0569926267691,0.00936496328931,0.0191954171743,0.00994279952543,-0.0035719270354,-0.00768454213624,0.0375467885789,-1.32148343325,0.492415577173,3.83890378475,0.251952804626,-0.830163180828,0.414989024401,1562009.0,1518248002.0,170298715.0,,,,,,381156.5,1518248002.0,184529051.0,,1.47300001308,-1.30499997139,-0.766000011004,-0.00500000012106,0.124000001699,0.074999999255,-1.0
24,28.7652054615,2890.5,1518248002.0,299539270.0,,2238518.5,1518248002.0,299539270.0,,0.692518295908,-0.265461935875,0.070605379239,-0.051603821073,0.997129254927,0.00230639052459,-0.0553619545952,0.00934885288588,0.00698690944679,0.0220045251034,-0.00990381973819,-0.0189287113304,0.0174508654007,3.30987226963,0.108539730311,4.10724306106,0.488008558751,1.21623289585,0.427918583155,2238863.5,1518248002.0,297635052.5,,,,,,381168.5,1518248002.0,304136493.5,,-1.35699999258,-1.57499999702,-0.371000000275,0.0175000000745,0.0185000002384,0.0330000007525,-1.0
25,28.8677695641,2902.5,1518248002.0,419534441.0,,2238530.5,1518248002.0,419534441.0,,0.694683018377,-0.265325488838,0.0711065564835,-0.0519062358136,0.997239078676,0.00221902726416,-0.0530560487856,-0.0164988694506,0.00062395657791,0.00132261558724,-0.0175986118928,0.0248558582659,0.018550326292,3.03749978543,0.334932804108,5.03497195244,0.318970732391,1.45529389381,0.420480027795,885176.0,1518248002.0,412000000.0,,,,,,381180.5,1518248002.0,423486015.0,,0.522999982163,-1.13500001431,-0.670999982394,0.0230000000447,-0.00250000017695,0.0279999999329,-1.0
26,28.9703336667,2909.5,1518248002.0,489537580.5,,2238537.5,1518248002.0,489537580.5,,0.695189681825,-0.265845539732,0.0714018042439,-0.0515361897249,0.997275127301,0.00176175075908,-0.0527553976927,0.0131149796725,-0.0130101305545,-0.00702046802361,-0.0262068475681,-0.0389581804023,0.0150078786387,1.8922649026,0.374384775758,4.60028862953,0.318621128797,0.977085709574,0.424825876952,1562031.0,1518248002.0,489814912.0,,,,,,381187.5,1518248002.0,495653861.5,,-1.09200000689,-0.324999952316,-0.586000003852,0.0114999997895,0.0364999994636,0.0249999999068,-1.0
27,29.0728977692,2921.5,1518248002.0,609540326.0,,2238549.5,1518248002.0,609540326.0,,0.69439528677,-0.265679555336,0.0708181049328,-0.0518885695005,0.997211308324,0.00183048078413,-0.0536063179681,0.0130181253667,0.00567497312932,0.00326489381391,0.00120127709855,-0.0280139759761,0.00847039328226,3.78392529487,0.410536244512,5.20372772217,0.317647345364,1.67927873134,0.411929041147,1562039.0,1518248002.0,607814071.0,,,,,,381199.5,1518248002.0,615109588.0,,0.292999983579,-0.955000007152,-0.605999984778,0.0214999997988,0.0,0.015000000596,-1.0
28,29.1754618718,2930.5,1518248002.0,699549866.5,,2238558.5,1518248002.0,699549866.5,,0.694318458195,-0.265495591606,0.0717927844649,-0.0519795864666,0.997160942333,0.0017323655302,-0.0544520280443,-0.00584726981214,0.0108287463679,0.00835511488158,-0.0007764770175,0.0190337929218,0.0284349342906,3.33203196526,0.278435081244,5.29665493965,0.347216457129,1.4175195694,0.415687799454,2238903.5,1518248002.0,697612914.0,,,,,,381208.5,1518248002.0,705816898.0,,-0.572000025958,0.0550000429153,-0.620999970473,0.0245000002906,-0.0054999999702,0.0315000005066,-1.0
29,29.2780259744,2942.5,1518248002.0,819537883.5,,2238570.5,1518248002.0,819537883.5,,0.696551828647,-0.266136769582,0.0732132216064,-0.0510461271446,0.99731599024,0.00175377144563,-0.0524587816156,0.0284932291393,0.00929148728562,0.020410165641,0.0135519811203,-0.0557493109361,-0.013295368442,1.36901193857,0.328903913497,4.82855343818,0.372911036015,0.675223618745,0.412963792682,885192.0,1518248002.0,815000064.0,,,,,,381220.5,1518248002.0,825239565.0,,-0.756999968737,-0.990000003574,-0.0510000074282,0.0164999999106,0.00249999994412,0.0454999990762,-1.0
30,29.3805900769,2953.5,1518248002.0,929535831.5,,2238581.5,1518248002.0,929535831.5,,0.698724826331,-0.265866410704,0.0742466827427,-0.0506789436167,0.997442309232,0.00208889500746,-0.0503571518283,0.00839030194122,-0.00049612805257,0.000273105239002,0.00533105303431,-0.0300964647275,-0.00636553472843,1.09898889065,0.296253487468,4.969039917,0.360808953643,0.759083151817,0.413707733154,1562061.5,1518248002.0,924810768.5,,,,,,381231.5,1518248002.0,934299377.0,,-1.20199996158,-0.59999998808,-0.646000006236,0.0184999997728,0.0290000010282,0.0535000003875,-1.0
31,29.4831541795,2961.5,1518248003.0,9535897.5,,2238589.5,1518248003.0,9535897.5,,0.698832118174,-0.266157848618,0.0742547905717,-0.0509041057128,0.997432361443,0.00175476498157,-0.050342411781,0.013494322476,0.00250730487876,0.00341670930853,0.00296795786199,-0.0257347264622,0.0107812007086,2.79311001301,0.211858317256,5.04032754899,0.435157716274,1.30663150549,0.408611506224,1562067.0,1518248003.0,10814134.0,,,,,,381240.0,1518248003.0,18588773.5,,-0.517000018805,-0.210000002384,-0.155999996699,0.0180000001565,0.00399999978254,0.0324999997392,-1.0
32,29.5857182821,2970.5,1518248003.0,99541860.0,,2238598.5,1518248003.0,99541860.0,,0.699359405533,-0.265769409604,0.0748246364808,-0.0509027997387,0.997455083218,0.00194717892869,-0.0498837868092,0.014904871236,-0.0010008091686,0.0079823404226,-0.0072721845706,-0.0227915141738,0.00438776502981,0.769047915936,0.300605118274,5.36193561554,0.38826701045,0.552941143513,0.419433638454,1562073.5,1518248003.0,98295452.5,,,,,,381248.5,1518248003.0,104980064.0,,-0.332000016421,-2.08999999389,-0.035999991931,0.0145000000484,-0.0225000008941,0.0490000005812,-1.0
33,29.6882823846,2982.5,1518248003.0,219537579.0,,2238610.5,1518248003.0,219537579.0,,0.69847299788,-0.266269934552,0.074459667126,-0.0507747504822,0.99741375712,0.00174137453119,-0.0508387750275,-0.00568117098689,-0.00600981203028,0.00523458222961,0.00217416556994,0.0141481628685,-0.0128068107126,2.41385090351,0.256674215197,5.31147789955,0.433077156544,1.12050718069,0.413754224777,1562081.0,1518248003.0,211810576.5,,,,,,381260.5,1518248003.0,224590002.5,,-1.04699999019,-1.18499999643,-0.0160000110045,0.0299999993295,0.0120000001043,0.0679999999702,-1.0
34,29.7908464872,2995.5,1518248003.0,349537020.0,,2238623.5,1518248003.0,349537020.0,,0.697509053048,-0.266314318416,0.0748331028383,-0.0506531974814,0.997360316267,0.00171622744762,-0.0519954155372,-0.0016941427069,-0.0013999969048,0.00716191583781,-0.00817646188576,0.00246867424031,-0.00048684829541,2.21461045742,0.388471335172,5.51734185219,0.355282440781,1.04028961062,0.391673773527,1562091.0,1518248003.0,350313509.5,,,,,,381273.5,1518248003.0,354266530.5,,-0.377000033111,-2.05999999549,-0.915999987164,0.0364999994636,-0.0169999999925,0.074500001967,-1.0
35,29.8934105897,3004.5,1518248003.0,439537657.0,,2238632.5,1518248003.0,439537657.0,,0.697346353466,-0.266871531622,0.0746785109883,-0.0505062821747,0.997352708577,0.00162931153685,-0.0522867676969,0.0008304752609,-0.00068421578807,0.00659185677075,0.00010133679593,-0.00288026382375,-0.00387482284112,1.8704303503,0.230430528521,5.89192342758,0.459614917636,0.956137686968,0.414735764265,2238977.5,1518248003.0,437638592.0,,,,,,381282.5,1518248003.0,445079821.5,,-0.812000035495,-1.76999999359,-0.745999970473,0.0320000005886,-0.00650000013411,0.0444999989122,-1.0
36,29.9959746923,3013.5,1518248003.0,529537328.0,,2238641.5,1518248003.0,529537328.0,,0.698284322491,-0.266387576264,0.0751162855279,-0.0508628073337,0.997390975547,0.00182198480399,-0.0511942594567,-0.0132850653562,-0.00107297069995,-0.0050082467291,-0.00376200674225,0.023637296518,-0.0102789418987,0.611703038215,0.340631559491,6.17065167427,0.393248587847,0.535185396672,0.414848968386,1562103.5,1518248003.0,528294443.0,,,,,,381291.5,1518248003.0,535910990.0,,-0.811999975888,-1.71000000983,-0.101000019349,0.0200000004842,-0.0120000001043,0.0584999993444,-1.0
37,30.0985387949,3023.5,1518248003.0,629534503.5,,2238651.5,1518248003.0,629534503.5,,0.697499052359,-0.266329212364,0.0749583444048,-0.0507310750325,0.997356849793,0.00175717530488,-0.0519852344935,-0.00222449456051,0.00635185552893,-0.0131857062996,0.0116537157072,0.00304296506181,-0.000293010917615,1.23556637764,0.227177932859,5.76053118706,0.45382091403,0.714374601841,0.414875492453,1562110.5,1518248003.0,628811476.0,,,,,,381301.5,1518248003.0,634671669.5,,-0.476999997347,-1.77499998975,0.333999998867,0.0235000001267,0.00599999981932,0.0360000003129,-1.0
38,30.2011028974,3035.5,1518248003.0,749539618.5,,2238663.5,1518248003.0,749539618.5,,0.697873540095,-0.267403833805,0.075059390066,-0.050143745802,0.997401890522,0.00148253108938,-0.0516996910432,-0.00147458196011,-0.00102315230156,-0.00306296079701,0.00098552631649,0.00691525972473,0.00321385803832,1.10712581873,0.183911457658,6.03635120392,0.496472120285,0.686899870634,0.410813003778,1562118.5,1518248003.0,748303868.5,,,,,,381313.5,1518248003.0,756231152.5,,-0.731999992579,-0.315000021458,0.638999994844,0.0209999997169,0.0,0.0164999994449,-1.0
39,30.303667,3045.5,1518248003.0,849540710.5,,2238673.5,1518248003.0,849540710.5,,0.697158032001,-0.267045016679,0.0748808432802,-0.0504646217746,0.997346324778,0.00151889693186,-0.0524503352788,0.00908460415785,0.00396477770844,0.0031691790869,-0.00507157761976,-0.0213822502608,0.00394087538592,1.04344144464,0.164433836937,5.93109679222,0.531949818134,0.608186811209,0.426865592599,1562125.5,1518248003.0,848814835.5,,,,,,381323.5,1518248003.0,854781793.5,,-1.10200005695,-2.49999999404,0.0589999919756,0.0265000006184,0.00150000001304,0.0339999999851,-1.0
