,Unnamed: 0,.header.seq,.header.stamp.secs,.header.stamp.nsecs,.header.frame_id,.endpoint_state.header.seq,.endpoint_state.header.stamp.secs,.endpoint_state.header.stamp.nsecs,.endpoint_state.header.frame_id,.endpoint_state.pose.position.x,.endpoint_state.pose.position.y,.endpoint_state.pose.position.z,.endpoint_state.pose.orientation.x,.endpoint_state.pose.orientation.y,.endpoint_state.pose.orientation.z,.endpoint_state.pose.orientation.w,.endpoint_state.twist.linear.x,.endpoint_state.twist.linear.y,.endpoint_state.twist.linear.z,.endpoint_state.twist.angular.x,.endpoint_state.twist.angular.y,.endpoint_state.twist.angular.z,.endpoint_state.wrench.force.x,.endpoint_state.wrench.force.y,.endpoint_state.wrench.force.z,.endpoint_state.wrench.torque.x,.endpoint_state.wrench.torque.y,.endpoint_state.wrench.torque.z,.joint_state.header.seq,.joint_state.header.stamp.secs,.joint_state.header.stamp.nsecs,.joint_state.header.frame_id,.joint_state.name,.joint_state.position,.joint_state.velocity,.joint_state.effort,.wrench_stamped.header.seq,.wrench_stamped.header.stamp.secs,.wrench_stamped.header.stamp.nsecs,.wrench_stamped.header.frame_id,.wrench_stamped.wrench.force.x,.wrench_stamped.wrench.force.y,.wrench_stamped.wrench.force.z,.wrench_stamped.wrench.torque.x,.wrench_stamped.wrench.torque.y,.wrench_stamped.wrench.torque.z,.tag
0,211.76965,21193.5,1518248185.0,329450529.5,,2256821.5,1518248185.0,329450529.5,,0.761770879456,-0.292702477031,0.127770280605,-0.0260848518058,0.999521116607,0.00372904259984,0.0162228575744,0.00309683356946,0.000310925725666,-0.000276059956575,0.00390536448634,-0.00856474453704,-0.0132882175005,3.44500935078,0.0479744672776,4.87391066551,0.365701079369,1.45637309552,0.402992039919,892412.0,1518248185.0,321999872.0,,,,,,399453.5,1518248185.0,337304335.0,,-0.262000029534,2.15300001539,0.348999996483,0.0250000003725,0.00700000021606,0.0214999997988,0.0
1,211.872214103,21201.5,1518248185.0,409454040.0,,2256829.5,1518248185.0,409454040.0,,0.76127068327,-0.293135801602,0.12749600034,-0.0257111191364,0.999539791242,0.003786731969,0.0156408821542,0.00230809796243,-0.00192647718366,-0.00441181181455,0.0145296781459,-0.00165781901339,-0.00813096653257,3.50891029835,0.186694666743,4.81465482712,0.296144247055,1.45560860634,0.384506732226,1574794.5,1518248185.0,409766129.5,,,,,,399461.5,1518248185.0,417099736.5,,0.652999999374,2.16300000586,0.169000004232,0.0290000010282,0.0165000008419,0.0185000002384,0.0
2,211.974778205,21212.5,1518248185.0,519451688.0,,2256840.5,1518248185.0,519451688.0,,0.76221131381,-0.292839532176,0.1276348941,-0.0257562877683,0.99951819909,0.00389310253767,0.0168727313949,0.0140355980942,-0.00787583156413,-0.00523314559176,-0.00455037543829,-0.0395549067253,-0.00129881614868,3.73935997486,0.0880546420812,4.62594461441,0.324917167425,1.43540376425,0.378795653582,892419.5,1518248185.0,522000128.0,,,,,,399472.5,1518248185.0,527953643.0,,0.103000009805,2.65299995579,0.358999998122,0.0270000007003,0.0160000002943,0.0470000002533,0.0
3,212.077342308,21223.5,1518248185.0,629453829.5,,2256851.5,1518248185.0,629453829.5,,0.763518889191,-0.293211138899,0.128324992425,-0.0257649685215,0.999487582649,0.00346307196875,0.0186719435635,-0.0136753786972,-0.00092588785592,-0.00492857931975,-0.0031841294018,0.0326623569065,-0.00072906840495,2.5526342392,0.165687799454,4.85316038131,0.294849961996,1.18966042995,0.390234380961,892424.0,1518248185.0,627000064.0,,,,,,399483.5,1518248185.0,639518960.0,,-0.801999961585,2.05799998678,0.0290000036359,0.020499999635,0.00900000007823,0.0714999996126,0.0
4,212.17990641,21233.5,1518248185.0,729456749.5,,2256861.5,1518248185.0,729456749.5,,0.762649041589,-0.293245185528,0.127659728003,-0.0255127165359,0.999514875565,0.00376632899521,0.0174602170592,-0.00394986453908,-0.00512105963997,0.000613505556325,-0.0140445027355,0.0131005090079,0.0004338868496,3.60417556763,0.109080523252,4.83951282501,0.296610742807,1.49011665583,0.379037767649,892428.0,1518248185.0,727000064.0,,,,,,399493.5,1518248185.0,737172913.0,,-0.281999980658,3.2629999701,0.53400000073,0.0230000000447,-0.00150000001304,0.0334999999031,0.0
5,212.282470513,21244.5,1518248185.0,839454367.5,,2256872.5,1518248185.0,839454367.5,,0.76302405418,-0.293159722632,0.127651456519,-0.0258694383406,0.999498165559,0.00356427885704,0.0179165359168,-0.000292819734082,-0.00662439205491,-0.00135455283711,0.00318115448411,-0.00019156028948,-0.00719126599258,3.29574716091,0.357026070357,5.06150865555,0.172311410308,1.46556830407,0.36126986146,1574825.0,1518248185.0,835266445.5,,,,,,399504.5,1518248185.0,847985426.0,,1.09799998477,2.31799997724,1.00400001258,0.0214999997988,-0.00050000002375,0.0365000013262,0.0
6,212.385034615,21254.5,1518248185.0,939475130.0,,2256882.5,1518248185.0,939475130.0,,0.76296050584,-0.293086503516,0.127706278051,-0.0255881666611,0.999506800511,0.00377598458516,0.0178079690173,-0.0017026835676,0.0115632251053,0.00627378609634,0.00737393304922,0.00139095070295,0.000808959830505,3.19691288471,0.287507861853,4.97363519668,0.241807930171,1.40305840969,0.348165884614,1574832.0,1518248185.0,932767973.5,,,,,,399514.5,1518248185.0,948907626.0,,1.96299999431,2.23800005354,0.269000009448,0.0204999991693,0.0225000004284,0.0324999997392,3.0
7,212.487598718,21264.5,1518248186.0,39450668.5,,2256892.5,1518248186.0,39450668.5,,0.762758878931,-0.292952113089,0.127691157266,-0.0260444010466,0.999496603942,0.0036814889083,0.0177344548402,-0.00619364902773,0.00582759623558,-0.0137915606523,0.000106098266065,0.0159604049653,0.0164167543061,0.941072821615,0.474183902145,4.87217378616,0.13510254398,0.468474641442,0.344825431704,1574839.0,1518248186.0,32751684.0,,,,,,399524.5,1518248186.0,49746193.0,,0.187999999523,2.94300003686,0.528999996185,0.0300000011921,-0.00300000049176,0.0180000001565,3.0
8,212.590162821,21275.5,1518248186.0,149452652.5,,2256903.5,1518248186.0,149452652.5,,0.762491587729,-0.292681359936,0.126788361216,-0.0258630936274,0.999502570349,0.00376887966438,0.0176482189777,-0.0101302414097,0.0144548618179,-0.014809447631,-0.00329179491709,0.0191840542998,0.0165417065762,0.572500377893,1.08861476183,4.97884869575,-0.252452798187,0.34150891006,0.270672515035,1574846.5,1518248186.0,150752058.5,,,,,,399535.5,1518248186.0,158825585.0,,0.622999998182,2.39299996533,0.434000001103,0.00900000007823,0.0164999999106,0.0515000000596,3.0
9,212.692726923,21285.5,1518248186.0,249459185.0,,2256913.5,1518248186.0,249459185.0,,0.762273971981,-0.292278414627,0.124983378926,-0.026772804309,0.999467116979,0.00353885458011,0.0183274506222,-0.0193597179103,0.0071499857125,-0.0195874139998,-0.00449504204207,0.0337447443536,0.0210425011448,-1.55267184973,1.58842986822,4.5794775486,-0.391705214977,-0.477561801672,0.275983422995,2257258.5,1518248186.0,247521115.5,,,,,,399545.5,1518248186.0,257855849.5,,-0.606999998538,1.09300001301,0.874000002443,0.0300000002607,-0.0130000000354,0.0439999997616,3.0
10,212.795291026,21293.5,1518248186.0,329456040.5,,2256921.5,1518248186.0,329456040.5,,0.760101024304,-0.290633308497,0.122687111342,-0.0284512251492,0.999455526056,0.00299485278346,0.0164321376103,-0.033625044754,0.00134635697725,-0.0277954005917,-0.0457800193716,0.0624639723784,0.0351452946828,-0.663062110543,1.69607198238,5.18285703659,-0.547179788351,0.0146297365427,0.249029964209,892452.0,1518248186.0,327000064.0,,,,,,399553.5,1518248186.0,339711727.5,,-0.121999984235,2.87799997963,1.0390000239,0.0214999997988,0.00299999996787,0.0315000005066,3.0
11,212.897855128,21305.5,1518248186.0,449464745.5,,2256933.5,1518248186.0,449464745.5,,0.753814082417,-0.287458121473,0.117433062141,-0.0316654217289,0.999440713934,0.00277939487076,0.0103779159753,-0.0445744962381,0.0321217928848,-0.0544323445228,-0.00882363469288,0.0756173767109,0.058004957913,1.89330762624,1.63379234076,4.35047960281,-0.47443562746,0.707308635116,0.244392335415,2257278.5,1518248186.0,447552824.0,,,,,,399565.5,1518248186.0,458838312.0,,1.45799999907,2.19300003685,1.55400000959,0.0169999999925,0.0270000007003,0.019499999471,3.0
12,213.000419231,21313.5,1518248186.0,529448067.5,,2256941.5,1518248186.0,529448067.5,,0.750964222406,-0.284670286373,0.113683502028,-0.034065765011,0.999386635414,0.00251969050044,0.00770390867487,-0.0410914162493,0.0380341248777,-0.0563408748387,-0.00444364223374,0.0792408802891,0.0547770561759,0.845919542017,1.30389070511,4.29463553429,-0.314424365759,0.382998988032,0.28926166892,1574872.5,1518248186.0,520753622.0,,,,,,399573.5,1518248186.0,538921185.0,,1.80299999788,1.68800001182,0.609000001848,0.0235000001267,0.0189999993891,0.0635000001639,3.0
13,213.102983333,21323.5,1518248186.0,629462513.0,,2256951.5,1518248186.0,629462513.0,,0.747544111052,-0.280722509472,0.108150022324,-0.0382623788451,0.999254221278,0.00225218941377,0.00462825404548,-0.0614571056885,0.0434915337196,-0.0597212162629,-0.00493935494534,0.128373463523,0.0822223130004,-0.238002568484,0.848811715841,4.9298286438,-0.11214902997,0.065554305911,0.315431296825,892464.0,1518248186.0,630000128.0,,,,,,399583.5,1518248186.0,638919530.0,,-0.877000009268,1.30299999155,0.059000016004,-0.0500000007451,0.0700000021606,0.0220000008121,3.0
14,213.205547436,21336.5,1518248186.0,759451293.5,,2256964.5,1518248186.0,759451293.5,,0.739978307612,-0.276184071187,0.100651876774,-0.0421540584462,0.999101092185,0.00252682572972,-0.00368064805132,-0.0609159928557,0.0305990839849,-0.0569888107543,-0.00854998772201,0.135560225782,0.057329838779,1.95289772749,0.56369009614,4.79327178002,0.0386493243275,0.828821167352,0.388061851263,1574889.0,1518248186.0,758771677.0,,,,,,399596.5,1518248186.0,768697132.5,,0.312999988347,1.69300000704,0.489000002667,0.031000001356,-0.0010000000475,0.0490000005811,3.0
15,213.308111538,21344.5,1518248186.0,839462937.0,,2256972.5,1518248186.0,839462937.0,,0.735913677633,-0.274452199809,0.0960469807887,-0.0449456032083,0.998955101046,0.0016997457125,-0.00810039404971,-0.0312131916149,0.00616908776103,-0.061806432427,-0.0391864126939,0.0657839714591,0.0634724243573,2.87547194958,0.441441848874,4.4526412487,0.191636770963,0.93044900894,0.349533766508,1574895.0,1518248186.0,837778465.5,,,,,,399604.5,1518248186.0,850099783.5,,-0.06199998185,2.06799997724,0.0540000095962,0.0250000003725,0.0150000001304,0.0370000004769,3.0
16,213.410675641,21356.5,1518248186.0,959456059.5,,2256984.5,1518248186.0,959456059.5,,0.736233373761,-0.270941223192,0.0896938137607,-0.0471138239604,0.998862048779,0.00259947835274,-0.00692094536183,-0.00499394722399,0.0357176378749,-0.0625462266765,0.0242586824353,-0.00992196942084,0.0586142003707,1.01643122732,0.510693475604,4.94757890702,0.122617866844,0.486470535398,0.335848331452,1574903.0,1518248186.0,959772483.5,,,,,,399616.5,1518248186.0,969187264.5,,0.878000000864,2.79800005593,0.569000005536,0.0,0.036000000313,0.00450000021374,3.0
17,213.513239744,21366.5,1518248187.0,59459723.5,,2256994.5,1518248187.0,59459723.5,,0.73231032214,-0.270620653612,0.084694693604,-0.0487675588174,0.998745097368,0.00198194915877,-0.0112117962315,-0.0582471141402,0.00340606339153,-0.0444471654753,-0.0284054919934,0.112561761737,0.0495413953686,1.40407824516,0.86939433217,4.71439242363,-0.0812165886166,0.859117418525,0.312424719333,1574910.0,1518248187.0,60264238.0,,,,,,399626.5,1518248187.0,69874600.5,,0.147999996692,2.08800001778,-0.0910000011325,0.0209999997169,0.0224999999628,0.0460000000894,3.0
18,213.615803846,21374.5,1518248187.0,139454167.5,,2257002.5,1518248187.0,139454167.5,,0.728459182152,-0.270648531437,0.0811912249077,-0.0503602081773,0.998608692164,0.000770507271131,-0.0156135181657,-0.0417271054617,0.0055498581268,-0.0512209889851,-0.00952564900563,0.0810405974061,0.0249126801999,3.78387868404,0.987640678885,5.13055777549,-0.0983479171992,1.48695743084,0.302510425448,1574916.0,1518248187.0,139766743.5,,,,,,399634.5,1518248187.0,149963637.0,,1.34799998477,1.17799999155,0.574000003562,0.0285000000149,0.0280000008642,0.0590000003577,3.0
19,213.718367949,21387.5,1518248187.0,269455535.0,,2257015.5,1518248187.0,269455535.0,,0.72412714958,-0.268842835799,0.0755265362287,-0.0512707875514,0.998489659299,0.000853778024912,-0.0197224595168,-0.0385718494031,-0.00743006086505,-0.0494588555397,0.0011380422942,0.0511570344992,-0.00447983833009,2.49049657583,0.823946356773,4.79783797264,0.0242406837642,0.929047197105,0.305916145444,1574924.5,1518248187.0,266256826.5,,,,,,399647.5,1518248187.0,279484919.5,,0.787999995426,1.94800000228,0.0940000012519,0.0209999997169,0.00999999977647,0.0769999995828,3.0
20,213.820932051,21394.5,1518248187.0,354451763.0,,2257024.0,1518248187.0,354451763.0,,0.714909223041,-0.264475258979,0.0724129198052,-0.0518983164765,0.998191633492,0.00532624292049,-0.0298606548662,-0.116256550122,0.0535755301313,-0.0583372792598,0.0280011183601,0.230207618093,0.0429284029417,8.41159534454,1.00729894638,2.33000445366,-0.655522942543,2.01343083382,0.310086756945,2257368.5,1518248187.0,347555773.0,,,,,,399656.0,1518248187.0,363280927.0,,2.39800002649,7.59799988903,-0.48100001663,-0.190999999642,0.479000002146,-0.140000000596,3.0
21,213.923496154,21406.5,1518248187.0,459450677.0,,2257034.5,1518248187.0,459450677.0,,0.714420707265,-0.264056998868,0.0675331885236,-0.0561065719062,0.997968162756,0.00204110701174,-0.0301154467249,0.03338840172,-0.0143739806564,-0.0444899110151,-0.0627401274385,-0.0925274775724,0.0451887092765,4.15563106537,-0.0061466321349,5.00035023689,0.366282850504,1.46975594759,0.303062900901,2257379.5,1518248187.0,457511875.5,,,,,,399666.5,1518248187.0,469537639.0,,0.053000020236,2.86799998916,0.7090000052,0.0264999996871,0.0169999999926,0.0460000000894,-1.0
22,214.026060256,21417.5,1518248187.0,569644358.5,,2257045.5,1518248187.0,569644358.5,,0.718113150354,-0.262424601671,0.0651887135716,-0.0561852367258,0.998089291932,0.00295759974585,-0.0255263532993,-0.0300379198585,0.0393040000095,0.00619040136408,0.0778064598463,0.10428969619,-0.04157448973,-0.895997256039,0.0258399322627,5.5090405941,0.50048109889,0.0542712919413,0.337740689516,1574945.5,1518248187.0,567350071.0,,,,,,399677.5,1518248187.0,579994331.0,,-0.216999983043,0.377999994531,0.904000003636,0.0724999979139,-0.0730000026524,0.0525000002235,-1.0
23,214.128624359,21426.5,1518248187.0,659645911.0,,2257054.5,1518248187.0,659645911.0,,0.715453796474,-0.261981355822,0.0652009236763,-0.0556683368952,0.99802373547,0.00407333501564,-0.0288597398661,-0.0284294432364,0.00352228033518,-0.000715684293889,-0.0297576528873,0.0810000400252,0.0296484881741,1.82679921388,1.0662099719,5.36866950989,-0.251933522523,1.03545570374,0.299137830734,2257399.5,1518248187.0,657722316.5,,,,,,399686.5,1518248187.0,670070590.0,,2.27799996212,0.823000002282,0.354000006616,0.0305000003427,-0.00150000001304,0.0345000009984,-1.0
24,214.231188462,21437.5,1518248187.0,769640349.0,,2257065.5,1518248187.0,769640349.0,,0.712665198522,-0.263533399567,0.0658434372153,-0.0558345509682,0.997909236696,0.0029302087659,-0.0324197882656,-0.00105743937875,0.0187653633048,-0.00269238979651,0.0117142358799,0.0173895228194,0.0247833367185,0.594594180584,0.674092352391,4.40440249443,0.201220802963,0.154467407614,0.322304844857,1574959.5,1518248187.0,768344595.0,,,,,,399697.0,1518248187.0,774905997.0,,0.727999998629,0.457999992743,0.329000000656,0.0370000004768,0.0170000009239,0.0520000010729,-1.0
25,214.333752564,21446.5,1518248187.0,859637400.0,,2257074.5,1518248187.0,859637400.0,,0.712938310518,-0.263144936805,0.0652807763257,-0.0554343807821,0.997945210731,0.00330322728846,-0.0319567921507,0.00161673591221,-0.00266192284413,0.00874906210987,-0.0131391585621,0.00464973285434,-0.0039654605858,0.871106296777,0.641852855682,4.84929800034,0.138071674854,0.443352401256,0.303649261594,2257419.5,1518248187.0,857703810.5,,,,,,399706.0,1518248187.0,864999138.0,,-0.572000002116,0.367999989167,-0.0109999880195,0.0179999992251,-0.00600000005215,0.0359999984503,-1.0
26,214.436316667,21457.5,1518248187.0,969636852.0,,2257085.5,1518248187.0,969636852.0,,0.713174109604,-0.263222902138,0.0654005352213,-0.0557118258493,0.997940364895,0.00314989537815,-0.031639557416,-0.00988122116726,-0.00618084584095,-0.00381614324786,-0.00759583345877,0.0161725635052,-0.00032208512475,2.30682241917,0.807402074337,4.98808121681,0.0695941336453,1.07563146949,0.313551947474,1574973.5,1518248187.0,968843863.0,,,,,,399717.0,1518248187.0,975203041.0,,2.21800001935,-0.0519999977205,-0.116000007093,0.0515000000596,-0.020499999635,0.0470000002533,-1.0
27,214.538880769,21467.5,1518248188.0,69636769.5,,2257095.5,1518248188.0,69636769.5,,0.71345576094,-0.262849778635,0.0652737392243,-0.0554988635738,0.997959173442,0.00356279360506,-0.0313757057396,0.0161861844047,-0.00237371372398,0.00962044481531,0.00139640269828,-0.0426251503954,-0.00187811988025,1.67034614086,0.40161344409,5.07870650291,0.275483503937,0.861917614937,0.338975831866,1574980.5,1518248188.0,69345023.5,,,,,,399727.0,1518248188.0,75192506.0,,1.23800000027,1.52800001539,-0.111000011861,0.0529999993742,0.00400000018999,0.0270000007004,-1.0
28,214.641444872,21478.5,1518248188.0,179640413.5,,2257106.5,1518248188.0,179640413.5,,0.711439078991,-0.262025200677,0.0651160934914,-0.0547996905548,0.997919469602,0.00468585317766,-0.0336409933125,-0.027336005773,0.0169362110194,-0.0132856626264,0.0358501055382,0.0582852162162,-0.0105047089451,3.76991295815,0.356571510434,4.88926339149,0.215513631701,1.36226981879,0.330687522889,892525.0,1518248188.0,177999872.0,,,,,,399738.5,1518248188.0,189749526.0,,0.808000000566,1.94800003208,0.17899999097,0.0189999998547,0.0594999995083,0.0205000001005,-1.0
29,214.744008974,21490.5,1518248188.0,299644142.5,,2257118.5,1518248188.0,299644142.5,,0.711618226696,-0.263052246833,0.0651005531701,-0.0556407492615,0.997874596445,0.00327364013523,-0.0337581802797,0.0106071266764,-0.0192427486129,0.00254265758581,-0.0530518299391,-0.0284681212493,0.0314607766538,1.10533857346,0.276622012257,5.30762767792,0.386984720826,0.619188457727,0.347214102745,1574997.0,1518248188.0,300346628.0,,,,,,399750.5,1518248188.0,309646829.5,,0.198000008613,1.1230000142,0.66400000155,0.0254999995232,0.0200000004843,0.0694999992848,-1.0
30,214.846573077,21499.5,1518248188.0,389657682.0,,2257127.5,1518248188.0,389657682.0,,0.712330625435,-0.263734811026,0.066148393493,-0.0547882761167,0.997952005826,0.00342285083006,-0.0328373353861,-0.00867538599598,-0.0119280070161,-0.00508191170967,0.00888695751252,0.0146685434127,-0.0189126927441,1.57653135061,0.840219676495,4.71189761162,0.113520745188,0.761442661285,0.302502185106,1575003.0,1518248188.0,386349978.0,,,,,,399759.0,1518248188.0,395476655.5,,0.622999998183,2.13300003447,0.623999998718,0.0135000003502,0.011500000488,0.0235000001267,-1.0
31,214.949137179,21511.5,1518248188.0,509639999.0,,2257139.5,1518248188.0,509639999.0,,0.712468833555,-0.264415464953,0.0659799253467,-0.0543347683013,0.997976780889,0.00334134560229,-0.0328414179281,-0.00955178275169,-0.0092091374369,0.00228425147091,-0.00427156554425,0.0210320387502,-0.0175518405746,1.69834351539,0.382254704833,5.10011696816,0.368774682283,0.812192082406,0.32968494296,2257484.5,1518248188.0,507703799.5,,,,,,399771.5,1518248188.0,520123346.0,,-0.876999949662,1.79799999632,0.399000003747,0.011000000406,0.0184999993071,0.0375000014901,-1.0
32,215.051701282,21518.5,1518248188.0,579640826.0,,2257146.5,1518248188.0,579640826.0,,0.712149408466,-0.264259746391,0.0656712569389,-0.0547718402749,0.997945075011,0.00344147695943,-0.0330713638246,-0.0057838926708,-0.00101649079388,-0.00205288919835,0.0048295744162,0.0132608543733,-0.00312776150219,1.2600889206,0.477233514189,5.83681821823,0.311295062304,0.630933552981,0.341760739684,1575015.5,1518248188.0,572371115.0,,,,,,399778.0,1518248188.0,586016308.0,,0.0880000241101,3.17800005116,0.848999996483,0.0120000001043,0.0189999993891,0.0370000004768,-1.0
33,215.154265385,21529.5,1518248188.0,689634522.0,,2257157.5,1518248188.0,689634522.0,,0.712546484935,-0.264658178239,0.0658319321884,-0.0542719479712,0.99798136405,0.00332804275402,-0.0328091571431,0.00883742418987,-0.00466528261897,0.00049810646445,0.00144964309128,-0.0112645377533,-0.00779515664462,1.67755115032,0.181924179197,5.53938484192,0.434908330441,0.800717622041,0.334432080388,1575024.0,1518248188.0,687863715.5,,,,,,399789.5,1518248188.0,700458262.0,,0.308000008017,0.677999999002,0.229000012204,0.0355000002309,-0.00150000001303,0.0415000002831,-1.0
34,215.256829487,21541.5,1518248188.0,809656543.5,,2257169.5,1518248188.0,809656543.5,,0.713869927573,-0.265021530239,0.0667081332302,-0.0539619396115,0.998043783384,0.00327839966023,-0.0313989431733,0.0142701868732,0.00983669518904,0.00734288139763,0.0119530944682,-0.031537973553,0.00276349828898,1.09803652764,0.0958585590123,5.45243859291,0.491385042667,0.626986294985,0.355445668102,1575032.5,1518248188.0,808361904.0,,,,,,399801.5,1518248188.0,820489126.0,,1.73300003484,0.452999997511,-0.11599997729,0.038999998942,-0.00750000029802,0.0584999993444,-1.0
35,215.35939359,21550.5,1518248188.0,899641094.5,,2257178.5,1518248188.0,899641094.5,,0.713430749318,-0.26526566437,0.0663335263964,-0.0537789777728,0.998032056874,0.00328678149961,-0.0320740534943,-0.00628461549466,-0.011281327617,0.00195555826872,-0.0109979512022,0.0169546606985,0.00031494620245,1.47605895996,0.1211027354,5.47124505043,0.482402414084,0.747057139873,0.340736716986,1575038.5,1518248188.0,898864191.0,,,,,,399810.0,1518248188.0,905708561.5,,-0.0820000223815,1.87800003924,0.678999995626,0.0255000004545,0.00950000039304,0.0360000003129,-1.0
36,215.461957692,21559.5,1518248188.0,989641010.0,,2257187.5,1518248188.0,989641010.0,,0.713267509118,-0.265429538095,0.0667315211215,-0.0537955656483,0.998031393824,0.00326175622484,-0.0320683872012,-0.00404520211085,-0.0002879868112,0.00178633806053,0.00300212798946,0.0106664371784,0.0131627514331,1.47065490484,0.0552512854339,5.53718829155,0.552938237786,0.723101079464,0.35959649086,1575045.0,1518248188.0,989844626.5,,,,,,399819.5,1518248188.5,501811768.5,,1.29300000742,2.70799996294,0.734000001847,0.0265000006184,0.00550000020303,0.038999998942,-1.0
37,215.564521795,21572.5,1518248189.0,119637471.0,,2257200.5,1518248189.0,119637471.0,,0.713786461843,-0.266301421347,0.0667367762005,-0.0526042111955,0.998102922359,0.0033819122615,-0.03180674143,0.00074348454194,-0.0169996486978,0.00388298435762,-0.00790419759608,0.00359076709415,-0.0217505113361,1.47481822967,0.0603664815425,5.54767727852,0.509141296149,0.629815757275,0.350376099348,2257545.0,1518248189.0,112729052.0,,,,,,399832.0,1518248189.0,126619673.0,,0.277999999374,1.52300000526,0.653999998048,0.0190000003204,0.0130000002682,0.0279999999329,-1.0
38,215.667085897,21580.5,1518248189.0,199648715.0,,2257208.5,1518248189.0,199648715.0,,0.715143965629,-0.266622488624,0.0672970711873,-0.0523611286937,0.998156338466,0.00364700247815,-0.0304779963383,0.0153576089951,0.00716532770677,0.0083258750442,0.00643808581837,-0.0314232804934,-0.00280998725561,2.16302454472,0.241764426232,5.63345503807,0.422121733427,0.977944374084,0.33978907764,1575059.5,1518248189.0,200363758.5,,,,,,399840.0,1518248189.0,206267292.0,,1.08799999431,0.658000003174,0.618999999762,0.0289999991655,0.0250000003725,-0.00800000037998,-1.0
39,215.76965,21591.5,1518248189.0,309637349.5,,2257219.5,1518248189.0,309637349.5,,0.717553139771,-0.267396083187,0.0689226733696,-0.0511284762699,0.998287831008,0.00363115967471,-0.0281776489429,0.00887935721977,-0.0170209488923,0.0219766461368,0.00326443048559,-0.0039601974701,-0.0387351620241,-2.10608583689,0.150656268001,7.38818526268,0.441536337137,-0.655777603388,0.331826895475,2257564.5,1518248189.0,307694339.0,,,,,,399851.5,1518248189.0,320904535.0,,0.722999999672,2.23799999393,0.554000002146,0.0359999984503,0.00500000000465,0.0240000002087,-1.0
