,Unnamed: 0,.header.seq,.header.stamp.secs,.header.stamp.nsecs,.header.frame_id,.endpoint_state.header.seq,.endpoint_state.header.stamp.secs,.endpoint_state.header.stamp.nsecs,.endpoint_state.header.frame_id,.endpoint_state.pose.position.x,.endpoint_state.pose.position.y,.endpoint_state.pose.position.z,.endpoint_state.pose.orientation.x,.endpoint_state.pose.orientation.y,.endpoint_state.pose.orientation.z,.endpoint_state.pose.orientation.w,.endpoint_state.twist.linear.x,.endpoint_state.twist.linear.y,.endpoint_state.twist.linear.z,.endpoint_state.twist.angular.x,.endpoint_state.twist.angular.y,.endpoint_state.twist.angular.z,.endpoint_state.wrench.force.x,.endpoint_state.wrench.force.y,.endpoint_state.wrench.force.z,.endpoint_state.wrench.torque.x,.endpoint_state.wrench.torque.y,.endpoint_state.wrench.torque.z,.joint_state.header.seq,.joint_state.header.stamp.secs,.joint_state.header.stamp.nsecs,.joint_state.header.frame_id,.joint_state.name,.joint_state.position,.joint_state.velocity,.joint_state.effort,.wrench_stamped.header.seq,.wrench_stamped.header.stamp.secs,.wrench_stamped.header.stamp.nsecs,.wrench_stamped.header.frame_id,.wrench_stamped.wrench.force.x,.wrench_stamped.wrench.force.y,.wrench_stamped.wrench.force.z,.wrench_stamped.wrench.torque.x,.wrench_stamped.wrench.torque.y,.wrench_stamped.wrench.torque.z,.tag
0,247.792525,24795.5,1518248221.0,349247965.5,,2260423.5,1518248221.0,349247965.5,,0.76290717988,-0.292426430412,0.127250293934,-0.0259984780541,0.999501874779,0.00360936015621,0.0175183776772,-0.0119738999997,0.000943045779795,-0.00434654585197,0.000296188984715,0.022594104835,0.00540190170631,3.8594353199,0.0109349787236,4.51298689842,0.348776087165,1.62422555685,0.363809764385,2260768.5,1518248221.0,347340860.0,,,,,,403051.5,1518248221.0,353277468.0,,1.66299999356,1.75100005436,0.598000000045,0.0294999992475,0.00849999999627,0.00499999988824,0.0
1,247.895089103,24803.5,1518248221.0,429254474.0,,2260431.5,1518248221.0,429254474.0,,0.762824527547,-0.292819014425,0.127295184342,-0.0255777687469,0.99951462124,0.00367003366921,0.0174006514795,-0.00225711295073,-0.00768037074966,-0.00159472244554,-0.000754720687335,0.00670076361226,-0.00421303462091,3.56247580051,0.0759863704441,4.51986694336,0.325977787375,1.49979662895,0.352514192462,893841.0,1518248221.0,431000064.0,,,,,,403060.5,1518248221.0,444512994.0,,1.62799999342,0.290999986417,-0.387000006809,0.0435000006109,-0.00450000021374,0.036000000313,0.0
2,247.997653205,24815.5,1518248221.0,549248518.0,,2260443.5,1518248221.0,549248518.0,,0.762444620077,-0.292919034561,0.127074993335,-0.0252464272162,0.99952982645,0.00363091558207,0.0170071566664,0.00534272968212,0.0006304607619,0.00330457063224,0.00478711789195,-0.0190564964299,-0.00687853618553,4.07882416248,0.0479229390621,4.70205426216,0.340779781341,1.69336402417,0.355887413025,2260788.5,1518248221.0,547323269.0,,,,,,403071.5,1518248221.0,553911957.0,,1.63299999237,0.866000034103,0.402999999747,0.0125000001862,0.0115000000223,0.0080000004382,0.0
3,248.100217308,24823.5,1518248221.0,629251660.0,,2260451.5,1518248221.0,629251660.0,,0.762308089386,-0.292551929933,0.126556297022,-0.0255636898297,0.999527017604,0.00386818495796,0.0166443534104,0.0161513943382,-0.00999494817561,0.00700916962011,-0.00290278967775,-0.0374081687247,-0.00884197414944,3.63463664055,0.0299294441939,4.66308450699,0.338853403926,1.57829624415,0.358713537455,1577322.0,1518248221.0,623667995.0,,,,,,403079.5,1518248221.0,633889541.0,,1.29799999334,-0.939000002853,0.578000004217,0.019499999471,0.0159999998287,0.0314999995753,0.0
4,248.20278141,24835.5,1518248221.0,749275513.5,,2260463.5,1518248221.0,749275513.5,,0.762687777396,-0.293102663318,0.127026917478,-0.0251521372516,0.999528712775,0.00380789824089,0.0171804226074,-0.00947752964098,0.0110632804237,-0.00023801407613,0.0117407205808,0.0181211697097,0.0112204920032,3.84676921368,-0.0203714221716,4.67988562584,0.345253407955,1.62938427925,0.359506830573,1577331.0,1518248221.0,749650954.5,,,,,,403091.5,1518248221.0,753555941.0,,1.82299998999,-0.818999983184,-0.161999997869,0.0444999989122,-0.00450000003911,0.0545000005514,0.0
5,248.305345513,24843.5,1518248221.0,829253482.0,,2260471.5,1518248221.0,829253482.0,,0.762536505735,-0.293113132834,0.127120101091,-0.0255966033907,0.999518415257,0.00346199716928,0.0171877900144,-0.00088687688192,-0.00763418957234,-0.000999069439713,-0.00220261234709,-0.000870366621085,-0.0150848923067,3.3975713253,0.0888635218145,4.75959658623,0.306758224965,1.48044013977,0.356396079064,1577336.0,1518248221.0,824655470.5,,,,,,403099.5,1518248221.0,833967908.0,,2.78799996376,-1.41399999689,0.0679999988526,0.0425000004471,0.00200000003679,0.0190000003204,3.0
6,248.407909615,24856.5,1518248221.0,959249532.5,,2260484.5,1518248221.0,959249532.5,,0.762514236376,-0.292389307516,0.127045680959,-0.0258017444504,0.999514194653,0.00393408504786,0.0170317735026,0.00597602975046,-0.00716271611438,0.00233635833647,-0.00594678384656,-0.017265916218,-0.0220630143,2.16132438183,0.241867437959,5.20421051979,0.187203548849,0.993450313809,0.325581803918,2260830.0,1518248221.0,962322099.0,,,,,,403113.5,1518248221.0,974142009.0,,2.36299998164,0.261000015028,1.02299998962,0.0200000004843,0.0184999997728,0.0279999999329,3.0
7,248.510473718,24864.5,1518248222.0,39252165.5,,2260492.5,1518248222.0,39252165.5,,0.763041335703,-0.292378644811,0.126657756812,-0.0260742150481,0.999493138867,0.00363145296282,0.0178865200289,0.0019398641303,-0.00323488731286,-0.00873024710614,-0.00616753098041,-0.0076903608454,-0.00744799767861,1.19954025745,1.02788257599,4.75867199898,-0.193111538887,0.665107727051,0.277884736657,2260836.5,1518248222.0,27327320.0,,,,,,403120.5,1518248222.0,44155571.0,,2.21300000548,-0.528999993391,0.663000005112,0.00749999983235,0.0165000003762,0.01600000076,3.0
8,248.613037821,24875.5,1518248222.0,149257475.5,,2260503.5,1518248222.0,149257475.5,,0.762260827421,-0.291260140254,0.124670398271,-0.0271988594473,0.999466633139,0.00358810365478,0.0177137122079,0.0018047634622,-0.0193201976441,-0.0246170123973,-0.0302422480564,-0.0251677378513,-0.00556410095595,2.00159099698,1.0841961503,5.12426137925,-0.23643412441,1.01454672217,0.302204713226,2260848.5,1518248222.0,147324226.0,,,,,,403131.5,1518248222.0,155556808.5,,1.78799997867,-0.409000001659,1.11299999319,0.0229999995791,0.0185000002384,0.0449999999255,3.0
9,248.715601923,24884.5,1518248222.0,239251779.0,,2260512.5,1518248222.0,239251779.0,,0.76037682129,-0.289361836358,0.121776077495,-0.0281781325124,0.999461899893,0.00400589751538,0.0163030775614,-0.03632310292,0.0202632781754,-0.0388743537131,0.00222009779792,0.0693543597286,0.0287067055582,2.29935264587,1.299415946,4.91287136078,-0.367478013039,1.15707451105,0.269723266363,2260856.5,1518248222.0,227321448.5,,,,,,403140.5,1518248222.0,244314952.5,,0.657999968529,1.90100009013,1.20299999677,-0.00300000049175,0.00600000005215,0.00799999991432,3.0
10,248.818166026,24896.5,1518248222.0,359246977.0,,2260524.5,1518248222.0,359246977.0,,0.753514261058,-0.286476167127,0.116595936877,-0.031621200143,0.999451805275,0.00343437858632,0.00916618507548,-0.0731678985894,0.0367334907546,-0.0506923636606,-0.000225308345934,0.163129737271,0.0704972336618,1.46141812205,1.09062707424,4.34401583672,-0.272109873593,0.672045230865,0.297221332788,1577373.5,1518248222.0,359175387.0,,,,,,403152.5,1518248222.0,364108695.5,,-0.0870000362395,0.250999994763,0.707999991998,0.019999999553,0.0,0.0500000007451,3.0
11,248.920730128,24907.5,1518248222.0,469249491.5,,2260535.5,1518248222.0,469249491.5,,0.749332602092,-0.283460662605,0.110607028468,-0.0347154951812,0.999379144232,0.00305007222665,0.00517716984052,-0.041969612023,0.0180941413615,-0.058986725086,-0.0302042626638,0.0993038688777,0.062422106508,1.17139402032,0.780286192894,4.61861348152,-0.0261040180922,0.551394924521,0.34071354568,893882.0,1518248222.0,465999872.0,,,,,,403163.5,1518248222.0,475398209.5,,2.24799997955,0.281000003405,1.19300000631,0.0264999996871,-0.00150000001304,0.058999998495,3.0
12,249.023294231,24918.5,1518248222.0,579250996.0,,2260546.5,1518248222.0,579250996.0,,0.745078974514,-0.279748556293,0.103645392181,-0.0383730168251,0.999259424783,0.00256424484383,0.00117013980227,-0.0376989769379,0.0309228944128,-0.0579766863537,0.000115976797835,0.07107953918,0.0529185501574,0.833183921874,0.869600266218,4.81815242767,-0.0805429592728,0.45237582922,0.281787440181,893886.0,1518248222.0,567000064.0,,,,,,403174.5,1518248222.0,584692052.0,,1.91299999357,-0.174000002258,0.192999998853,0.0415000002831,-0.0159999998286,0.0174999996089,3.0
13,249.125858333,24928.5,1518248222.0,679249110.0,,2260556.5,1518248222.0,679249110.0,,0.741421966355,-0.275946373218,0.0989014969996,-0.0412950795185,0.999139178964,0.00320771612755,-0.00228985513933,-0.0406665343897,0.0212037027495,-0.0514961584321,0.00742443196563,0.0841628116332,0.0307731087147,1.44244676828,0.716956079006,4.76132702827,0.0623361468317,0.66553145647,0.319209113717,893890.0,1518248222.0,668999936.0,,,,,,403184.5,1518248222.0,685707152.0,,2.01299997829,0.04100001622,-0.412000012771,0.0455000009388,-0.00549999985378,0.043500000611,3.0
14,249.228422436,24936.5,1518248222.0,759251322.0,,2260564.5,1518248222.0,759251322.0,,0.737857827375,-0.273923484841,0.0941247912102,-0.0430831642543,0.999045692652,0.00347709971162,-0.00627506310784,-0.0353485528973,0.0382751066294,-0.0516522954433,0.00694113259804,0.0864185851351,0.0571415567546,2.25179994106,0.529048100114,4.84307718277,0.113196574152,0.920301258563,0.315370514989,2260909.5,1518248222.0,757333695.5,,,,,,403193.0,1518248222.0,768085616.0,,1.79299998879,-0.673999987356,0.532999994978,0.0399999991059,-0.01600000076,0.0500000007451,3.0
15,249.330986538,24948.5,1518248222.0,879252674.0,,2260576.5,1518248222.0,879252674.0,,0.732302023153,-0.27113290196,0.0879083865804,-0.0449400549706,0.998904041919,0.00428800651119,-0.0123471199371,-0.0775130302745,0.0129169642916,-0.0632445882659,-0.00636536936784,0.161574971927,0.042247982641,1.60789346694,1.03165173531,5.0516717434,-0.177921876312,0.831601560115,0.298939228058,893898.0,1518248222.0,872000000.0,,,,,,403204.5,1518248222.0,885496249.0,,0.502999997139,-0.95400000345,0.417999998481,0.0525000002236,-0.0384999997913,0.0429999995977,3.0
16,249.433550641,24957.5,1518248222.0,969246183.5,,2260585.5,1518248222.0,969246183.5,,0.728557583349,-0.270334885654,0.083464415196,-0.0477508001709,0.998721481858,0.00272777769394,-0.0163604406381,-0.0354550823954,0.011056268796,-0.0516520617148,-0.0497026935916,0.0701191593477,0.0798429112016,3.18840098381,0.845193564892,4.68326449394,0.0056661851704,1.22152116895,0.320833295584,1577416.0,1518248222.0,967653233.0,,,,,,403213.5,1518248222.0,974005596.0,,1.50799999144,-1.02900000643,0.768000009283,0.0369999995455,0.00300000002607,0.0420000012964,3.0
17,249.536114744,24968.5,1518248223.0,79245585.0,,2260596.5,1518248223.0,79245585.0,,0.727663563919,-0.270206048609,0.0783307295108,-0.0505261490886,0.998581097466,0.00085557501828,-0.0167971029154,-0.00679712053157,0.00289651876477,-0.0517027343122,-0.008114119797,-0.0082680235095,0.0292943557521,3.12224495411,0.969740211966,5.85452437401,-0.11745608598,1.57029277086,0.288202732801,893906.0,1518248223.0,72999936.0,,,,,,403224.5,1518248223.0,86876519.5,,2.28799999357,-1.05899999272,1.14299999439,0.0309999994934,0.0244999993593,0.0734999999404,3.0
18,249.638678846,24980.5,1518248223.0,199251613.0,,2260608.5,1518248223.0,199251613.0,,0.72505242025,-0.268846502525,0.0750059635884,-0.0505540613665,0.998535484164,0.000785692232316,-0.0192487122181,-0.0466901335368,0.00330737816388,-0.0379560398215,-0.00524091325416,0.095287178063,0.0219690824846,1.74143445492,0.65005210042,4.92575168609,0.0368331484497,0.705122232438,0.266383558512,2260953.5,1518248223.0,197314957.5,,,,,,403236.5,1518248223.0,206423021.5,,2.85800001621,-1.68400000762,0.883000003917,0.0165000003762,-0.00150000001304,0.0655000004918,3.0
19,249.741242949,24988.5,1518248223.0,279247195.0,,2260616.5,1518248223.0,279247195.0,,0.7234593269,-0.26809962431,0.0721618202052,-0.0513885403996,0.998468676592,0.00119265428473,-0.0204446751098,-0.0258878649677,0.015091565024,-0.0342863168786,0.0110770972958,0.04335193972,0.023885622968,1.85615444183,1.2113224864,4.55453968048,-0.281843721866,0.769528537989,0.233597911894,893914.0,1518248223.0,276000000.0,,,,,,403244.5,1518248223.0,286886245.5,,0.548000013828,-0.638999998384,0.552999998256,0.0209999997169,0.00699999975041,0.0710000023246,3.0
20,249.843807051,25000.5,1518248223.0,399246735.5,,2260628.5,1518248223.0,399246735.5,,0.711765870576,-0.268739845298,0.0681785649516,-0.0524128940624,0.998063455839,0.000251168270763,-0.0334957766914,-0.141387537693,-0.0158317571618,-0.0525184192142,-0.0265705825487,0.289832740528,-0.00452061187731,10.992521286,1.0054320693,1.813346982,0.0118879601359,2.77767646313,0.280113592744,1577446.0,1518248223.0,398151670.0,,,,,,403256.5,1518248223.0,407080169.0,,1.22799999118,-2.10899995994,0.30300000012,-0.023000000976,0.0629999991506,0.066499998793,-1.0
21,249.946371154,25010.5,1518248223.0,499244721.0,,2260638.5,1518248223.0,499244721.0,,0.709173001643,-0.270229975418,0.0645533130265,-0.0535860628994,0.99791855911,-0.00149175491713,-0.0358435162461,0.00346664935385,-0.0158802855825,-0.0387682334671,-0.0580683925608,-0.0314189561801,0.0557333599639,5.08876299858,1.89953827858,4.15443181992,-0.468532979488,1.73412412405,0.278206557035,1577452.5,1518248223.0,493650919.0,,,,,,403266.5,1518248223.0,505586111.0,,2.13800000251,-0.934000007622,0.208000003174,0.0214999997988,0.0314999995753,0.0740000009537,-1.0
22,250.048935256,25017.5,1518248223.0,569250321.5,,2260645.5,1518248223.0,569250321.5,,0.711032896061,-0.270647798581,0.0623500621006,-0.0534637011301,0.998011257297,-0.00186414462291,-0.0333406219632,0.0319385922358,0.000447379453,-0.0329317831319,0.0116481899941,-0.0902579261477,-0.00587922020519,4.19182682037,1.79482102394,4.70981097221,-0.282418966293,1.46674668788,0.233769193292,2260990.0,1518248223.0,562310777.0,,,,,,403273.5,1518248223.0,575543318.0,,1.50799999237,-2.39899998139,-0.0170000020415,0.0529999993741,-0.0304999994114,0.0530000012368,-1.0
23,250.151499359,25031.5,1518248223.0,709247147.5,,2260659.5,1518248223.0,709247147.5,,0.714602090214,-0.268873939237,0.0623311986706,-0.0542135646988,0.998108739965,-0.00125147839669,-0.0289506564361,0.00760412930871,0.0256197152246,-0.00759588957196,0.0131210458951,-0.0265791475838,0.0328134715344,2.54249930382,1.18898487091,5.2432281971,-0.175044380129,1.31996923685,0.251178614796,1577468.0,1518248223.0,710170251.5,,,,,,403287.5,1518248223.0,715433747.0,,0.358000016212,-2.26399999093,0.328000000492,0.042500000447,-0.0370000004768,0.0639999993145,-1.0
24,250.254063462,25040.5,1518248223.0,799253780.0,,2260668.5,1518248223.0,799253780.0,,0.712465267548,-0.267530143384,0.0626201945547,-0.0549157326071,0.997992229195,-0.00100375594489,-0.0315377359088,-0.011337364327,0.00725922814884,0.00699319991449,-0.000987034284445,0.0243785139264,0.0152365397945,4.07470631599,0.57012283802,4.06011295318,0.170824058354,1.49427491426,0.283826246858,1577474.0,1518248223.0,800683916.0,,,,,,403296.5,1518248223.0,805789694.0,,-0.281999969483,-1.44399996828,0.212999999337,0.0294999992475,0.00350000010803,0.0445000007749,-1.0
25,250.356627564,25049.5,1518248223.0,889245947.5,,2260677.5,1518248223.0,889245947.5,,0.713088753956,-0.267371146224,0.0623189208447,-0.0551477201649,0.997997535601,-0.00127914422176,-0.0309476767911,0.0205790625905,0.00891801185233,0.0080299672058,0.00675856654617,-0.0405588483479,-0.00684794551242,3.53589522838,1.24555695057,4.98182368278,-0.19439675659,1.52065724135,0.240274332463,1577480.5,1518248223.0,888670149.0,,,,,,403305.5,1518248223.0,896311419.0,,1.52299999297,-1.36400001477,0.258000001125,0.0305000012741,0.0100000002421,0.0494999997318,-1.0
26,250.459191667,25062.5,1518248224.0,19250399.0,,2260690.5,1518248224.0,19250399.0,,0.712906783383,-0.266750141156,0.0624330346238,-0.0553798695804,0.997978300394,-0.00102801411031,-0.0311627435276,-0.0100746110494,-0.00392121362831,-0.00469011985173,0.00672751826212,0.0195952725709,-0.0257895517519,3.294298172,0.828542619943,4.75555872917,0.100128300488,1.23802334071,0.280403465032,2261035.0,1518248224.0,12313431.0,,,,,,403318.5,1518248224.0,25829337.5,,0.493000006676,0.0209999915215,0.858000012858,0.0270000007004,0.00700000021606,0.0405000001192,-1.0
27,250.561755769,25071.5,1518248224.0,109244278.5,,2260699.5,1518248224.0,109244278.5,,0.713162446106,-0.266768869938,0.0627734690584,-0.0552707772166,0.997992802733,-0.00089482597206,-0.0308857381589,0.0135044581182,-0.00447498670592,0.000369143547585,-0.00467161083871,-0.0289950229715,-0.00515320033598,2.00083231926,0.988833367823,4.72208118438,-0.0038771405816,0.882187336684,0.255709394812,2261044.5,1518248224.0,107318407.0,,,,,,403327.5,1518248224.0,116617777.0,,0.0129999876025,-0.593999989146,0.827999981865,0.0120000001043,0.0260000005365,0.0235000010579,-1.0
28,250.664319872,25079.5,1518248224.0,189250344.5,,2260707.5,1518248224.0,189250344.5,,0.713364554464,-0.266917525642,0.0625824193351,-0.0552303407808,0.998004291446,-0.000942268488788,-0.0305933454935,-0.00634247503764,-0.0037727681832,-5.6062802505e-05,0.0026114079999,0.0178831306662,-0.00666280968492,1.76095074416,0.84751611948,4.7796382904,0.0532070584595,0.856603771448,0.260163336992,1577501.5,1518248224.0,189670294.0,,,,,,403335.5,1518248224.0,196878647.0,,0.687999999523,-1.05400001239,0.827999996766,0.0109999999404,0.00299999996787,0.0435000006109,-1.0
29,250.766883974,25091.5,1518248224.0,309254746.5,,2260719.5,1518248224.0,309254746.5,,0.713384986659,-0.267070229211,0.0625960807395,-0.0549085284422,0.998019153474,-0.0011197355938,-0.0306832499535,-0.00230903958284,-0.0075184422786,-0.00204212996598,0.000262251547,0.00414498868693,-0.0399882013626,3.13592517376,0.86352300644,4.92312598228,0.0650638639927,1.34231621027,0.253860965371,1577509.5,1518248224.0,308686662.5,,,,,,403347.5,1518248224.0,316538540.0,,-0.597000026701,-0.314000002856,1.082999992,0.0269999997691,0.0209999997169,0.0215000007302,-1.0
30,250.869448077,25101.5,1518248224.0,409262765.5,,2260729.5,1518248224.0,409262765.5,,0.714164482352,-0.266465316751,0.0630603275664,-0.0544540486626,0.998064229641,-0.000825584842398,-0.0300288637369,0.0134608543744,0.00445124290816,0.00171237854107,0.00085246605209,-0.0250539261693,0.00651268967805,3.28975868225,0.638436496257,5.18623518944,0.192079275847,1.48773664236,0.279816463589,1577516.5,1518248224.0,409659944.5,,,,,,403357.5,1518248224.0,415495406.0,,0.953000011294,-0.72900002431,1.06299998127,0.0235000001267,0.0279999999329,0.0320000005886,-1.0
31,250.972012179,25113.5,1518248224.0,529247792.5,,2260741.5,1518248224.0,529247792.5,,0.715750601665,-0.266848405343,0.0642322094085,-0.0541372327334,0.99812078818,-0.00103242725716,-0.0286864291456,0.00758205457941,-0.0182771012451,0.00748988303608,-0.0172915890383,-0.0157643077786,-0.00563458373639,2.06353807449,0.914086282253,4.93487691879,0.104285854846,1.00943601132,0.288105472922,893963.0,1518248224.0,518000128.0,,,,,,403369.5,1518248224.0,536435380.5,,0.922999984025,-0.313999995403,1.00800000392,0.0240000002087,0.0299999993295,0.0245000012219,-1.0
32,251.074576282,25119.5,1518248224.0,589247004.0,,2260747.5,1518248224.0,589247004.0,,0.716080802052,-0.266142073566,0.0648477276038,-0.0539908808434,0.998124078645,-0.00065807092979,-0.0288581315016,-0.0075059150095,0.00681732417342,0.0160477872736,0.013356583192,0.0335187946283,0.00839375211046,0.838555216787,0.773961246013,4.79921340943,0.0946940258143,0.513390719891,0.266684085131,1577529.0,1518248224.0,580664082.5,,,,,,403375.5,1518248224.0,598290442.5,,1.03299997225,-0.0290000027045,0.953000026567,0.0295000001788,0.00900000031104,0.0350000010804,-1.0
33,251.177140385,25133.5,1518248224.0,729252135.0,,2260761.5,1518248224.0,729252135.0,,0.716496437437,-0.266455199288,0.0654543454765,-0.0540874243051,0.998131530849,-0.00084961955705,-0.0284109237324,-0.0154422276388,0.0032331601133,-0.00652011756163,-0.00232044568913,0.0408505606158,0.00413463900148,1.35436511039,0.802289813757,4.80171632766,0.147818639875,0.720442146062,0.260909423232,893971.0,1518248224.0,720999936.0,,,,,,403389.5,1518248224.0,736428268.5,,0.857999971508,-0.273999981398,1.59799994789,-0.0115000009537,0.0520000010728,0.0294999994803,-1.0
34,251.279704487,25140.5,1518248224.0,799250389.0,,2260768.5,1518248224.0,799250389.0,,0.715714281348,-0.26646739205,0.0649884261234,-0.0543557945119,0.998087065552,-0.000905594964245,-0.0294405683622,0.00616596197562,-0.00090736432595,0.00390368617505,-0.00239446421095,-0.0123761656123,0.00206461070232,3.15425801277,0.661076873541,5.05833816528,0.233779624104,1.31215894222,0.286193624139,1577544.0,1518248224.0,799659640.0,,,,,,403396.5,1518248224.0,806431442.0,,0.017999982834,0.226000018604,1.18300001584,0.0260000005364,0.0129999998026,0.0114999995567,-1.0
35,251.38226859,25153.5,1518248224.0,929253283.5,,2260781.5,1518248224.0,929253283.5,,0.716713662865,-0.267091894571,0.0654634593606,-0.0533030731065,0.998173020582,-0.000753097306547,-0.0284384151166,0.0193335118912,0.00337972133486,0.00966732682138,-0.011286450794,-0.0395506550437,0.00994571416722,2.6891078949,0.614430487156,5.20621323586,0.227158911526,1.23154419661,0.308607846499,893979.0,1518248224.0,923000064.0,,,,,,403409.5,1518248224.0,938099492.0,,1.42299999148,0.261000015028,1.11799998842,0.0180000001564,0.0130000002682,0.0119999998715,-1.0
36,251.484832692,25162.5,1518248225.0,19253099.5,,2260790.5,1518248225.0,19253099.5,,0.717234721419,-0.266993501973,0.0658459132082,-0.0535733231081,0.998174220806,-0.000851718939584,-0.0278806290136,0.0103936909923,-0.0136936747841,0.00488034215364,-0.0165412356448,-0.0173463186432,-0.0111634502257,1.62326234579,0.683888018131,4.68930077553,0.211460702121,0.821680754423,0.311389863491,1577559.0,1518248225.0,18167925.0,,,,,,403418.5,1518248225.0,28530206.0,,1.64299999028,1.03100002576,1.23299999796,0.0100000002421,0.0175000000745,0.019999999553,-1.0
37,251.587396795,25173.5,1518248225.0,129249751.5,,2260801.5,1518248225.0,129249751.5,,0.716222431214,-0.266757636771,0.0655560485138,-0.0533028711364,0.998153390859,-0.00061519786691,-0.0291148592145,-0.00972815079654,0.0102505810452,-0.0058392969985,0.00998492679659,0.022263192141,0.00047746986128,2.07614099979,0.503696188331,5.09581875801,0.356184914708,0.937955528497,0.336092531681,893987.0,1518248225.0,126000128.0,,,,,,403429.5,1518248225.0,137665771.5,,-0.796999955177,0.14599999059,0.402999997884,0.0164999999106,0.0305000012741,0.0124999997206,-1.0
38,251.689960897,25185.5,1518248225.0,249250217.0,,2260813.5,1518248225.0,249250217.0,,0.717214141506,-0.266465740701,0.0657149992568,-0.0534299669188,0.998177243307,-0.000356046841289,-0.0280573877964,0.00997632712503,-0.00900023721656,0.00198003018642,-0.00339826666898,-0.0211720745405,-0.0142449255029,1.87721186876,0.456249654293,5.33241796494,0.367580205202,0.871499210596,0.314918726682,2261158.5,1518248225.0,247340529.0,,,,,,403441.5,1518248225.0,257278573.0,,0.502999997139,-1.0240000112,0.413000003249,0.0230000000448,0.0280000008643,0.0294999992475,-1.0
39,251.792525,25193.5,1518248225.0,329250761.0,,2260821.5,1518248225.0,329250761.0,,0.71778143989,-0.266140423854,0.0662069172335,-0.0536160956634,0.998177999149,-0.00015836100224,-0.0276742287418,0.0126684426169,0.00445050606323,0.00287574870446,0.00991997831808,-0.0190886438216,-0.00671365343279,1.95885801316,0.440068647265,5.11525917053,0.392942279578,0.911245495081,0.326312765479,893995.0,1518248225.0,328000000.0,,,,,,403449.5,1518248225.0,337731374.0,,0.852999991181,-0.153999997117,-0.196999994292,0.0169999995269,0.0289999991655,0.0180000001565,-1.0
