,Unnamed: 0,.header.seq,.header.stamp.secs,.header.stamp.nsecs,.header.frame_id,.endpoint_state.header.seq,.endpoint_state.header.stamp.secs,.endpoint_state.header.stamp.nsecs,.endpoint_state.header.frame_id,.endpoint_state.pose.position.x,.endpoint_state.pose.position.y,.endpoint_state.pose.position.z,.endpoint_state.pose.orientation.x,.endpoint_state.pose.orientation.y,.endpoint_state.pose.orientation.z,.endpoint_state.pose.orientation.w,.endpoint_state.twist.linear.x,.endpoint_state.twist.linear.y,.endpoint_state.twist.linear.z,.endpoint_state.twist.angular.x,.endpoint_state.twist.angular.y,.endpoint_state.twist.angular.z,.endpoint_state.wrench.force.x,.endpoint_state.wrench.force.y,.endpoint_state.wrench.force.z,.endpoint_state.wrench.torque.x,.endpoint_state.wrench.torque.y,.endpoint_state.wrench.torque.z,.joint_state.header.seq,.joint_state.header.stamp.secs,.joint_state.header.stamp.nsecs,.joint_state.header.frame_id,.joint_state.name,.joint_state.position,.joint_state.velocity,.joint_state.effort,.wrench_stamped.header.seq,.wrench_stamped.header.stamp.secs,.wrench_stamped.header.stamp.nsecs,.wrench_stamped.header.frame_id,.wrench_stamped.wrench.force.x,.wrench_stamped.wrench.force.y,.wrench_stamped.wrench.force.z,.wrench_stamped.wrench.torque.x,.wrench_stamped.wrench.torque.y,.wrench_stamped.wrench.torque.z,.tag
0,289.94198,29010.5,1518248263.0,499896577.0,,2264638.5,1518248263.0,499896577.0,,0.761354987538,-0.29192216943,0.126907055524,-0.0272972837084,0.999498898686,0.00400073720022,0.0155160112116,0.0148531609001,0.0010359501558,0.00900566267219,0.0122485915032,-0.0398822778484,-0.0145438687183,4.26641178131,-0.150823347271,4.90333795548,0.407963812351,1.81414997578,0.392063125968,1580244.0,1518248263.0,488992498.5,,,,,,407262.5,1518248263.0,506940309.0,,0.330000010133,-1.35200000927,0.320999985933,0.0204999996349,-0.0170000009239,0.0480000004172,0.0
1,290.044544103,29019.5,1518248263.0,589905220.5,,2264647.5,1518248263.0,589905220.5,,0.761707882089,-0.291717903149,0.126876441516,-0.0275198984186,0.999485901385,0.00415748208064,0.0159127890058,0.0162481659335,0.00676952180057,0.00562933372458,0.00874372552878,-0.0489665643597,-0.0010897001239,4.24944448471,-0.25184944272,4.53251624107,0.489093720913,1.66023367643,0.412508130074,895508.0,1518248263.0,576000000.0,,,,,,407271.5,1518248263.0,596721794.0,,1.24500003159,-1.26200000941,0.456000006199,0.0200000004842,-0.0154999997466,0.0539999995381,0.0
2,290.147108205,29027.5,1518248263.0,669890817.0,,2264655.5,1518248263.0,669890817.0,,0.762872703552,-0.291807889218,0.127229975238,-0.0271333387611,0.999473170021,0.00403707939242,0.0173449072189,0.00908562053695,-0.0012736845869,0.00853576874714,0.00383061329115,-0.0209150583932,-0.00647028674514,2.7745127678,-0.0573915690184,4.42669820785,0.385577782988,1.30082076788,0.392938107252,1580256.0,1518248263.0,669978929.0,,,,,,407279.5,1518248263.0,676379665.0,,-1.36000001728,0.0029999613765,0.201000010968,0.019999999553,-0.0115000000223,0.0334999999031,0.0
3,290.249672308,29040.5,1518248263.0,799893766.5,,2264668.5,1518248263.0,799893766.5,,0.762040464239,-0.291596823302,0.127129217271,-0.0273109841265,0.999481785046,0.0042217288112,0.016504678898,-0.0227859975267,-0.00274263236049,-0.0150284352739,-0.0107049871678,0.0511068911059,0.00562766684537,4.61185097695,-0.0362997800114,4.62465286255,0.341147407889,1.88402223587,0.36245778203,1580265.0,1518248263.0,790497377.0,,,,,,407292.5,1518248263.0,806958527.5,,0.294999983907,-1.06700002682,1.46100000143,-0.00750000006519,0.00450000003911,0.0405000001192,0.0
4,290.35223641,29049.5,1518248263.0,889900782.5,,2264677.5,1518248263.0,889900782.5,,0.762544000937,-0.291587831141,0.126922132415,-0.0273507107248,0.999473133056,0.00409159233679,0.0169871311286,-0.00466257671641,0.006679986677,-0.00662369190325,0.00646157679249,0.00547542172877,0.0182864938511,3.68014740944,-0.15868255496,4.87585759163,0.463801428676,1.61372101307,0.419163361191,895520.0,1518248263.0,879000064.0,,,,,,407301.5,1518248263.0,895445653.5,,-1.78000000417,0.0830000042915,0.860999977588,0.00150000007124,0.0124999997206,0.0285000009462,0.0
5,290.454800513,29060.5,1518248263.5,499890828.0,,2264688.5,1518248263.5,499890828.0,,0.762570475733,-0.292200158092,0.126934739189,-0.0267786171666,0.999487247653,0.00428116135643,0.0170203443402,0.00622166363458,-0.0141762671902,0.00694284295077,-0.00525528564839,-0.0138831995107,-0.0180340180769,3.8342962265,-0.0672744810582,4.51041984558,0.303721293807,1.64166003466,0.350804179907,1580279.0,1518248263.5,491991948.0,,,,,,407312.5,1518248264.0,5677067.0,,0.305000019074,0.867999970911,0.951000010967,0.00349999999162,0.00700000021606,0.0144999995828,0.0
6,290.557364615,29068.5,1518248264.0,79892199.5,,2264696.5,1518248264.0,79892199.5,,0.762164304269,-0.292453061737,0.12682472842,-0.0265308522433,0.999503764473,0.00394549432779,0.0165058133119,-0.00508270864827,-0.00359137837647,-0.000330432143,-0.00936959533972,0.0113551516744,0.00560447150715,3.83127462864,-0.0277979299424,4.52765846252,0.30973264575,1.63934957981,0.359486445785,1580284.5,1518248264.0,77472476.5,,,,,,407320.5,1518248264.0,87364342.0,,-0.454999993742,-0.517000049352,1.06100002527,0.0135000003502,0.00299999996787,0.0134999998845,0.0
7,290.659928718,29080.5,1518248264.0,199900269.0,,2264708.5,1518248264.0,199900269.0,,0.762318713514,-0.293176664333,0.126929932195,-0.026152831512,0.999509612081,0.00389358342323,0.0167726136594,6.902102788e-05,-0.00212607066789,0.00316175215614,0.00488438062047,0.0036069930686,-0.00483976534867,4.08652305603,0.248501852154,4.72236251831,0.223630800843,1.7114688158,0.3756775558,1580293.0,1518248264.0,192978624.5,,,,,,407332.5,1518248264.0,206733688.0,,0.704999950529,1.36799997091,0.995999968052,0.00350000010803,-0.0010000000475,0.00400000013178,0.0
8,290.762492821,29091.5,1518248264.0,309891996.0,,2264719.5,1518248264.0,309891996.0,,0.762161997207,-0.293420964654,0.126720122096,-0.0260751650542,0.999516142157,0.00362706980918,0.0165600136972,0.000844390035501,0.00293604811408,0.0019269473133,0.00849956054052,-0.00024922720544,-0.0115754359582,3.71282017231,0.206182450056,4.58953809738,0.216031938791,1.5909678936,0.346094533801,2265064.5,1518248264.0,307966294.0,,,,,,407343.5,1518248264.0,317955431.0,,-0.760000002756,0.098000049591,0.241000002622,0.0140000004321,-0.0210000006482,0.0249999994412,1.5
9,290.865056923,29100.5,1518248264.0,399894952.5,,2264728.5,1518248264.0,399894952.5,,0.76249472152,-0.293399664392,0.127160332982,-0.0263673092399,0.999500775193,0.00352779681218,0.0170440887017,-0.00233524834907,0.00619564989718,0.00303668260441,-0.00325605366561,-0.00250980856532,0.0193887794886,2.99439334869,0.130242303014,5.14489936829,0.204894155264,1.33975732326,0.323065891862,1580307.0,1518248264.0,393978207.5,,,,,,407352.5,1518248264.0,406772571.5,,-0.840000014007,0.727999985218,0.800999975204,0.0105000003241,0.00500000012107,0.0315000005066,3.0
10,290.967621026,29110.5,1518248264.0,494911196.5,,2264738.0,1518248264.0,494911196.5,,0.761968771316,-0.293196805838,0.126582512801,-0.0260632689122,0.999519218808,0.00372864705563,0.0163692721255,0.00239523635573,-0.0145879668319,-0.00976620545371,-0.00908056225692,-0.00642438108924,-0.0246035527083,1.55208677053,0.272905826569,5.04647254944,0.174025464803,0.785633772612,0.387906044722,1580314.0,1518248264.0,494485167.5,,,,,,407362.5,1518248264.0,507260471.5,,-0.260000008344,0.583000004292,0.450999981165,0.0240000004415,0.00299999996787,0.0220000008121,3.0
11,291.070185128,29122.5,1518248264.0,619893049.5,,2264750.5,1518248264.0,619893049.5,,0.76128397899,-0.292490190034,0.12505067101,-0.0269543957764,0.999496873464,0.0036492133752,0.0163083254118,-0.0128763125002,0.00734237552148,-0.024301463786,0.0024722969857,0.00748019828292,0.0101430193993,-0.259684562681,0.703991413117,5.04701280594,-0.0648788288236,0.0746916085485,0.321780771017,1580322.0,1518248264.0,620479760.5,,,,,,407374.5,1518248264.0,626608654.5,,-0.884999997169,0.10799998045,-0.23900000155,0.00899999984541,0.00200000009499,0.0665000006556,3.0
12,291.172749231,29132.5,1518248264.0,719900899.5,,2264760.5,1518248264.0,719900899.5,,0.759982103659,-0.291746859739,0.122553822947,-0.0277086865626,0.999486389001,0.00349775698355,0.0157116890977,-0.0173769216639,0.016022077762,-0.0265874611749,-0.00320842452326,0.0178262839505,0.0218031436085,0.188349187375,1.43753433227,5.34093999863,-0.487624943256,0.349278405309,0.214033797383,1580329.0,1518248264.0,720972219.0,,,,,,407384.5,1518248264.0,727177110.5,,-0.934999994189,-0.0970000028612,0.0710000157358,0.0159999997122,-0.0190000003204,0.0519999992103,3.0
13,291.275313333,29140.5,1518248264.0,799894381.5,,2264768.5,1518248264.0,799894381.5,,0.756644170947,-0.291214904081,0.11989229668,-0.0290168644824,0.999496268896,0.00276175047877,0.0125485007618,-0.0433510257161,0.00175284205579,-0.0429282172808,-0.0406759252382,0.074329163591,0.0329141906119,-0.0668735988439,1.21597260236,4.49877119064,-0.44294835627,0.0440008486621,0.233678266406,1580335.0,1518248264.0,795474876.0,,,,,,407392.5,1518248264.0,807314690.0,,-0.590000006554,0.943000018595,0.38100001812,0.050000000745,0.0239999992773,0.0155000002123,3.0
14,291.377877436,29150.5,1518248264.0,899893405.0,,2264778.5,1518248264.0,899893405.0,,0.751760852989,-0.29040647385,0.115169705147,-0.032040170128,0.99945739785,0.000723659853418,0.0075686945006,-0.0528088491318,0.0124471343008,-0.0571554024243,-0.0265955994683,0.104458380853,0.0584508813014,1.32750245184,0.980815172197,4.66316342354,-0.0933648794892,0.660055443645,0.277061238885,1580342.0,1518248264.0,896478920.5,,,,,,407402.5,1518248264.0,907432773.0,,0.169999983907,3.49299985171,-0.368999996781,0.0204999996349,-0.00700000021605,-0.0245000002906,3.0
15,291.480441538,29164.5,1518248265.0,39890362.0,,2264792.5,1518248265.0,39890362.0,,0.746838337575,-0.28482651039,0.107136339597,-0.0357788945233,0.999353030972,0.00167735732738,0.00322979883082,-0.0448192862047,0.0479810013926,-0.0689263066087,0.00533646860991,0.0844735341225,0.0746760197262,2.60892677307,0.882623314858,5.47326087951,-0.100703194738,1.1613432765,0.309500604868,895565.5,1518248265.0,36999936.0,,,,,,407416.5,1518248265.0,48650730.0,,0.259999987483,1.35799998045,0.596000051498,0.00599999981931,0.0235000001266,0.0304999994114,3.0
16,291.583005641,29170.5,1518248265.0,99892529.5,,2264798.5,1518248265.0,99892529.5,,0.744954672971,-0.282407039806,0.103913129984,-0.0376428790823,0.999288705197,0.00186961121241,0.00119560261739,-0.0461192140304,0.032196598845,-0.0709925155643,0.00123532024154,0.0997413985465,0.0524924804708,1.20084312558,1.00184962153,5.07606077194,-0.165652230381,0.592619150877,0.292498126626,1580356.0,1518248265.0,97476364.5,,,,,,407422.5,1518248265.0,108475662.0,,0.544999983907,0.018000006676,0.581000006199,0.00149999989663,0.0120000001043,0.0280000008643,3.0
17,291.685569744,29184.5,1518248265.0,239892785.5,,2264812.5,1518248265.0,239892785.5,,0.739987977851,-0.277029933148,0.0959364604653,-0.0417046637881,0.999119824818,0.00237369634426,-0.00381096093856,-0.0426018641808,0.0416173621594,-0.0591694658092,-0.0012956469102,0.0918810326858,0.0619828690921,0.635708451271,0.505179136991,4.78220319748,0.112377081066,0.402371808886,0.312803328037,895573.5,1518248265.0,240000000.0,,,,,,407436.5,1518248265.0,248124489.5,,1.50000002682,1.16799992323,0.065999990702,0.0099999997765,0.00450000015553,0.0315000005066,3.0
18,291.788133846,29194.5,1518248265.0,339892675.5,,2264822.5,1518248265.0,339892675.5,,0.734077189938,-0.27424286767,0.090337770421,-0.0444433088821,0.998953817282,0.00250702580444,-0.0104707384526,-0.0648991199017,0.0211428218668,-0.0666794456079,-0.0106571806908,0.146879530014,0.045784554235,3.01801919937,0.65435397625,4.6322453022,-0.150949262083,1.28980892897,0.29761582613,895577.5,1518248265.0,341499904.0,,,,,,407446.5,1518248265.0,348543059.0,,1.10999998153,0.128000020981,0.105999982357,-0.0075000000652,0.0305000003427,0.0325000006706,3.0
19,291.890697949,29202.5,1518248265.0,419897833.0,,2264830.5,1518248265.0,419897833.0,,0.730545254606,-0.273642591515,0.0865724121867,-0.0463933676933,0.998819918896,0.000906820147317,-0.0143364306438,-0.0554061337992,-0.0264360102981,-0.0508815814973,-0.0842478771494,0.11761318883,-0.0151456212508,3.42615163326,0.405285835266,5.2450594902,0.189124211669,1.44388264417,0.291777074337,2265175.5,1518248265.0,417946854.5,,,,,,407454.5,1518248265.0,428384593.5,,-0.235000002384,-0.342000037432,0.790999984741,0.00950000016017,-0.0130000002682,0.0515000000596,3.0
20,291.993262051,29211.5,1518248265.0,509895428.0,,2264839.5,1518248265.0,509895428.0,,0.728243625341,-0.270864008829,0.0829855954764,-0.0466466566763,0.998771522486,0.00241329747263,-0.0165413882218,-0.0184824170139,0.0453258333179,-0.0499349865167,0.113536196036,0.0277656405894,-0.0725089220439,2.70865803957,1.13251030446,4.86602401733,-0.0856459476054,1.00003570318,0.399662464857,2265184.5,1518248265.0,507952614.0,,,,,,407463.5,1518248265.0,518842333.5,,0.0949999958276,0.332999944687,1.22600004673,-0.00599999912085,0.0235000001267,0.0570000018925,3.0
21,292.095826154,29222.5,1518248265.0,619897346.0,,2264850.5,1518248265.0,619897346.0,,0.726955892842,-0.279661234471,0.0801243867932,-0.0424152700965,0.998948664825,-0.000491496337808,-0.0173700830177,-0.0223832088065,-0.152474414384,-0.0208422610078,-0.201839024428,0.0415736904328,-0.0258871359554,4.45360159874,5.12763762474,3.49005568027,-1.77354997396,1.7146141529,0.309571415186,2265195.5,1518248265.0,617976796.5,,,,,,407474.5,1518248265.0,629119586.0,,-1.40999999941,0.452999949455,0.351000016928,-0.0089999996708,0.0539999995381,0.0484999995679,-1.0
22,292.198390256,29235.5,1518248265.0,749912168.5,,2264863.5,1518248265.0,749912168.5,,0.724473441966,-0.294725423582,0.0772396427074,-0.0346114578872,0.999186761231,-0.00545742188798,-0.0199462606296,-0.0210786951349,-0.0469204272771,-0.0209925601312,0.0657113911027,0.0388317951027,-0.172018890569,3.2966581583,6.7530708313,4.99979805947,-2.24543488026,1.46916514635,0.197175391019,1580401.0,1518248265.0,746991496.5,,,,,,407487.5,1518248265.0,758691088.0,,-0.12500000298,0.487999975681,0.465999996663,0.0209999997169,-0.011000000406,0.0380000006408,-1.0
23,292.300954359,29244.5,1518248265.0,839892379.5,,2264872.5,1518248265.0,839892379.5,,0.723681278522,-0.295276836067,0.0770012117856,-0.0323832932872,0.999252163194,-0.00417143931702,-0.0207054967138,0.00687435602946,0.0201245244426,-0.00670799178688,0.00145441571865,-0.00648706495173,0.0281966175646,2.93394923211,5.25014615059,4.46511793137,-1.58569407463,1.15246623755,0.253783009946,1580406.5,1518248265.0,832993597.5,,,,,,407496.5,1518248265.0,849066060.0,,-0.670000004771,1.36299997568,0.376000022888,0.00399999984075,-0.00450000015553,0.0400000009686,-1.0
24,292.403518462,29255.5,1518248265.0,949891959.0,,2264883.5,1518248265.0,949891959.0,,0.723250028621,-0.288729284028,0.0763757232209,-0.0367298956744,0.999089712901,-0.00319505874183,-0.0214566914386,-0.0181560786476,0.0861202473223,-0.00830674013247,0.0492552967109,0.0409070039857,0.0990040367947,2.17363721132,2.4641263485,4.95931053161,-0.306293874979,1.00284141302,0.346317946911,1580415.0,1518248265.0,947979748.0,,,,,,407507.5,1518248265.0,958288629.5,,-0.900000008941,-0.212000012397,0.420999979973,0.0260000005365,-0.00700000021607,0.0364999994636,-1.0
25,292.506082564,29266.5,1518248266.0,59895513.0,,2264894.5,1518248266.0,59895513.0,,0.723303426093,-0.278471222636,0.0762835512391,-0.0427096173311,0.998857424635,-0.00102056061552,-0.0214139594704,0.0144636433109,0.0783258277787,-0.000318782647652,0.0274737465976,-0.0270669933604,0.107141320757,1.80252379179,0.953671038152,4.87126183509,0.337423548102,0.781879663468,0.389770254492,2265239.5,1518248266.0,57976792.0,,,,,,407518.5,1518248266.0,68683091.0,,-0.100000004471,-1.13700001687,-0.573999998719,0.0235000001267,-0.0129999998026,0.0559999998659,-1.0
26,292.608646667,29275.5,1518248266.0,144901021.5,,2264903.0,1518248266.0,144901021.5,,0.723602932316,-0.271197768704,0.075901103432,-0.0472894398584,0.998656665796,0.000405570971864,-0.0211713802494,0.0113682849702,0.0853668238046,0.0171842115965,0.031696277124,-0.0268964894258,0.117075058178,1.21882724762,0.47881564498,5.05057430267,0.445622682571,0.70357632637,0.399228453636,1580428.0,1518248266.0,138994060.5,,,,,,407527.5,1518248266.0,159113943.0,,-0.194999995827,-0.307000041008,-0.234000006318,0.0235000001266,-0.0230000000448,0.0599999986589,-1.0
27,292.711210769,29286.5,1518248266.0,259894252.5,,2264914.5,1518248266.0,259894252.5,,0.72371146531,-0.262053449246,0.0764634663628,-0.0534077351862,0.998352191659,0.00221183606722,-0.0208707359708,0.00229870695525,0.0651923360752,-0.00053880025873,0.0142756737236,-0.00266295969737,0.087580959666,2.29270148277,0.106884844601,4.73867869378,0.412997215987,1.02331838012,0.353205054998,2265259.5,1518248266.0,257991377.5,,,,,,407538.5,1518248266.0,267966248.5,,1.07999995053,-0.726999998094,0.670999979973,0.0119999996386,-0.00249999994412,0.00350000010803,-1.0
28,292.813774872,29294.5,1518248266.0,339891268.0,,2264922.5,1518248266.0,339891268.0,,0.723790162716,-0.258639416239,0.0764532424825,-0.0560652093555,0.998209450364,0.00233594275115,-0.0207125967407,-0.00792875958954,0.0427416678976,-0.0109383073653,0.0108106475343,0.0171695714384,0.0577601448533,1.65983533859,0.075962856412,5.02429533005,0.478153631091,0.86650967598,0.366108298302,2265266.0,1518248266.0,322989963.0,,,,,,407546.5,1518248266.0,350338318.5,,-0.145000013709,0.487999975681,0.36599997282,0.019499999471,-0.00099999998929,0.0449999999255,-1.0
29,292.916338974,29307.5,1518248266.0,469905503.0,,2264935.5,1518248266.0,469905503.0,,0.723782025755,-0.255063372735,0.076788730445,-0.0574865152644,0.998122988242,0.00413477704926,-0.0207010276837,-0.00311937097182,0.0105419354802,0.00366913556301,0.0334419034793,0.0118411433678,-0.0152439742852,1.97270315886,-1.01472893357,4.7757627964,0.94224613905,0.884989887476,0.378014743328,2265280.5,1518248266.0,467968607.5,,,,,,407559.5,1518248266.0,479555100.5,,0.444999989867,0.102999985218,0.331000036002,0.0169999999925,0.0065000000177,0.0219999998808,-1.0
30,293.018903077,29315.5,1518248266.0,549891649.5,,2264943.5,1518248266.0,549891649.5,,0.723636204166,-0.25621330736,0.0767853248121,-0.056453534398,0.998177797538,0.00408601579858,-0.020900197812,-0.0135015002509,-0.0201488664585,-0.00271974704312,-0.0234127148386,0.0381023525711,0.0066306158739,1.60112464428,-0.220639914275,4.77881503106,0.558123320341,0.797034472228,0.358946174383,2265287.5,1518248266.0,537981259.5,,,,,,407567.5,1518248266.0,560555218.0,,0.115000006557,0.388000011445,0.496000027657,0.00400000007357,0.0160000002943,0.0219999998808,-1.0
31,293.121467179,29327.5,1518248266.0,669894645.0,,2264955.5,1518248266.0,669894645.0,,0.72417704401,-0.258892356442,0.0768307458303,-0.0553913679031,0.998255123547,0.00337355687861,-0.0201755407711,-0.00636730116877,-0.0222894231029,-0.00019135200862,0.00159309615486,0.0152606654774,-0.029907076383,2.20050692558,0.217989057303,4.87293624878,0.4405233711,0.990384459496,0.334015399218,2265300.5,1518248266.0,667968867.5,,,,,,407579.5,1518248266.0,679777098.5,,-0.645000002533,-2.09700003266,0.686000025272,0.00550000020303,0.0175000000745,0.0344999991357,-1.0
32,293.224031282,29335.5,1518248266.0,749894502.5,,2264963.5,1518248266.0,749894502.5,,0.723892977578,-0.26149794884,0.0769708686142,-0.0537133642386,0.998338363489,0.00303883171734,-0.0206397709494,-0.0202238493591,-0.0246992559688,-0.00816154375133,0.010374991879,0.0430691823146,-0.0390349205101,2.05179935693,0.181759901344,4.98144102097,0.516690254211,0.96805137396,0.366391673684,2265307.5,1518248266.0,737975090.0,,,,,,407587.5,1518248266.0,759762512.5,,0.354999986291,-0.78700003028,0.525999999047,-0.00300000008428,0.00999999977649,0.054999999702,-1.0
33,293.326595385,29348.5,1518248266.0,879893611.0,,2264976.5,1518248266.0,879893611.0,,0.724480563271,-0.264498643664,0.0771471473049,-0.0513810197984,0.998476102914,0.00338011401566,-0.0198488808154,-0.0042421367445,-0.0344427384435,0.00223355914995,-0.00340536641876,0.0078735965483,-0.0465134370677,1.67964935302,0.190785393119,4.93590712547,0.582582771778,0.838405609131,0.417218357324,2265321.0,1518248266.0,872982001.0,,,,,,407600.5,1518248266.0,889403758.5,,0.184999999404,0.507999956608,0.090999996662,0.0165000003762,0.00149999978021,0.0415000002831,-1.0
34,293.429159487,29359.5,1518248266.0,989895659.0,,2264987.5,1518248266.0,989895659.0,,0.723935751134,-0.267223857929,0.0768747586007,-0.0494229805799,0.998561566336,0.00336728647257,-0.0205059004738,-0.00343737808189,-0.0336436843338,-0.00210235258145,0.00419318150138,0.0112599107585,-0.0548010708493,1.9334411025,0.155594602227,5.05921888352,0.586168408394,0.903527826071,0.414419308305,2265331.0,1518248266.0,972988324.0,,,,,,407611.5,1518248266.5,500224969.0,,1.26500001251,0.132999956608,0.0560000002384,0.0255000004545,-0.00900000007823,0.0455000009387,-1.0
35,293.53172359,29366.5,1518248267.0,59899169.0,,2264994.5,1518248267.0,59899169.0,,0.724266666961,-0.268962539273,0.0772639291556,-0.0481430289277,0.998631681475,0.00332184536149,-0.0201470181082,-0.00140175460214,-0.0265272456051,-0.00185174269467,-0.0154648925199,0.0117755324432,-0.040687579496,2.25178790092,1.10662782193,4.92525696754,0.166858792305,1.00023502111,0.38385334611,895645.5,1518248267.0,61500032.0,,,,,,407618.5,1518248267.0,69760446.0,,0.550000038743,-1.29700001702,0.721000051498,0.00649999990128,-0.0180000001565,0.0460000000895,-1.0
36,293.634287692,29379.5,1518248267.0,189887460.5,,2265007.5,1518248267.0,189887460.5,,0.72475485766,-0.270611168713,0.0773522424653,-0.0468976453498,0.998702844365,0.00305370242091,-0.0195886229717,-0.0088714849866,0.00939597242634,-0.003761128552,-0.00026263977195,0.0212496273779,0.0213696137751,2.12922847271,1.43901717663,4.84457039833,-0.0345212258398,1.00901031494,0.318044424057,2265351.0,1518248267.0,172972519.0,,,,,,407631.5,1518248267.0,199913752.0,,1.46000006497,-1.31700000912,1.19600001574,0.0010000000475,-0.0165000008419,0.0529999993741,-1.0
37,293.736851795,29386.5,1518248267.0,259894883.0,,2265014.5,1518248267.0,259894883.0,,0.724521624477,-0.27002604062,0.0771928373567,-0.0473286282195,0.998676590208,0.00321217057452,-0.0198653541389,0.00254901361468,0.0158004216529,-0.00510083411664,0.0169656681748,-0.00279327396056,0.00573938273194,2.28050875664,0.997101783753,4.93617105484,0.154162272811,1.04074302316,0.359539583326,895653.5,1518248267.0,263500032.0,,,,,,407638.5,1518248267.0,269798613.0,,1.26499995292,0.0830000042915,0.855999982357,0.0149999996647,0.000500000081955,0.026999999769,-1.0
38,293.839415897,29398.5,1518248267.0,379894133.0,,2265026.5,1518248267.0,379894133.0,,0.72425666487,-0.268824808767,0.0770995905722,-0.048131839758,0.998630063528,0.0033512361981,-0.020240890908,0.00275857150821,0.0141034421977,0.00025841888747,-0.00065879193814,-0.0056024342295,0.030780590314,2.30477786064,0.911724060774,5.0260310173,0.109078913927,1.05391895772,0.324677959085,2265371.0,1518248267.0,372975738.0,,,,,,407650.5,1518248267.0,388770212.0,,-1.01000000835,-0.611999992279,0.540999984741,0.00549999991199,0.0084999995888,0.0310000004247,-1.0
39,293.94198,29406.5,1518248267.0,459902445.0,,2265034.5,1518248267.0,459902445.0,,0.724767219846,-0.269334892,0.0771971457835,-0.0480164403527,0.998647807045,0.00312849059161,-0.0196732317003,0.0124250009123,-0.00854327720498,0.0056809624913,-0.0118573627344,-0.0217553823608,0.000791365892948,2.0073441267,0.848859846591,4.90587139129,0.16837181896,0.947314977646,0.344545423984,2265379.5,1518248267.0,457952733.5,,,,,,407658.5,1518248267.0,470660684.0,,1.77000000775,-1.68700001389,0.90600005388,0.0154999997467,0.00299999979325,0.0625000018627,-1.0
