,Unnamed: 0,.header.seq,.header.stamp.secs,.header.stamp.nsecs,.header.frame_id,.endpoint_state.header.seq,.endpoint_state.header.stamp.secs,.endpoint_state.header.stamp.nsecs,.endpoint_state.header.frame_id,.endpoint_state.pose.position.x,.endpoint_state.pose.position.y,.endpoint_state.pose.position.z,.endpoint_state.pose.orientation.x,.endpoint_state.pose.orientation.y,.endpoint_state.pose.orientation.z,.endpoint_state.pose.orientation.w,.endpoint_state.twist.linear.x,.endpoint_state.twist.linear.y,.endpoint_state.twist.linear.z,.endpoint_state.twist.angular.x,.endpoint_state.twist.angular.y,.endpoint_state.twist.angular.z,.endpoint_state.wrench.force.x,.endpoint_state.wrench.force.y,.endpoint_state.wrench.force.z,.endpoint_state.wrench.torque.x,.endpoint_state.wrench.torque.y,.endpoint_state.wrench.torque.z,.joint_state.header.seq,.joint_state.header.stamp.secs,.joint_state.header.stamp.nsecs,.joint_state.header.frame_id,.joint_state.name,.joint_state.position,.joint_state.velocity,.joint_state.effort,.wrench_stamped.header.seq,.wrench_stamped.header.stamp.secs,.wrench_stamped.header.stamp.nsecs,.wrench_stamped.header.frame_id,.wrench_stamped.wrench.force.x,.wrench_stamped.wrench.force.y,.wrench_stamped.wrench.force.z,.wrench_stamped.wrench.torque.x,.wrench_stamped.wrench.torque.y,.wrench_stamped.wrench.torque.z,.tag
0,331.894697,33202.5,1518248305.0,419311761.0,,2268830.5,1518248305.0,419311761.0,,0.762184338133,-0.296326487865,0.12634579055,-0.0237711045356,0.999574380547,0.00319152287106,0.0166056331722,0.011355591894,-0.00839405229864,0.00024829849131,-0.00799455832513,-0.0241113618495,-0.00741144827805,4.2647178173,0.788603305816,4.52517604828,-0.00856669992208,1.80281692743,0.35637794435,2269175.5,1518248305.0,417384366.5,,,,,,411450.5,1518248305.0,428185561.5,,-1.1589999849,-1.20200001151,0.137999999523,0.0270000007004,-0.0175000000745,0.0875000022352,0.0
1,331.997261103,33213.5,1518248305.0,529301881.0,,2268841.5,1518248305.0,529301881.0,,0.761988421351,-0.295922926933,0.126568099682,-0.0235653114387,0.999581691252,0.00346725395519,0.0164011445985,0.00263999875517,0.0153383950861,-0.00186150172195,0.00691367144772,-0.00440811829895,0.0152938115409,4.75135302543,0.975545823574,4.59394264221,-0.089911021292,2.01122999192,0.349360883236,2269186.0,1518248305.0,522371133.0,,,,,,411461.5,1518248305.0,537410103.0,,-1.0189999992,0.232999953628,-0.401999999583,0.0209999997169,-0.00799999991432,0.0515000000596,0.0
2,332.099825205,33226.5,1518248305.0,659307344.0,,2268854.5,1518248305.0,659307344.0,,0.762317333207,-0.295103975513,0.126907159819,-0.0242981540978,0.999557185486,0.00350774546904,0.0168106249129,-0.00958383676639,0.00227828272145,-0.00421188486841,-0.00598795892952,0.0234149566776,0.000353866809845,3.72022795677,0.542196810245,5.01286196708,0.130280360579,1.6353328824,0.375280335545,2269199.5,1518248305.0,657371799.0,,,,,,411474.5,1518248305.0,669458452.0,,-0.42399999667,-0.652000007034,-0.536999990046,0.0294999992475,-0.0164999994449,0.0335000008344,0.0
3,332.202389308,33234.5,1518248305.0,739308094.5,,2268862.5,1518248305.0,739308094.5,,0.762163772922,-0.294495199075,0.127017195381,-0.0244897719154,0.999552755224,0.00380921163985,0.0167243856723,-0.00240857172785,0.00679258595498,-0.00129093245246,-0.00218985304489,0.00314411977915,0.0151560236686,3.97736942768,0.57697814703,4.80179667473,0.105314105749,1.67508274316,0.388850405813,897175.0,1518248305.0,724999936.0,,,,,,411482.5,1518248305.0,747821906.5,,-0.23899999056,-1.48700000048,-0.37199999839,0.019999999553,-0.015500000678,0.0665000006557,0.0
4,332.30495341,33242.5,1518248305.0,819307647.5,,2268870.5,1518248305.0,819307647.5,,0.76263403613,-0.294179734937,0.127199252489,-0.0249021380824,0.999536753361,0.00336676255575,0.017164713941,0.00354631012262,-0.00586883140717,0.00284328597886,-0.0148186043357,-0.00690763118955,0.0100005313768,3.19474935532,0.9942997694,4.71946954727,-0.0901317968965,1.42734014988,0.347136467695,2269215.5,1518248305.0,817408473.0,,,,,,411490.5,1518248305.0,828145875.5,,-1.47399996761,0.532999965549,0.238000008464,0.000500000081955,0.00700000021606,0.0344999991358,0.0
5,332.407517513,33254.5,1518248305.0,939308391.5,,2268882.5,1518248305.0,939308391.5,,0.762002558367,-0.293524368486,0.126459180363,-0.0256061587387,0.999532564466,0.00348388147337,0.0163321541877,-0.00115522442974,0.0181879981079,-0.00644070664398,0.0176456904844,0.00650851865205,0.00187112281882,4.04153800011,0.371197089553,4.94052553177,0.250691592693,1.68270128965,0.410287842154,1583205.0,1518248305.0,932693112.5,,,,,,411502.5,1518248305.0,949181045.5,,-1.40399997477,-0.137000021339,0.508000011742,0.0104999998584,0.00950000016018,0.0455000009388,3.0
6,332.510081615,33266.5,1518248306.0,59307981.0,,2268894.5,1518248306.0,59307981.0,,0.762616959141,-0.29284686157,0.126088417919,-0.0258182725113,0.999512534881,0.00355320469373,0.0171863837904,-0.0023697859044,-0.00585163291996,-0.0113014031788,-0.0100840136449,0.00941522312575,0.0126653468101,1.46375560761,1.05220720172,5.22957587243,-0.184019170702,0.777070194483,0.296631649136,1583214.5,1518248306.0,59709474.5,,,,,,411514.5,1518248306.0,68765175.0,,-0.773999994435,0.837999972702,1.27800000757,-0.0235000001267,-0.00550000020303,0.0485000014305,3.0
7,332.612645718,33274.5,1518248306.0,139309222.0,,2268902.5,1518248306.0,139309222.0,,0.762551034999,-0.292190329347,0.125238103889,-0.0262863037074,0.999490555606,0.00354419977733,0.0177447546624,0.00255108591411,0.0114602903987,-0.0219756491524,-0.00904233107339,-0.0187287015949,0.0321524504881,0.914476543663,1.40849894285,5.16090750694,-0.32701678574,0.549158111214,0.281077891588,1583219.0,1518248306.0,133694737.5,,,,,,411522.5,1518248306.0,148851234.0,,0.201000014506,0.202999982237,0.797999988496,0.00499999988824,0.00700000021606,0.0360000003129,3.0
8,332.715209821,33286.5,1518248306.0,259317166.5,,2268914.5,1518248306.0,259317166.5,,0.759475094057,-0.289994063848,0.121837319184,-0.028148490931,0.999482192423,0.00384900803647,0.0151006348347,-0.0334503004728,0.0162937354481,-0.0186784016203,-0.0221921187121,0.0531236864211,0.0439272029386,-0.896347731352,1.36142981053,5.01886892319,-0.304796747863,-0.0933776423335,0.34200681746,1583228.5,1518248306.0,260183723.5,,,,,,411534.5,1518248306.0,268311040.5,,-1.13400001247,0.587999972701,0.402999992669,-0.0169999995269,-0.00900000007823,0.0490000005811,3.0
9,332.817773923,33294.5,1518248306.0,339317216.5,,2268922.5,1518248306.0,339317216.5,,0.755810516578,-0.288734116238,0.119055044236,-0.0298701618475,0.999479835085,0.0033685271061,0.0116794266343,-0.0384020120886,0.0202356966028,-0.03531739185,-0.0107415849223,0.0754206134495,0.0478157303166,1.82889616489,1.2380888462,4.67983698845,-0.282702729105,0.653573900461,0.327029556036,1583233.0,1518248306.0,334700939.0,,,,,,411542.5,1518248306.0,348727583.5,,-1.06899999623,-0.65200002752,0.558000008762,0.0174999996088,0.00350000010803,0.0269999997691,3.0
10,332.920338026,33306.5,1518248306.0,459299920.0,,2268934.5,1518248306.0,459299920.0,,0.751091196686,-0.286205845546,0.112800526797,-0.0334766845687,0.999411491705,0.00198886753912,0.00720156880568,-0.0413376325697,0.0363220033993,-0.0585943060895,-0.000444882341357,0.077141351706,0.0699533489416,2.34054458142,0.799116373062,4.86143493653,0.0451563932001,1.0806299448,0.332704767585,2269279.5,1518248306.0,457381418.0,,,,,,411554.5,1518248306.0,468248022.0,,0.156000027619,0.372999998928,0.94800002426,0.00249999994412,-0.0194999999367,0.0384999997913,3.0
11,333.022902128,33318.5,1518248306.0,579303437.0,,2268946.5,1518248306.0,579303437.0,,0.745784048828,-0.281955150547,0.105967262807,-0.0367006723906,0.999320107691,0.00278320981318,0.00214076022478,-0.0461710288846,0.0320406559493,-0.0586092049068,0.000236763678935,0.0897177474394,0.0476570410856,1.98249334097,0.989200949669,5.36668729782,-0.129611223936,0.900553226472,0.298838734627,2269291.0,1518248306.0,572406947.0,,,,,,411566.5,1518248306.0,589629061.5,,-0.548999992944,0.622999998927,0.887999992073,0.0169999999925,0.0,0.0594999995083,3.0
12,333.125466231,33325.5,1518248306.0,649313345.0,,2268953.5,1518248306.0,649313345.0,,0.742776519846,-0.279610986645,0.102309508004,-0.0380859120344,0.999269003486,0.0031015151022,-0.000995887881908,-0.0357839309511,0.0474881556588,-0.0490535567007,0.00999456810029,0.0817639410383,0.0689086431978,0.510517477988,0.804186701775,5.18665719033,-0.0435950160027,0.299494873732,0.302684962749,1583255.5,1518248306.0,650707911.0,,,,,,411573.5,1518248306.0,659429687.5,,-1.34399997238,-0.542000026256,0.337999995053,0.0169999995269,-0.00399999995715,0.038500001654,3.0
13,333.228030333,33338.5,1518248306.0,779310588.0,,2268966.5,1518248306.0,779310588.0,,0.736915164449,-0.274683463777,0.0949635304285,-0.0422786118686,0.999072766465,0.00372806392245,-0.00722054434502,-0.0312162104915,0.0408505043455,-0.0576659972201,0.0187137532394,0.0694821155498,0.0577828113313,3.23357498646,0.766049206257,4.92227602005,0.0106591805815,1.29292702675,0.331553220749,2269311.0,1518248306.0,772402585.0,,,,,,411586.5,1518248306.0,789034687.0,,-0.994000008145,0.782999905943,0.233000005782,0.00500000012106,-0.00099999993108,0.0389999998733,3.0
14,333.330594436,33346.5,1518248306.0,859313301.5,,2268974.5,1518248306.0,859313301.5,,0.734847531904,-0.273400725589,0.0908616124336,-0.0440094365242,0.99898178287,0.00321003294877,-0.00939036919245,-0.0196086648023,0.0145482351471,-0.0482502535001,-0.0519760813726,0.0437131430017,0.0892034441732,0.906130462884,0.570504039526,5.15074849129,0.10132939741,0.577171885408,0.336427807808,1583270.0,1518248306.0,859702374.5,,,,,,411594.5,1518248306.0,869571439.0,,-2.14899994973,-0.271999981999,-0.197000006959,0.00649999990128,0.00350000010803,0.0504999998957,3.0
15,333.433158538,33357.5,1518248306.0,969306442.5,,2268985.5,1518248306.0,969306442.5,,0.731295768392,-0.271907960414,0.0858969437935,-0.0464674270501,0.998831966594,0.00231340308845,-0.0130417688909,-0.0343970543142,0.00518499159121,-0.0506038503087,-0.0096262274746,0.0575741695093,0.0159644759432,2.70918810368,0.627122342587,5.28704500198,0.0912550352516,1.11827585101,0.306409567594,1583278.0,1518248306.0,970199137.5,,,,,,411605.5,1518248306.0,980624567.5,,-1.01400000025,0.147999975086,0.848000000417,0.00150000007124,0.00700000009964,0.0224999999628,3.0
16,333.535722641,33369.5,1518248307.0,89304702.0,,2268997.5,1518248307.0,89304702.0,,0.728074877694,-0.26978145252,0.0806808652478,-0.0485700042834,0.998684337403,0.00271224038158,-0.0162227953173,-0.0349546626033,-0.00372134680692,-0.0601659159305,-0.0062444239504,0.0584377171495,0.012546863871,1.20573991537,0.916597902775,4.85414099693,-0.0307527631521,0.577532976865,0.302089080214,2269341.0,1518248307.0,72387618.0,,,,,,411617.5,1518248307.0,100030542.0,,-0.979000007546,0.012999984622,0.00800000056625,0.00250000017695,0.0169999997597,0.0370000004768,3.0
17,333.638286744,33376.5,1518248307.0,159315039.5,,2269004.5,1518248307.0,159315039.5,,0.726805162121,-0.26839441844,0.0773092743349,-0.0495985761296,0.99861497458,0.00282917455789,-0.0173167393244,-0.0220200537138,0.0141869759839,-0.0419768222161,0.00476823337067,0.0309043441024,0.0305607635086,2.43413376808,1.06985422969,4.93682909012,-0.118501670659,1.13418516517,0.303739473223,2269349.5,1518248307.0,157357223.0,,,,,,411624.5,1518248307.0,170154945.0,,-2.5339999998,-0.411999997497,0.183000001311,-0.00599999999395,0.039999999106,0.0590000003577,3.0
18,333.740850846,33388.5,1518248307.0,279308310.5,,2269016.5,1518248307.0,279308310.5,,0.724117980185,-0.267539829069,0.0729596552907,-0.0513135519651,0.998484364922,0.0021883327582,-0.019771807643,-0.0249164857526,0.00902462558613,-0.0418652349195,-0.0353383653215,0.0374397768316,0.0642207203906,2.67835009098,0.866452723742,4.70529580116,-0.0311723724005,1.11377954483,0.316331356764,2269361.0,1518248307.0,272394591.0,,,,,,411636.5,1518248307.0,289822179.0,,-1.22899997774,0.232999953628,-0.226999998838,0.000499999616295,0.0329999998212,0.0519999992103,3.0
19,333.843414949,33396.5,1518248307.0,359301808.5,,2269024.5,1518248307.0,359301808.5,,0.722861290191,-0.26713116915,0.0703371031336,-0.0529212131011,0.998380548539,0.00143543025678,-0.0208197569494,-0.0028308491223,0.00680271785753,-0.027228328148,-0.00762160250385,-0.0134454059839,0.0346799937034,1.94972527027,0.54722610116,4.3573255539,0.199125479906,0.73338958621,0.323647499084,2269369.5,1518248307.0,357371176.5,,,,,,411644.5,1518248307.0,370331569.0,,-1.36400001291,1.75299993456,0.0380000036212,0.011500000488,0.0354999992997,0.0134999994188,3.0
20,333.945979051,33410.5,1518248307.0,499308081.5,,2269038.5,1518248307.0,499308081.5,,0.729250108366,-0.283612386546,0.0680513514119,-0.0519415456554,0.998487667213,-0.0116102357461,-0.013756093321,0.0673391693586,-0.135653692757,-0.00266698080952,-0.0273216363246,-0.183546485496,-0.192833436699,-1.33030492068,4.91961860656,3.39822244644,-0.405835188925,0.062689334154,0.36541596055,897245.5,1518248307.0,489499904.0,,,,,,411658.5,1518248307.0,510481367.0,,0.920999953712,0.17800000608,-0.751999993622,0.0969999991359,0.0144999998156,0.0509999990463,3.0
21,334.048543154,33420.5,1518248307.0,599307561.0,,2269048.5,1518248307.0,599307561.0,,0.730038553644,-0.290366518496,0.0672320202072,-0.0479892445505,0.998685330475,-0.0130960504278,-0.0123726910679,-0.0437287102631,-0.072104887491,-0.0149803138305,-0.0786637237548,0.0934722951133,-0.0310686285399,2.30502414703,4.50061917305,3.42524564266,-1.26399236917,1.25318145752,0.137174941599,897249.5,1518248307.0,591000064.0,,,,,,411668.5,1518248307.0,610837745.5,,-0.863999990561,0.937999996542,0.432999993861,-0.0244999993593,-0.0195000004024,0.0224999999628,-1.0
22,334.151107256,33428.5,1518248307.0,679306552.0,,2269056.5,1518248307.0,679306552.0,,0.726382358523,-0.290734869367,0.0649862964929,-0.0478637708792,0.998630154503,-0.0131361663783,-0.0165595306203,-0.019774546797,0.0123397522944,-0.0298935673844,0.0104260072051,0.0488927093563,0.0135129985308,3.58648240566,2.91536712647,4.48719620705,-0.446117371321,1.46852332353,0.260755851865,897253.0,1518248307.0,678000128.0,,,,,,411676.5,1518248307.0,691040347.0,,0.0359999930485,-0.407000002265,0.483000005782,0.0359999993816,0.01600000076,0.0495000015944,-1.0
23,334.253671359,33441.5,1518248307.0,809311390.5,,2269069.5,1518248307.0,809311390.5,,0.723831449054,-0.284427074122,0.0623060128394,-0.049644846409,0.998529932313,-0.0101357876112,-0.0192514267843,-0.0119201077122,0.0661439662436,-0.031685446111,0.0088828293641,0.0315684787968,0.0981555706107,4.26454114914,1.4747800827,4.3945710659,0.025154456496,1.83010184765,0.315143033862,1583336.5,1518248307.0,810212730.5,,,,,,411689.5,1518248307.0,820462780.0,,0.0510000085457,0.413000020385,-0.186999994144,0.0265000006184,0.0270000002347,0.0455000009388,-1.0
24,334.356235462,33451.5,1518248307.0,909320703.5,,2269079.5,1518248307.0,909320703.5,,0.722716280985,-0.279785081253,0.060974521029,-0.0530856674686,0.998324847158,-0.00984408446318,-0.020795471589,-0.00261283870225,0.0424611623362,-0.00729305337529,-0.0302099927319,0.0173066225664,0.104146928392,1.52925318479,0.481001228094,4.21212005615,0.608392715454,0.679933905601,0.401710823178,1583343.5,1518248307.0,911198851.5,,,,,,411699.5,1518248307.0,919553658.5,,-2.49399997834,-0.422000017762,0.17800000608,0.0190000003203,0.0214999997988,0.0750000029803,-1.0
25,334.458799564,33459.5,1518248307.0,989304777.0,,2269087.5,1518248307.0,989304777.0,,0.722214621215,-0.274988413489,0.060550702117,-0.055352092178,0.998207172232,-0.0083631256116,-0.0211759075326,-0.0234166890748,0.0558663948455,-0.0112769996822,0.0448565534524,0.0599784839623,0.0412999473485,1.67881542444,0.44367980957,4.88220643997,0.481928795576,0.798113673926,0.356940716505,897265.0,1518248307.0,982000128.0,,,,,,411707.5,1518248307.5,499448118.5,,-0.668999997712,0.012999984622,-0.561999996007,0.0235000001266,-0.00699999975041,0.0584999993444,-1.0
26,334.561363667,33472.5,1518248308.0,119307847.0,,2269100.5,1518248308.0,119307847.0,,0.722383955087,-0.271914233677,0.0605468434641,-0.0590669623906,0.997987725316,-0.00930567779639,-0.0210886890986,0.00501033771513,0.00243595233925,0.00285845335645,-0.0442757562168,-0.0125599749069,0.0515810029087,2.02531546354,0.228258624673,4.89871430397,0.559260249138,1.02765661478,0.35679000616,1583358.0,1518248308.0,118179667.5,,,,,,411720.5,1518248308.0,130621811.5,,-1.2689999843,-0.941999998688,0.363000001014,0.0314999995753,-0.00849999987985,0.0740000009537,-1.0
27,334.663927769,33482.5,1518248308.0,219309207.0,,2269110.5,1518248308.0,219309207.0,,0.72239962041,-0.270800116579,0.0606630236205,-0.0600722544722,0.997928864093,-0.00914756250581,-0.0211092381876,-0.00022901259024,0.0236555847047,0.000723409201829,0.047393462128,0.00258169771463,-0.0039469389891,1.56506675482,0.0434176176786,4.66298842431,0.615316450596,0.848074525594,0.377997711301,1583365.0,1518248308.0,218701736.5,,,,,,411730.5,1518248308.0,229685378.0,,-1.7539999986,-1.15200001076,-0.462000001967,0.0309999994934,-0.00400000018999,0.0625000018627,-1.0
28,334.766491872,33492.5,1518248308.0,319309080.5,,2269120.5,1518248308.0,319309080.5,,0.721912952644,-0.271198112026,0.0604724844984,-0.0597783415773,0.997930995224,-0.0093723240833,-0.0217261452901,0.0079003483099,-0.0122930534089,-0.00215368599909,-0.0133614987883,-0.0141250039798,-0.00379969057824,2.26526427269,0.308341130614,4.86764597892,0.541856944561,1.07208389044,0.33907391131,1583372.0,1518248308.0,318676899.5,,,,,,411740.5,1518248308.0,330287922.5,,-0.954000009037,-0.836999994516,-0.026999999583,0.0135000003502,0.00900000007823,0.0420000012964,-1.0
29,334.869055974,33503.5,1518248308.0,429307482.0,,2269131.5,1518248308.0,429307482.0,,0.721855656349,-0.272321195096,0.060410625807,-0.0588341762239,0.997987298621,-0.00934803955833,-0.0217322781159,-0.00209931110088,-0.0015744265953,0.000469885619439,0.00122450991519,0.0068171242359,0.00657133547622,2.20797300338,0.790217220784,4.81652522088,0.280486136674,1.03480359912,0.320380985737,1583379.5,1518248308.0,430179376.5,,,,,,411751.5,1518248308.0,441171295.0,,-1.21900000218,-0.691999998688,-0.491999988258,0.0175000000745,0.00749999983236,0.0559999998659,-1.0
30,334.971620077,33513.5,1518248308.0,529302991.0,,2269141.5,1518248308.0,529302991.0,,0.721173061193,-0.272450996015,0.0608111182162,-0.0589623536734,0.997955507192,-0.00941971004178,-0.0227924622674,0.00686470419398,-0.00898003363947,0.00553731882538,-0.00688889672643,-0.0117383195285,-0.00999235201018,1.79672324658,0.61179509759,4.64248657226,0.456712603569,0.871363222598,0.367316424847,1583386.5,1518248308.0,530201896.5,,,,,,411761.5,1518248308.0,541222255.0,,-1.01399998907,-1.51200000178,-0.317000006139,0.00499999994645,0.0255000004545,0.0625,-1.0
31,335.074184179,33523.5,1518248308.0,629306252.5,,2269151.5,1518248308.0,629306252.5,,0.720176857084,-0.272255803081,0.0603790130851,-0.0590327855286,0.99792793094,-0.00936727834653,-0.0238131214255,0.00035955998499,0.00173650726172,0.000758466720095,-0.00202083938385,-0.00191013583478,-0.00146195521391,2.70350182057,0.393506079912,4.99246692658,0.551343679428,1.22892123461,0.371938943863,2269496.0,1518248308.0,622365402.0,,,,,,411771.5,1518248308.0,642196360.0,,-1.02900000457,-1.22200000733,-0.162000004947,0.0184999993071,0.0100000002421,0.06950000301,-1.0
32,335.176748282,33531.5,1518248308.0,709307536.5,,2269159.5,1518248308.0,709307536.5,,0.721519065668,-0.27188613184,0.0611557138531,-0.0591653092529,0.997956099043,-0.00927251840954,-0.0222944256661,0.00361386087958,-0.00706643425087,-0.00583002232697,0.00630475877642,-0.0058509549906,-0.0138788535717,2.22271049023,0.408574640751,5.17452263832,0.525599330664,1.14371967316,0.368238836527,2269504.5,1518248308.0,707380353.5,,,,,,411779.5,1518248308.0,722390471.5,,-0.588999993913,-1.10199999511,0.382999996841,0.01600000076,0.00200000009499,0.0635000001639,-1.0
33,335.279312385,33543.5,1518248308.0,829309730.5,,2269171.5,1518248308.0,829309730.5,,0.721013326518,-0.272024313219,0.0609214515032,-0.0588948276224,0.997958743117,-0.00918442203061,-0.0229113792399,0.00200466893653,0.00878655203644,-0.00257693164229,0.0106030256902,-0.00398869587244,0.0185623722977,1.50212603808,0.568644672633,5.10413455963,0.622878789902,0.796704918146,0.433559030294,2269516.0,1518248308.0,822447955.0,,,,,,411791.5,1518248308.0,840942353.5,,0.256000021659,-1.60700000524,-0.0470000009984,0.0195000004023,0.0154999997466,0.0800000019371,-1.0
34,335.381876487,33550.5,1518248308.0,899306892.5,,2269178.5,1518248308.0,899306892.5,,0.721196858507,-0.271236857576,0.061013257248,-0.0591875767687,0.997952668747,-0.00854875909212,-0.0226739683034,-0.00843261968593,0.0213129398743,-0.00917507442157,0.0201584436344,0.0212850590652,0.0392085203411,1.62209838629,0.356960013509,5.10723495483,0.631360173225,0.803721368313,0.395528823138,1583412.5,1518248308.0,896701033.0,,,,,,411798.5,1518248308.0,910878851.5,,-0.548999992944,0.442999991775,-0.0970000017434,0.0115000000223,0.0,0.058500001207,-1.0
35,335.48444059,33562.5,1518248309.0,19305082.5,,2269190.5,1518248309.0,19305082.5,,0.72138467404,-0.271581463126,0.0611873796826,-0.0593032532365,0.997947668295,-0.00882241760955,-0.0224797275581,-0.00973426346497,-0.0021786214461,-0.00528635768538,-0.0035733000791,0.0207840920662,0.00460077299935,1.5319070816,0.239011108876,5.19458889961,0.687741458416,0.815969944,0.419907569885,1583420.5,1518248309.0,18199675.5,,,,,,411810.0,1518248309.0,26951794.5,,-2.0339999998,-2.92199995816,-0.206999995559,0.0180000001565,0.0100000002421,0.0515000000596,-1.0
36,335.587004692,33573.5,1518248309.0,129307763.0,,2269201.5,1518248309.0,129307763.0,,0.721402552923,-0.271716391328,0.0612328349852,-0.0590082990945,0.997966189659,-0.00857842526398,-0.0225322290066,0.00828533409724,0.00570387769393,0.00242689123206,0.00768302739484,-0.0175785780355,0.00445328032918,1.87688815594,-0.032309383154,5.18137383461,0.798474490642,0.958013564348,0.406725883484,897310.0,1518248309.0,124000000.0,,,,,,411821.5,1518248309.0,140698109.0,,0.470999995433,-0.746999990941,0.323000009358,0.0235000001267,-0.00599999999395,0.0455000009388,-1.0
37,335.689568795,33582.5,1518248309.0,219319123.5,,2269210.5,1518248309.0,219319123.5,,0.721706598448,-0.272196194258,0.061554085189,-0.058200710892,0.998018348859,-0.0082733880537,-0.0224387606172,0.00407999737967,-0.0289325793372,0.00309145804932,-0.0137601705633,-0.00137073558029,-0.0336052411796,2.0258846879,0.0148179158569,5.11753511428,0.665166914463,0.923583984374,0.390981167555,1583434.5,1518248309.0,218697357.0,,,,,,411830.5,1518248309.0,230828778.5,,0.0510000085455,-0.136999991536,0.198000001908,0.0219999998807,-0.000500000023745,0.0765000022948,-1.0
38,335.792132897,33593.5,1518248309.0,329308251.5,,2269221.5,1518248309.0,329308251.5,,0.722323334554,-0.27411469076,0.0618895854574,-0.0571115835209,0.998093581818,-0.0084952991056,-0.0217918981339,-0.00615305989136,-0.0132669900178,-0.00652709935785,0.0054118349999,0.0119951450541,-0.0255205150716,2.92629480362,0.124343439937,5.22005534172,0.682317346335,1.3455978632,0.385889768601,897318.0,1518248309.0,327000064.0,,,,,,411841.0,1518248309.0,335997956.5,,-0.693999996222,-1.44199999869,0.442999999225,0.0240000002086,-0.0010000000475,0.0784999988974,-1.0
39,335.894697,33605.5,1518248309.0,449303586.0,,2269233.5,1518248309.0,449303586.0,,0.722693066587,-0.275734196429,0.0622007352806,-0.0555427522494,0.998188312787,-0.00852670243363,-0.0215012598978,0.00217836143675,-0.00230117839103,-0.00166895013752,0.0130797227574,-0.00155557255335,-0.0102511962583,1.16897380352,0.283161193132,5.08586859703,0.584552794695,0.692651033402,0.388077676296,1583450.5,1518248309.0,440201108.0,,,,,,411853.0,1518248309.0,455356144.5,,-0.883999986388,-1.85700000152,-0.612000007927,0.0424999985844,-0.0214999997988,0.0610000006855,-1.0
