,Unnamed: 0,.header.seq,.header.stamp.secs,.header.stamp.nsecs,.header.frame_id,.endpoint_state.header.seq,.endpoint_state.header.stamp.secs,.endpoint_state.header.stamp.nsecs,.endpoint_state.header.frame_id,.endpoint_state.pose.position.x,.endpoint_state.pose.position.y,.endpoint_state.pose.position.z,.endpoint_state.pose.orientation.x,.endpoint_state.pose.orientation.y,.endpoint_state.pose.orientation.z,.endpoint_state.pose.orientation.w,.endpoint_state.twist.linear.x,.endpoint_state.twist.linear.y,.endpoint_state.twist.linear.z,.endpoint_state.twist.angular.x,.endpoint_state.twist.angular.y,.endpoint_state.twist.angular.z,.endpoint_state.wrench.force.x,.endpoint_state.wrench.force.y,.endpoint_state.wrench.force.z,.endpoint_state.wrench.torque.x,.endpoint_state.wrench.torque.y,.endpoint_state.wrench.torque.z,.joint_state.header.seq,.joint_state.header.stamp.secs,.joint_state.header.stamp.nsecs,.joint_state.header.frame_id,.joint_state.name,.joint_state.position,.joint_state.velocity,.joint_state.effort,.wrench_stamped.header.seq,.wrench_stamped.header.stamp.secs,.wrench_stamped.header.stamp.nsecs,.wrench_stamped.header.frame_id,.wrench_stamped.wrench.force.x,.wrench_stamped.wrench.force.y,.wrench_stamped.wrench.force.z,.wrench_stamped.wrench.torque.x,.wrench_stamped.wrench.torque.y,.wrench_stamped.wrench.torque.z,.tag
0,369.340458,36946.5,1518248342.0,859803417.5,,2272574.5,1518248342.0,859803417.5,,0.76253064967,-0.294000540744,0.126970170201,-0.0245330736388,0.999545296508,0.00394429415024,0.0170652245786,0.00795389671882,0.00849910791766,-0.00235855092815,0.00127453184326,-0.016110678203,0.0168985162491,4.033416152,0.24540629983,4.5574350357,0.346348911524,1.70370352268,0.418582022191,1585782.5,1518248342.0,860430510.0,,,,,,415190.5,1518248342.0,864823564.0,,-0.948000045122,-0.432000005245,0.0230000182986,0.0,0.00750000029802,0.0270000007003,0.0
1,369.443022103,36958.5,1518248342.0,979793722.0,,2272586.5,1518248342.0,979793722.0,,0.762152339811,-0.293754405449,0.126923619682,-0.02477406814,0.999548341687,0.00407471624017,0.0165130734021,-0.00119281697556,-0.00352311650409,0.00620039530978,0.0064788514328,0.00065657370745,-0.0120746777008,4.09083604813,0.134616494179,4.4658575058,0.399543613196,1.71293008328,0.435000449419,1585790.5,1518248342.0,977943649.0,,,,,,415202.5,1518248342.0,986217861.5,,1.1170000121,-1.97699996233,-0.137000007928,0.00550000020303,0.00499999988824,0.0380000006408,0.0
2,369.545586205,36967.5,1518248343.0,69798606.5,,2272595.5,1518248343.0,69798606.5,,0.761918428724,-0.293887557376,0.126344687693,-0.0247766766994,0.999553736056,0.0039403287865,0.0162105100334,-0.00230986744325,-0.0100672632244,0.000489635718261,-0.00605847503301,0.00411697270057,-0.0125639413827,4.26260232925,0.243233442306,4.60068631172,0.35974572599,1.78104782105,0.411685660481,2272940.5,1518248343.0,67873522.5,,,,,,415211.5,1518248343.0,74818479.0,,0.701999995299,-1.81699996591,-0.266999988258,0.00849999999627,0.0104999998584,0.0384999997914,0.0
3,369.648150308,36978.5,1518248343.0,179803170.0,,2272606.5,1518248343.0,179803170.0,,0.762257305005,-0.293924067449,0.126843305867,-0.0245965875542,0.99954994799,0.0040539444231,0.0166845980885,0.000886073937155,-0.0111183724801,0.0028607015546,-0.0135048303441,-0.00289036768416,0.00486316902892,4.03334307671,0.358168810606,4.5557949543,0.283074244857,1.69746053219,0.385050967336,1585804.5,1518248343.0,178424314.5,,,,,,415222.5,1518248343.0,185822179.0,,0.556999994815,-0.576999986171,0.0280000135302,0.00150000007124,0.0144999995828,0.027499999851,0.0
4,369.75071441,36990.5,1518248343.0,299799422.0,,2272618.5,1518248343.0,299799422.0,,0.762308700479,-0.294152577376,0.126965326825,-0.0246949489893,0.999549021965,0.00372165267668,0.0166703560118,-0.00342328145042,0.00500491324491,0.000355984434145,-0.00714930137993,0.00380706373573,0.00843498563389,3.87750375271,0.49783910811,4.56207418442,0.194420203567,1.61621910334,0.368845164776,1585813.5,1518248343.0,293947952.0,,,,,,415234.5,1518248343.0,304959582.0,,-1.17800000459,-1.97699996233,-0.0920000061392,0.00450000003911,0.01600000076,0.0310000004247,0.0
5,369.853278513,36998.5,1518248343.0,379801067.0,,2272626.5,1518248343.0,379801067.0,,0.762386508077,-0.293404141546,0.126761229826,-0.0248242693857,0.999543351797,0.00420011391444,0.0167072482194,0.0044277791924,0.00946743044926,0.0040132062994,0.0157835466812,-0.00717493616947,0.00130313436762,3.11111736297,0.627687066793,4.85494613648,0.1220135279,1.31651860475,0.367243364453,1585819.0,1518248343.0,379429611.0,,,,,,415242.5,1518248343.0,386859146.5,,-0.668000014126,-2.00699997842,0.383000002802,0.0109999999404,0.0119999996386,0.027499999851,3.0
6,369.955842615,37010.5,1518248343.0,499800741.5,,2272638.5,1518248343.0,499800741.5,,0.762575446548,-0.293163302602,0.126617333314,-0.0249920850408,0.999531042489,0.00415128522933,0.0171958612049,0.00540366988202,0.00659673775064,-0.0138482264241,0.00272560235592,-0.0199792492835,0.00991739588905,1.3316617012,0.800171345472,4.90215396881,0.0186611935497,0.662105768919,0.334609717131,1585827.5,1518248343.0,495436633.0,,,,,,415254.5,1518248343.0,505524616.0,,-0.32800001055,-1.3469999969,0.103000001609,-0.00400000018999,0.0209999997169,0.0169999995269,3.0
7,370.058406718,37019.5,1518248343.0,589796673.0,,2272647.5,1518248343.0,589796673.0,,0.761903864722,-0.292786530744,0.126155838498,-0.0255362109955,0.999529969946,0.00415907445009,0.0164440413283,-0.00335179586046,0.0109511063518,-0.0156376038794,0.00917118356956,0.00763215803437,0.0115725631765,0.707156084478,1.27529650926,5.00587344169,-0.216143853962,0.417625911534,0.30980886519,898675.0,1518248343.0,588000000.0,,,,,,415263.5,1518248343.0,595781792.0,,-0.063000009954,-0.121999943256,0.772999988496,0.00549999985378,0.00699999998324,0.026999999769,3.0
8,370.160970821,37030.5,1518248343.0,699806574.5,,2272658.5,1518248343.0,699806574.5,,0.760408716672,-0.290853044479,0.123208034556,-0.0268467487725,0.999506060417,0.00424114493827,0.0157733792304,-0.00292291957048,0.0100176718103,-0.0135418667617,-0.000495698300295,-0.00596140980157,0.0088237488001,0.0902488082645,0.960084438326,5.36175179482,-0.12774772197,0.289596371353,0.349514946342,1585841.5,1518248343.0,695930456.0,,,,,,415274.5,1518248343.0,706949062.0,,-0.613000006972,-1.19699996114,-0.562000002153,0.0350000010804,-0.00700000021606,0.0285000000149,3.0
9,370.263534923,37042.5,1518248343.0,819798067.0,,2272670.5,1518248343.0,819798067.0,,0.756389215016,-0.290577080371,0.119023053299,-0.0296363843424,0.999482685033,0.00199488340786,0.0123293509194,-0.0489883184677,0.00639010420937,-0.0480899073101,-0.0573976160653,0.091941712535,0.0679301497885,0.158482730389,1.30026340484,5.22923445702,-0.122449360788,0.282860879786,0.337360680104,2273015.5,1518248343.0,817873620.5,,,,,,415286.5,1518248343.0,826027890.5,,-1.11800000221,0.263000047207,-0.50700000152,0.0255000004545,-0.0169999995269,0.0304999994114,3.0
10,370.366099026,37049.5,1518248343.0,889808178.0,,2272677.5,1518248343.0,889808178.0,,0.753428312804,-0.28823448379,0.116583873889,-0.0316005010427,0.999454098632,0.00215720520267,0.00939033638234,-0.0404497948915,0.0494178084117,-0.0452217378273,0.015204007392,0.0766943061084,0.0668367998164,1.39257699252,1.54765743017,4.37488389015,-0.25768531859,0.472946077585,0.318033337593,1585854.0,1518248343.0,882449647.0,,,,,,415293.5,1518248343.0,896120787.0,,0.331999993324,-0.69699999094,-0.007000012696,0.0240000002086,0.0004999996163,0.00800000014714,3.0
11,370.468663128,37060.5,1518248343.5,499806406.5,,2272688.5,1518248343.5,499806406.5,,0.74920236034,-0.284114727006,0.110542333725,-0.0343155758147,0.99939040958,0.00304168895034,0.00562831212668,-0.0471054275681,0.0322124710315,-0.0550490696761,0.00130408631935,0.079824470027,0.0502257036924,0.153457939625,0.79274430871,4.24561047554,0.106493946165,0.096247136593,0.368755742908,1585862.5,1518248343.5,498448652.0,,,,,,415304.5,1518248344.0,7055194.5,,-1.23800000698,-0.746999943256,0.482999967039,-0.00349999987521,0.007500000298,0.0494999997318,3.0
12,370.571227231,37072.5,1518248344.0,119812044.5,,2272700.5,1518248344.0,119812044.5,,0.744921321033,-0.280101492588,0.103902925589,-0.0379287581793,0.999275015375,0.0028883196879,0.00155647935746,-0.0643860744898,0.0440867264571,-0.0756054556828,0.00534244167159,0.130345039182,0.07403811512,2.88375377656,0.991097927092,4.98333311081,-0.036569364369,1.24918836356,0.341866314411,2273045.5,1518248344.0,117862753.0,,,,,,415316.5,1518248344.0,126427350.5,,-0.892999978365,-0.0320000290872,-0.532000005618,-0.00699999975041,0.0254999995232,0.00400000018999,3.0
13,370.673791333,37079.5,1518248344.0,189799888.0,,2272707.5,1518248344.0,189799888.0,,0.741072974561,-0.277771721672,0.0995592210099,-0.0401147551972,0.999187248209,0.00277647803693,-0.00281183719306,-0.0516204615187,0.0170513107246,-0.0556545056718,-0.0139790748798,0.117458551836,0.0526845255174,-0.583932131531,0.672441124916,5.0941927433,0.106384195387,-0.125738838687,0.336740225554,1585875.0,1518248344.0,184431922.5,,,,,,415323.5,1518248344.0,196421838.0,,-0.25300000757,1.1380000472,0.20799999088,0.0150000001304,0.010000000475,-0.00300000014249,3.0
14,370.776355436,37090.5,1518248344.0,299800243.0,,2272718.5,1518248344.0,299800243.0,,0.736072820301,-0.273592118847,0.0935291751984,-0.0435546398903,0.999012240901,0.00323310597379,-0.00817454335146,-0.0455547863279,0.0400781809237,-0.0510233131582,0.0191470339289,0.0962965969648,0.0622157343994,1.80959552526,0.786339998245,4.96750998497,0.0051454380155,0.751743763685,0.337802276015,1585883.0,1518248344.0,299427835.0,,,,,,415334.5,1518248344.0,307887430.0,,-0.443000020087,-1.65199997425,0.0179999932647,0.0115000000223,0.0109999999404,0.0375000005587,3.0
15,370.878919538,37102.5,1518248344.0,419810560.0,,2272730.5,1518248344.0,419810560.0,,0.73101788637,-0.271988792707,0.0864598813696,-0.0467831780337,0.998806309176,0.00185756973055,-0.0139059498832,-0.0366566447691,0.00674411423424,-0.0518163879303,-0.0285731849602,0.0781617273731,0.0525145370765,2.95393884182,0.62885633111,5.16420841217,0.0995562002064,1.21361410618,0.316594004632,2273075.5,1518248344.0,417883811.5,,,,,,415346.5,1518248344.0,427027014.0,,-0.297999979556,-1.20699998141,0.443000005185,0.0219999998807,-0.00500000012106,0.0220000008121,3.0
16,370.981483641,37114.5,1518248344.0,539796186.5,,2272742.5,1518248344.0,539796186.5,,0.728776147065,-0.269841201091,0.0812634267105,-0.0482074236666,0.99870992577,0.00252415977697,-0.0157495104288,-0.0182747929429,0.0168605435812,-0.0487923298354,0.00477023552105,0.0282438422477,0.0347215691402,2.13618552684,1.1501377821,5.05445837975,-0.091095216572,0.836024433372,0.319502234459,2273086.0,1518248344.0,522865463.0,,,,,,415358.5,1518248344.0,546962071.0,,-0.583000005782,-1.27699997426,-0.43700000681,0.0334999999032,-0.0189999998547,0.0305000012741,3.0
17,371.084047744,37122.5,1518248344.0,619800982.0,,2272750.5,1518248344.0,619800982.0,,0.726555622147,-0.269799246223,0.0775147947838,-0.048822821471,0.998641836858,0.00231860225096,-0.0180375702601,-0.0186871175064,0.003984205848,-0.0291872639174,0.00792198834514,0.0298496276803,-0.00607589914295,0.215298444033,0.605554878712,5.18688607215,0.227601200342,0.19103526324,0.372821643949,2273095.5,1518248344.0,617877941.0,,,,,,415366.5,1518248344.0,627227184.0,,-0.243000002205,-1.53199996948,-0.507000000589,0.0310000004246,-0.0249999994412,0.0455000009387,3.0
18,371.186611846,37131.5,1518248344.0,709802736.0,,2272759.5,1518248344.0,709802736.0,,0.724319729253,-0.268639509622,0.0745337571313,-0.049927613287,0.998550773222,0.00253877172298,-0.0199178486106,-0.0469814551203,0.00737217533008,-0.034826574794,-0.00918571832478,0.100224404574,0.0239670474555,0.284924551845,1.25494575501,4.6068906784,-0.131280340254,0.119218416512,0.326882034541,1585912.0,1518248344.0,708930498.0,,,,,,415375.5,1518248344.0,717601332.0,,0.452000005543,-1.78199999183,-0.52199999839,0.0290000010282,-0.0434999987483,0.0415000002831,3.0
19,371.289175949,37143.5,1518248344.0,829807836.5,,2272771.5,1518248344.0,829807836.5,,0.722900096671,-0.266689380062,0.0709462408337,-0.0509290499428,0.998485177466,0.00263528707118,-0.0206513831566,-0.00260497716695,0.0126662681752,-0.033891332302,0.0137162902517,0.0005770423441,-0.000546900475295,1.55327221751,0.783089846373,4.67422389984,0.0763242207468,0.624207988379,0.305124610663,2273116.0,1518248344.0,822861554.0,,,,,,415387.5,1518248344.0,836776247.0,,-1.19299993068,-1.63699998855,-0.911999998986,0.027499999851,-0.0154999997467,0.0574999991805,3.0
20,371.391740051,37153.5,1518248344.0,929804262.0,,2272781.5,1518248344.0,929804262.0,,0.70903763179,-0.265547172113,0.0675669655622,-0.0513457157921,0.998020806599,0.00331078355125,-0.0361349939329,-0.22546730765,0.0399383016661,-0.0223385346522,0.0219635143907,0.522468542194,0.0285346324285,12.7563624382,0.695271790028,0.364383697509,0.126400381326,2.5937539339,0.270905479789,2273126.0,1518248344.0,922862358.0,,,,,,415398.0,1518248344.0,941890159.0,,-2.01300004274,-3.49199994802,0.492999987303,-0.0429999977355,-0.0184999983758,0.0104999998584,1.0
21,371.494304154,37163.5,1518248345.0,29826326.0,,2272791.5,1518248345.0,29826326.0,,0.699015958433,-0.258693750632,0.0634046377622,-0.0565881904821,0.997310539515,0.00411201882803,-0.046390836615,-0.025443808907,0.0665727908031,-0.0374758847339,-0.0240819552429,0.0716073718579,0.12910105211,4.3229213953,0.0106990635395,3.44912338256,0.346753031015,0.790802672507,0.343631267548,2273136.0,1518248345.0,22859410.0,,,,,,415407.5,1518248345.0,38495240.0,,0.491999982298,-0.68199991584,-1.07199998051,-0.0284999981523,0.0795000027867,0.0339999999851,-1.0
22,371.596868256,37173.5,1518248345.0,129862869.5,,2272801.5,1518248345.0,129862869.5,,0.707861614036,-0.254883001999,0.0585976343475,-0.0616902698025,0.997464572858,0.00224121865434,-0.0354039809912,0.0727998893306,0.0479136568933,-0.0282573841963,0.0416849926456,-0.154408804193,0.039685038066,-0.651993796229,-1.68656003475,7.80605578423,1.2098672986,0.861984312532,0.376343429089,2273146.0,1518248345.0,122945261.0,,,,,,415417.5,1518248345.0,137179009.5,,0.286999997124,-1.94699994624,0.40300001353,0.0559999980032,-0.0644999984653,0.0434999987483,-1.0
23,371.699432359,37186.5,1518248345.0,259881261.0,,2272814.5,1518248345.0,259881261.0,,0.704549023771,-0.253031086036,0.0578829389282,-0.060359406077,0.997383749511,0.00487010232127,-0.0394788447945,-0.0293662880217,-0.0207255272253,-0.00284537848503,-0.0254893173271,0.0724486921057,-0.0028929621521,3.04603028297,-0.751515030861,5.39833259583,0.73831191659,1.51879954338,0.382576420903,1585950.5,1518248345.0,260978072.0,,,,,,415430.5,1518248345.0,266745882.5,,0.391999995708,-0.651999974251,-0.422000008076,0.0115000002552,0.0065000001341,0.0219999998808,-1.0
24,371.801996462,37195.5,1518248345.0,349861395.0,,2272823.5,1518248345.0,349861395.0,,0.702164957472,-0.256521705892,0.0581827468758,-0.0597307152067,0.997287024867,0.00304359137755,-0.0429102022835,0.00509632746119,-0.0518286243583,0.00575696025589,-0.0453443514427,-0.00460909752102,-0.0354805920225,1.72662276029,0.0874250233175,4.12755227089,0.43444392085,0.639480173588,0.339278012514,2273167.5,1518248345.0,337960027.5,,,,,,415439.5,1518248345.0,357514333.5,,1.56200000495,-0.857000017165,-0.827000005543,0.0380000006408,0.00299999996787,0.039999999106,-1.0
25,371.904560564,37203.5,1518248345.0,429866721.5,,2272831.5,1518248345.0,429866721.5,,0.702528565909,-0.259621725811,0.0577829917936,-0.0592520292749,0.997332942182,0.0013677318155,-0.0425938629531,0.00553767087682,-0.0373009966531,0.0184818788086,-0.0330005269466,-0.00060398318481,-0.0130082993165,1.84187692404,0.171805426479,4.76053595543,0.430706754326,0.97392526269,0.354116380215,2273176.0,1518248345.0,422924814.0,,,,,,415447.5,1518248345.0,437829171.0,,0.332000000775,0.138000047207,0.0479999944568,0.0169999999925,-0.0174999996089,0.0305000003428,-1.0
26,372.007124667,37215.5,1518248345.0,549861743.5,,2272843.5,1518248345.0,549861743.5,,0.702623937916,-0.263857016013,0.0579412441707,-0.0573158733143,0.997452829614,0.000152654054205,-0.0424580751291,-0.00609934949021,-0.0452914057576,0.00658194182737,-0.0103139409534,0.00692111397382,-0.0675961027659,2.47455441952,0.0835127830505,4.81239390373,0.577522754669,1.1993137598,0.296553999185,2273187.5,1518248345.0,537936702.0,,,,,,415459.5,1518248345.0,559456696.0,,-0.10799998194,-1.63699995876,-0.277000001073,0.00950000016019,-0.0120000001043,0.0465000011026,-1.0
27,372.109688769,37223.5,1518248345.0,629859797.5,,2272851.5,1518248345.0,629859797.5,,0.702886363327,-0.265212768897,0.0581772457124,-0.0550375516821,0.997595457168,0.00154323056579,-0.0420875033939,0.00480043682197,-0.024119975301,-0.00216438882628,0.0185450608435,-0.00871518568088,-0.0591238322345,2.21293640136,0.319598779082,4.64846038819,0.316343322396,1.03367778659,0.352127179503,2273196.0,1518248345.0,622953308.0,,,,,,415467.5,1518248345.0,639499344.0,,-1.1630000189,0.873000061513,-0.466999998688,0.00999999977649,0.0209999997169,0.0119999996386,-1.0
28,372.212252872,37237.5,1518248345.0,769868448.0,,2272865.5,1518248345.0,769868448.0,,0.703543906583,-0.268459130931,0.0584969242057,-0.0530278121758,0.997715013184,0.000851165870645,-0.0418562006641,0.0342656281017,-0.0354338402248,0.0112891413898,-0.0254828730134,-0.0692248156199,-0.0428363821957,2.88064098358,1.6715875268,4.91023659706,-0.108127638697,1.31524777412,0.327324002981,1585986.0,1518248345.0,769478653.0,,,,,,415481.5,1518248345.0,779655802.0,,-0.122999997437,-0.997000002861,0.427999989688,0.0175000000745,-0.0209999997169,0.0539999995381,-1.0
29,372.314816974,37246.5,1518248345.0,859865982.0,,2272874.5,1518248345.0,859865982.0,,0.705192524971,-0.268002507497,0.0595975593665,-0.0528463872077,0.997786700934,0.00074474570041,-0.0403529683598,0.00820753696693,-0.00619593126215,0.0140789907259,-0.0201821050025,0.0023945524793,-0.0136806699361,2.24829977751,1.07812356949,4.49112749099,0.183496788144,0.963902682065,0.341275081039,1585992.0,1518248345.0,859965573.5,,,,,,415490.5,1518248345.0,869738645.0,,-0.932999999822,-0.83700003624,-0.1170000121,0.0189999993891,-0.0214999997988,0.0660000015051,-1.0
30,372.417381077,37254.5,1518248345.0,939882895.5,,2272882.5,1518248345.0,939882895.5,,0.707024349047,-0.267125053058,0.0602412207194,-0.0538377295751,0.997809753378,0.00107140347925,-0.0384171649992,0.0124919395366,0.00177761898162,0.0142084382773,0.00862873336643,-0.0169622850607,-0.0171833360711,2.56732904911,0.501377761364,5.0411772728,0.330222010613,1.35812151432,0.370224773884,2273226.0,1518248345.0,922936276.0,,,,,,415498.5,1518248345.0,949378793.0,,0.556999994814,-2.02199997157,-0.322000002861,0.0255000004545,-0.0139999995008,0.0660000015051,-1.0
31,372.519945179,37267.5,1518248346.0,69884931.5,,2272895.5,1518248346.0,69884931.5,,0.706873064101,-0.267061057509,0.060971712513,-0.0529589511418,0.997850578826,0.00126929269038,-0.0385704104142,0.0104450113658,-0.014077872312,0.00928664757155,-0.00749748204556,-0.0214281256677,-0.0221626833509,0.896256923676,0.512652367353,5.41708922387,0.338836878538,0.487184911967,0.345898121595,1586007.0,1518248346.0,70997953.0,,,,,,415511.5,1518248346.0,78352834.5,,-0.0380000188945,-0.496999943257,0.192999975383,0.0140000004321,0.0,0.0454999990761,-1.0
32,372.622509282,37277.5,1518248346.0,169875425.0,,2272905.5,1518248346.0,169875425.0,,0.707528364357,-0.267202555709,0.0615467754522,-0.0532854794811,0.997856052482,0.00101538807283,-0.0379853426852,-0.00665800135069,-0.00523131986618,-0.00259701342887,-0.00962913910049,0.0131776977234,0.00252963131466,0.719931989908,0.7220723629,5.22172570229,0.302727371454,0.475948274136,0.355970829725,1586013.5,1518248346.0,170969908.0,,,,,,415521.5,1518248346.0,178708348.0,,0.761999992095,-0.961999917028,0.283000008761,0.00649999990128,0.0195000004023,0.0390000008047,-1.0
33,372.725073385,37285.5,1518248346.0,249879937.5,,2272913.5,1518248346.0,249879937.5,,0.706863801482,-0.267265124456,0.0613600670284,-0.0530838221048,0.997832732999,0.00124493015204,-0.0388612772631,-0.0139526401486,-0.00734840350531,-0.00600027200766,-0.00281691758071,0.0286915638662,-0.0134392213098,0.997693240642,0.672533869744,5.55578327179,0.259126991034,0.556931495666,0.33710063994,2273257.5,1518248346.0,237954949.0,,,,,,415529.5,1518248346.0,258768995.5,,-0.0080000177025,-0.786999964715,0.273000018299,0.0129999998025,-0.00250000011874,0.042500000447,-1.0
34,372.827637487,37297.5,1518248346.0,369879897.5,,2272925.5,1518248346.0,369879897.5,,0.707263840169,-0.267224077111,0.0612452985185,-0.0530364914167,0.997856798924,0.00114077457655,-0.0383084468489,-0.00073101366717,-0.00133878564565,0.0003672844052,0.00392419366137,0.00434127114563,0.00202904473148,1.65672338009,0.546894028783,5.7300646305,0.354505941272,0.830695778131,0.350522786378,2273270.5,1518248346.0,367950601.0,,,,,,415541.5,1518248346.0,377907549.0,,0.521999996528,-0.126999938488,0.53299997896,0.0245000002906,-0.00099999993108,0.0230000000447,-1.0
35,372.93020159,37307.5,1518248346.0,469876491.0,,2272935.5,1518248346.0,469876491.0,,0.706995400986,-0.266495927821,0.0614678114068,-0.0531755122392,0.997839298851,0.0014842031813,-0.0385591740263,0.00771825390764,0.00864549743936,0.00743243214052,0.00745374985469,-0.019522304847,0.00052801392365,1.00548800826,0.633956432342,5.60349917411,0.299531325698,0.625895142555,0.351429566741,1586034.5,1518248346.0,469484386.0,,,,,,415551.5,1518248346.0,478381310.5,,-0.113000006974,-0.916999959945,0.573000000417,0.0145000005141,-0.00999999977648,0.0504999998957,-1.0
36,373.032765692,37318.5,1518248346.0,579160652.0,,2272946.5,1518248346.0,579160652.0,,0.706589884426,-0.267037546077,0.0611777004598,-0.052818883452,0.997838450348,0.00144781881152,-0.0390686318265,-0.0150743306511,0.00637782497061,-0.00899515333923,0.0073303718932,0.0323597520502,-0.00208466437945,1.26486080885,0.51769682765,5.72262692451,0.389759570361,0.685117095709,0.345115572214,898793.0,1518248346.0,576999936.0,,,,,,415562.5,1518248346.0,589669402.0,,-0.1329999879,-1.30700000524,0.0229999884963,0.0179999996908,-0.00700000021607,0.0449999999255,-1.0
37,373.135329795,37329.5,1518248346.0,689153733.5,,2272957.5,1518248346.0,689153733.5,,0.706930061133,-0.266530840123,0.0612256133537,-0.0531717353606,0.997834940753,0.00149596289472,-0.0386758338023,0.00456067213484,-0.00746837312703,-0.00155910257968,-0.0102886912958,-0.00862031439021,-0.0114666047238,1.26235449314,0.57351064682,5.672519207,0.359823435545,0.689178794622,0.341943085194,898797.0,1518248346.0,678000128.0,,,,,,415573.5,1518248346.0,698599856.0,,-0.227999986708,-1.0669999361,-0.547000003419,0.0150000005961,0.00349999999162,0.0559999998659,-1.0
38,373.237893897,37339.5,1518248346.0,789160180.0,,2272967.5,1518248346.0,789160180.0,,0.706780891165,-0.266680290567,0.0622170235964,-0.0529218202372,0.997847909897,0.00171071540552,-0.0386735173464,-0.00367201292698,-0.0035645591774,0.00705758690759,0.000483066889051,0.00458584257089,-0.0115459428788,0.0416404996068,0.726031780243,7.0428545475,0.219830065966,0.124900743365,0.325482159853,898801.0,1518248346.0,777999872.0,,,,,,415583.5,1518248346.0,799468930.0,,-0.512999983132,-1.42699998021,-0.0219999983906,0.0150000005961,-0.0115000000223,0.0539999995381,-1.0
39,373.340458,37347.5,1518248346.0,869159217.5,,2272975.5,1518248346.0,869159217.5,,0.706877473915,-0.266373670005,0.0636258200314,-0.0530913203759,0.997852647286,0.00171994068231,-0.0383177606022,-0.00183717542027,-0.000903600457,0.0233364764307,-0.00108355994062,0.004822327211,-0.00754442467405,1.75651305914,0.771104693413,6.41436505318,0.195453494788,0.764632463455,0.319172307848,1586062.0,1518248346.0,870113453.0,,,,,,415591.5,1518248346.0,879534081.0,,-0.342999996245,-2.50699996725,0.527999983728,0.0140000004322,-0.0159999998286,0.0455000009387,-1.0
