,Unnamed: 0,.header.seq,.header.stamp.secs,.header.stamp.nsecs,.header.frame_id,.endpoint_state.header.seq,.endpoint_state.header.stamp.secs,.endpoint_state.header.stamp.nsecs,.endpoint_state.header.frame_id,.endpoint_state.pose.position.x,.endpoint_state.pose.position.y,.endpoint_state.pose.position.z,.endpoint_state.pose.orientation.x,.endpoint_state.pose.orientation.y,.endpoint_state.pose.orientation.z,.endpoint_state.pose.orientation.w,.endpoint_state.twist.linear.x,.endpoint_state.twist.linear.y,.endpoint_state.twist.linear.z,.endpoint_state.twist.angular.x,.endpoint_state.twist.angular.y,.endpoint_state.twist.angular.z,.endpoint_state.wrench.force.x,.endpoint_state.wrench.force.y,.endpoint_state.wrench.force.z,.endpoint_state.wrench.torque.x,.endpoint_state.wrench.torque.y,.endpoint_state.wrench.torque.z,.joint_state.header.seq,.joint_state.header.stamp.secs,.joint_state.header.stamp.nsecs,.joint_state.header.frame_id,.joint_state.name,.joint_state.position,.joint_state.velocity,.joint_state.effort,.wrench_stamped.header.seq,.wrench_stamped.header.stamp.secs,.wrench_stamped.header.stamp.nsecs,.wrench_stamped.header.frame_id,.wrench_stamped.wrench.force.x,.wrench_stamped.wrench.force.y,.wrench_stamped.wrench.force.z,.wrench_stamped.wrench.torque.x,.wrench_stamped.wrench.torque.y,.wrench_stamped.wrench.torque.z,.tag
0,361.658273,36174.5,1518247207.0,19971487.0,,2158990.5,1518247207.0,19971487.0,,0.749205806322,-0.284967864035,0.112834907354,-0.0358882210263,0.999344025315,0.000847043693024,0.0047207393517,-0.0594720515546,0.0478963338395,-0.0646387962776,0.004290337521,0.121265960269,0.0916269624369,2.50871837139,1.1251770258,4.31747221947,-0.169644676149,0.887832015754,0.3130094558,1506524.0,1518247207.0,22033175.5,,,,,,301759.5,1518247207.0,26309735.5,,-0.968000003694,-0.508999989927,0.0270000118762,0.00249999971129,0.0240000011399,-0.0065000000759,3.0
1,361.760837103,36182.5,1518247207.0,104977404.0,,2158999.0,1518247207.0,104977404.0,,0.744972741236,-0.281414194924,0.106065862974,-0.0386868324752,0.99925033905,0.00128425056869,0.000389045791618,-0.0453329151253,0.0431301112348,-0.073630568212,0.0107152142585,0.0899769835287,0.0675902936482,2.70784628392,1.00215029716,4.93345880508,-0.120587006211,1.11800152064,0.26992419362,1506530.5,1518247207.0,103033157.0,,,,,,301768.0,1518247207.0,110582044.0,,-0.608000009879,-1.46400001422,0.1870000083,0.00799999956506,0.00700000015785,0.0159999998286,3.0
2,361.863401205,36195.5,1518247207.0,229975303.5,,2159011.5,1518247207.0,229975303.5,,0.739694721545,-0.276705531918,0.0977580610644,-0.0440626593052,0.999017456965,0.000652461177382,-0.00470123675279,-0.0466128060609,0.0150912819191,-0.0734193461898,-0.0286803722379,0.0903977690114,0.0756964988383,3.02002739906,0.65324434638,5.01437520981,0.0359510071576,1.24525719881,0.314408063889,1506539.0,1518247207.0,233017892.5,,,,,,301780.0,1518247207.0,231721205.0,,0.297000011802,-0.834000000358,0.441999973729,0.0149999996647,0.0,0.00800000037998,3.0
3,361.965965308,36205.5,1518247207.0,329977217.0,,2159021.5,1518247207.0,329977217.0,,0.736783113898,-0.274593192875,0.0926949782626,-0.0463801467238,0.99889590729,0.00015217050432,-0.0074692889544,-0.0390100608907,0.0262807051826,-0.0567070874565,0.0104316167144,0.0708674043876,0.00362410515765,1.85523015261,0.731253653765,5.80174612999,0.0756365731358,1.03114533425,0.29751625657,1506546.0,1518247207.0,333033298.0,,,,,,301790.5,1518247207.0,336916685.0,,-0.313000000641,-2.14899998307,0.657000007108,0.00800000037997,-0.00050000008196,0.0269999997691,3.0
4,362.06852941,36214.5,1518247207.0,419491369.5,,2159030.5,1518247207.0,419491369.5,,0.73302590538,-0.272038223471,0.0897668731398,-0.0476927206193,0.998797992506,0.000440204321243,-0.0113005727886,-0.0366942178781,0.0272381411041,-0.0341645972191,0.0012332276584,0.0692447647865,0.0477893391914,3.95239448547,1.22214531899,5.02893781662,-0.222771104425,1.7144870758,0.274837628007,2159375.5,1518247207.0,417549095.5,,,,,,301799.5,1518247207.0,427675979.5,,-1.87300000488,-0.999000006914,-0.162999985739,0.0085000002291,-0.00500000035392,0.0,3.0
5,362.171093513,36226.5,1518247207.0,539974022.5,,2159042.5,1518247207.0,539974022.5,,0.729249756218,-0.272368848554,0.0862300097084,-0.0500313744807,0.998634156683,-0.00127633628656,-0.0149986294743,-0.0158642699012,0.00445757165251,-0.0189134652782,-0.0393712861808,0.0300592459752,0.0618765686011,3.25540626049,1.03753912449,4.34782719612,-0.0923635363581,1.24743056297,0.239135444164,853733.5,1518247207.0,542999936.0,,,,,,301811.5,1518247207.0,547201975.5,,-0.913000011445,-2.13399999738,0.517000021413,0.00299999956045,0.00950000016018,0.00999999977648,3.0
6,362.273657615,36233.5,1518247207.0,609980977.0,,2159049.5,1518247207.0,609980977.0,,0.728964679527,-0.271367493498,0.0836980585949,-0.0518098018537,0.998544136082,-0.00223917654103,-0.014842612211,0.0176872114778,0.00412225712824,-0.033568258421,0.00602876353936,-0.0497750787922,-0.00195324820212,3.42163538933,1.12643897533,4.47007489204,-0.0531823486089,1.33959710598,0.26915743947,1506566.0,1518247207.0,611033021.5,,,,,,301819.0,1518247207.0,621004805.5,,-1.11799997985,-2.64399998784,0.662000061944,0.00950000016019,-0.0034999998752,0.00600000005215,3.0
7,362.376221718,36245.5,1518247207.0,729991578.5,,2159061.5,1518247207.0,729991578.5,,0.729431009569,-0.268989873238,0.0798358124802,-0.0509236487494,0.998612266141,-0.00095515016857,-0.0133900260235,-0.0165694221118,0.0263383887358,-0.0292831534856,0.0189892828881,0.0168137988681,0.0239844636729,1.29466801882,1.17964100837,4.48936223983,-0.166118331254,0.634980201722,0.23621391505,1506573.5,1518247207.0,731023094.0,,,,,,301830.5,1518247207.0,738006184.0,,-1.0230000034,-1.56400000453,-0.182999996468,0.00749999983235,0.00399999995715,-0.00350000010803,3.0
8,362.478785821,36255.5,1518247207.0,829973004.0,,2159071.5,1518247207.0,829973004.0,,0.7253036196,-0.268549735605,0.0760191869979,-0.0526742212064,0.998449994011,-0.00148972975312,-0.017911047079,-0.038060762367,0.0132265479137,-0.0383793045986,-0.0235004801473,0.0748454631819,0.0553088108362,1.97923505306,1.14516294003,4.19556713104,-0.2486192137,0.886812627315,0.238943099976,1506580.5,1518247207.0,831539475.0,,,,,,301840.5,1518247207.0,837115454.0,,-1.89300004541,-0.403999993205,-0.577999996021,0.0260000005364,0.0135000001173,-0.0129999998026,3.0
9,362.581349923,36266.5,1518247207.0,939495184.0,,2159082.5,1518247207.0,939495184.0,,0.722753360026,-0.267213187446,0.0718444478613,-0.0536808085921,0.998344671677,-0.00110062045952,-0.0206147382447,-0.0343289089057,0.0191848008442,-0.0454148548903,0.0221020312819,0.0675505275383,0.0235291318282,2.8255546093,1.32010906935,3.85437142849,-0.17495521903,1.07081285119,0.25184352696,853749.5,1518247207.0,946499968.0,,,,,,301851.5,1518247207.0,948040574.0,,-0.932999992373,-3.26899998784,0.226999999955,0.0,-0.0090000004857,0.019499999471,3.0
10,362.683914026,36277.5,1518247208.0,54004847.0,,2159094.0,1518247208.0,54004847.0,,0.722592920974,-0.266012021137,0.0670050594189,-0.0553938221817,0.998256058423,-0.00128563344386,-0.0203645140736,0.00383360489249,0.016187013743,-0.0430669849629,-0.0169427602392,-0.00448931715715,0.0695637558145,2.61654496193,1.28000736237,5.13310194016,-0.353157281876,1.2184997797,0.234555959702,853753.5,1518247208.0,48000000.0,,,,,,301862.5,1518247208.0,58656605.5,,-0.808000007272,-1.79900001884,0.257000030949,-0.00800000014714,0.0260000005364,0.020499999635,3.0
11,362.786478128,36284.5,1518247208.0,124485052.0,,2159101.0,1518247208.0,124485052.0,,0.722666578522,-0.266470339106,0.0648726976181,-0.0567271197045,0.998182865697,-0.002302654552,-0.0201853920006,-0.00783132853765,-0.00284649554506,-0.0409115322907,-0.0288962937486,0.0124209658128,0.0401526283756,2.25536179543,0.980673730373,4.41996097565,-0.056536450982,1.07480823994,0.223910018801,2159446.0,1518247208.0,122544343.5,,,,,,301869.5,1518247208.0,128228824.5,,-0.878000000119,0.900999969246,0.481999995187,0.0155000002123,0.020499999635,-0.0310000004247,3.0
12,362.889042231,36297.5,1518247208.0,249974144.5,,2159113.5,1518247208.0,249974144.5,,0.722120070726,-0.265553781993,0.0605866580314,-0.0569751766356,0.998158161602,-0.00166495074661,-0.0207677740645,-0.00074487745036,0.0172483981568,-0.0237296749416,0.0144539544759,0.00994771462106,0.0126300227311,2.45148962736,1.2947627306,3.73794269562,-0.284283056855,0.918765842913,0.189746968448,853761.5,1518247208.0,250499968.0,,,,,,301882.5,1518247208.0,259440861.5,,-0.942999997734,-2.52399998307,-0.297999991104,0.0185000002384,-0.00499999988824,0.0209999997169,3.0
13,362.991606333,36305.5,1518247208.0,334479531.0,,2159122.5,1518247208.0,339483948.0,,0.721725699013,-0.263563106795,0.0573509721328,-0.0563935483223,0.998189911976,-0.000907694558239,-0.0208725897844,-0.00866441603389,0.0166292228504,-0.0391131190604,0.0209140632101,0.0187186314132,-0.0327002402986,1.71375727653,1.13917213678,4.0892560482,-0.273675426841,0.724605381489,0.187125720084,1506616.0,1518247208.0,338531095.0,,,,,,301890.5,1518247208.0,337725316.5,,-1.62299997509,-1.65900000334,-1.3129999917,0.0415000002831,-0.0319999996572,-0.0065000000759,3.0
14,363.094170436,36314.5,1518247208.0,419483571.0,,2159130.5,1518247208.0,419483571.0,,0.720977543453,-0.262932307023,0.0544205581722,-0.05675864337,0.998147027096,-0.000347248197702,-0.0219279151429,-0.011153462163,0.00244212138074,-0.0309743645748,0.0224924677534,0.0393479777306,-0.00665403939151,2.33802902699,0.746091753244,4.37665557861,-0.0393930710852,0.855033308267,0.203768469393,2159475.5,1518247208.0,417550125.5,,,,,,301899.5,1518247208.0,428465419.5,,-1.54299996197,-1.88899999261,0.317000003531,-0.0145000000484,0.0310000004247,0.00150000007124,3.0
15,363.196734538,36326.5,1518247208.0,539972463.0,,2159142.5,1518247208.0,539972463.0,,0.722029220014,-0.261798022836,0.0507415771033,-0.0569865945444,0.998163751186,0.00056131953361,-0.0205253225086,0.0218227682487,0.0135027052284,-0.0414655979165,-0.00037438459475,-0.0552663444458,0.0445374636112,3.52130520344,0.995740264656,4.2298874855,-0.279495641589,1.54596954584,0.214386165142,1506630.0,1518247208.0,540013005.5,,,,,,301911.5,1518247208.0,549574183.0,,-2.30799994766,-2.09899997115,0.0719999987635,0.0180000001564,0.0260000005364,-0.0164999999106,3.0
16,363.299298641,36338.5,1518247208.0,663985219.0,,2159155.0,1518247208.0,663985219.0,,0.723660780341,-0.262226041073,0.047232597413,-0.0574833485474,0.998174803273,0.000289990959802,-0.0185106092837,-0.00666562337195,0.0187643314547,-0.0314712629582,0.00513158087945,0.010948312925,0.0148862927818,1.71811878681,0.889699459076,4.09677696228,-0.0850952640176,0.858594596386,0.211951091886,1506639.0,1518247208.0,661532120.5,,,,,,301923.5,1518247208.0,668723429.5,,-1.79299996197,-0.923999996481,0.0670000035316,-0.00400000013178,-0.0214999997988,-0.00450000015553,3.0
17,363.401862744,36346.5,1518247208.0,739978458.0,,2159162.5,1518247208.0,739978458.0,,0.723062245624,-0.262602639886,0.0450653503035,-0.0570789380397,0.998183496708,0.000497440209369,-0.019271970342,-0.0115625638576,-0.0184922985222,-0.0331568334546,-0.0129810460528,0.0340963044889,-0.0161768750657,3.28068983555,0.691049844027,3.48973584175,-0.0462174005806,1.3839546442,0.185007169842,1506644.0,1518247208.0,741035094.5,,,,,,301931.5,1518247208.0,749033168.0,,-0.952999988199,-1.34900000096,-0.427999986336,0.0055000000866,-0.0105000003241,0.00250000011874,3.0
18,363.504426846,36358.5,1518247208.0,859973472.0,,2159174.5,1518247208.0,859973472.0,,0.723627785855,-0.263706698417,0.0409339146643,-0.056069814583,0.998248680132,0.000539127934535,-0.0188528519329,0.00569742357414,-0.0214048496763,-0.0509796019006,0.00562147528559,-0.0005862866538,-0.0490819435119,3.57020747661,0.971460342407,3.12506318093,-0.20990203321,1.36102259159,0.17879639566,1506653.0,1518247208.0,863033841.0,,,,,,301943.5,1518247208.0,868540112.0,,-1.96299997866,-0.543999993802,-0.242999998852,0.00350000010803,0.0230000000447,0.00200000032781,3.0
19,363.606990949,36366.5,1518247208.0,939989946.0,,2159182.5,1518247208.0,939989946.0,,0.726617789006,-0.264881336482,0.0375539329974,-0.0546181024368,0.998385490249,-0.000347006746288,-0.0155795662031,0.0303296407705,-0.0526330567585,-0.0458546372456,-0.0398927269291,-0.0636707491155,-0.0646062226983,2.2606074214,0.663237154483,4.57570815086,-0.0109283775091,1.19050306082,0.189902730286,1506658.0,1518247208.0,943032765.0,,,,,,301951.5,1518247208.0,948926498.5,,-0.437999995053,-1.11899998188,0.317000003531,-0.00150000001303,0.00399999984075,0.0224999999627,3.0
20,363.709555051,36378.5,1518247209.0,59483323.0,,2159194.5,1518247209.0,59483323.0,,0.726957478977,-0.265539287668,0.0361690124463,-0.0525826296615,0.998492527355,0.000651241139689,-0.015725644682,0.00338543612865,-0.0117681632406,0.00559261379164,-0.041332188336,-0.0080409385409,0.0184510625129,3.35816979408,1.04652357102,0.296690680087,-0.395231649279,1.29854750633,0.196508839727,2159539.5,1518247209.0,57572344.0,,,,,,301963.5,1518247209.0,68337417.5,,0.666999986768,-0.909000008926,-3.78799992613,-0.177500002087,0.121500000357,-0.0240000002087,-1.0
21,363.812119154,36390.5,1518247209.0,184490582.0,,2159207.0,1518247209.0,184490582.0,,0.727096409288,-0.264909964675,0.0362616988683,-0.0532757105175,0.998458503964,0.000567685956934,-0.0155541306651,0.00399254233772,0.00639223590771,0.00133885543355,-0.00299630729614,-0.0114474474643,0.00945690518902,3.12958657742,0.862183392048,0.748576283455,-0.158110331744,1.21067094802,0.229554474354,2159551.5,1518247209.0,178072236.5,,,,,,301975.5,1518247209.0,189916947.5,,0.147000000254,-1.47400002144,-4.38299995474,-0.171499997377,0.103500001133,-0.0239999992773,-1.0
22,363.914683256,36397.5,1518247209.0,253984498.0,,2159214.0,1518247209.0,253984498.0,,0.727417549403,-0.265755888461,0.03596676331,-0.0526556787569,0.998495557837,8.83153684626e-05,-0.0152968191129,0.006708096958,-0.00120292063642,0.00254827175244,0.00602785235022,-0.0229670564862,-0.00533485264352,2.39944767952,0.962083160877,0.432875394821,-0.204666256905,0.78820759058,0.199249401689,1506679.0,1518247209.0,245038268.5,,,,,,301982.5,1518247209.0,259966558.0,,-0.163000003993,-0.453999995812,-4.21299999766,-0.210000000894,0.195500001311,-0.0425000004471,-1.0
23,364.017247359,36407.5,1518247209.0,349983582.0,,2159223.5,1518247209.0,349983582.0,,0.727274509304,-0.26557294518,0.0361427413314,-0.0527443749042,0.998490191842,0.000369101435184,-0.0153371795126,0.00319015022093,0.00184553466485,0.00480401700136,-0.00197875963543,-0.00819411038002,0.0193981573307,3.4473502636,1.09285968543,0.456246852875,-0.263741150498,1.19178915024,0.207123272121,1506686.0,1518247209.0,346033813.5,,,,,,301992.5,1518247209.0,359005719.0,,0.092000003345,-1.89900001287,-3.39300006442,-0.130999997259,0.117499999702,-0.0324999997392,-1.0
24,364.119811462,36418.5,1518247209.0,459971509.0,,2159234.5,1518247209.0,459971509.0,,0.727169365435,-0.265672690135,0.0362265685005,-0.0528410025097,0.998482909064,0.000290834384665,-0.0154754527609,-0.00333374707571,-0.00585719894999,0.00228470170439,-0.00950611234904,0.00408964744234,-0.0122733748309,3.34616351127,1.04820215702,0.460616096855,-0.249655000866,1.15627640485,0.183953367174,853809.5,1518247209.0,465500032.0,,,,,,302003.5,1518247209.0,468341199.5,,0.186999997497,-1.0439999938,-4.29300004058,-0.206000000239,0.159999996423,-0.0224999999627,-1.0
25,364.222375564,36431.5,1518247209.0,593995450.5,,2159248.0,1518247209.0,593995450.5,,0.727845993381,-0.264905495537,0.036604569934,-0.0531140315324,0.998480399409,0.000447774060785,-0.014672207501,0.0110556164216,0.0103932371456,0.00886743684859,0.0106294023535,-0.0205210941923,-0.00419361321008,3.11687457562,1.0543602109,0.495137065649,-0.263205260038,1.07048541308,0.183937154711,2159592.0,1518247209.0,582029065.0,,,,,,302016.5,1518247209.0,600053623.0,,-0.368000002205,-2.11400001645,-3.62300008349,-0.16400000453,0.161499999464,-0.0329999998211,-1.0
26,364.324939667,36440.5,1518247209.0,683983286.0,,2159257.0,1518247209.0,683983286.0,,0.727541898439,-0.265456732857,0.0363287460347,-0.0528865949136,0.998487918325,0.000211361536316,-0.0149933768106,-0.00832507648352,-0.00884553786292,-0.00265472589791,-0.00218735326127,0.0190729842032,-0.00476561962245,3.039655447,1.15656477213,0.649344980717,-0.281877458096,1.0637062192,0.175492137671,1506710.0,1518247209.0,678537451.5,,,,,,302025.5,1518247209.0,690659830.0,,0.186999997497,-0.33899999559,-4.95299988798,-0.237999998033,0.191500000655,-0.0409999992698,-1.0
27,364.427503769,36449.5,1518247209.0,774481708.5,,2159266.0,1518247209.0,774481708.5,,0.727454455027,-0.265319270384,0.0361815263412,-0.0530358649154,0.998477312201,0.000311373277264,-0.0151642404777,0.00639075732912,-0.000479957150635,-0.000196192177445,-0.00419353570868,-0.00963722110987,0.00305321870522,3.05929076671,1.05089980364,0.587123066187,-0.193937569857,1.04066202045,0.199752688408,1506716.5,1518247209.0,774540008.5,,,,,,302034.5,1518247209.0,779473807.0,,0.481999984384,-1.61400001645,-3.50800007395,-0.108000002802,0.136999994516,-0.0365000003948,-1.0
28,364.530067872,36462.5,1518247209.0,899976171.5,,2159278.5,1518247209.0,899976171.5,,0.727177740236,-0.265844708382,0.0360963371787,-0.0527194579567,0.998489183056,0.000177658720931,-0.0154813144212,-0.00339231983386,-0.00190980860949,-0.00479192497257,-0.00880119771632,0.00769825292543,0.00648435000705,3.32688939571,1.24399924278,0.546724021435,-0.328456610441,1.14666068554,0.170002751052,1506724.5,1518247209.0,897033244.5,,,,,,302047.5,1518247209.0,909501757.0,,0.106999991834,-1.24399999678,-4.16800004057,-0.107499998063,0.128499999643,-0.0294999992475,-1.0
29,364.632631974,36470.5,1518247209.0,979978640.0,,2159286.5,1518247209.0,979978640.0,,0.727599014848,-0.265368272808,0.0363599904007,-0.0525091353086,0.998509234287,0.000595950691103,-0.0148883478904,0.00664119756662,0.00414678268192,0.00326244739472,0.0009853531025,-0.0121527754177,0.0138294136482,3.10733342171,1.16632986068,0.580999016762,-0.296822682023,1.05099076032,0.175168670714,1506731.0,1518247209.0,980029242.0,,,,,,302055.5,1518247209.0,989982368.0,,0.206999993324,-1.20399999023,-3.93300002627,-0.117000002414,0.134000003338,-0.0374999996275,-1.0
30,364.735196077,36478.5,1518247210.0,64481180.0,,2159295.0,1518247210.0,64481180.0,,0.727244084711,-0.265154491339,0.0360298117295,-0.0527509725247,0.998489190694,0.0007362052194,-0.0153651645516,0.00740432234305,0.00387863034079,0.00286514549416,-0.00050115949348,-0.0125217551127,0.0013647747271,2.92631852627,1.18443316221,0.643084913493,-0.300603851676,1.00186285377,0.167646594345,1506737.0,1518247210.0,67512308.5,,,,,,302063.5,1518247210.0,72342576.0,,1.08699997366,-1.41399999857,-4.55800002627,-0.156499996782,0.16400000453,-0.00700000009964,-1.0
31,364.837760179,36492.5,1518247210.0,199975014.5,,2159308.5,1518247210.0,199975014.5,,0.727476224205,-0.265334510405,0.0360505928628,-0.0525410434578,0.998503834137,0.000712936597212,-0.0151201496367,0.0030345806082,0.00653001846776,0.00222239845736,-0.00336898059846,-0.006729434968,0.0061678886008,3.1209255457,1.38261878491,0.598310649395,-0.37341940403,1.07766032219,0.177901677787,1506745.5,1518247210.0,198529962.5,,,,,,302077.5,1518247210.0,210241838.0,,1.19700004757,-0.883999992721,-3.95299988799,-0.113499999046,0.129500001669,-0.0254999995232,-1.0
32,364.940324282,36499.5,1518247210.0,269976020.5,,2159315.5,1518247210.0,269976020.5,,0.727113682008,-0.265218138782,0.0359204788238,-0.0526061018027,0.998493945354,0.000665173134871,-0.0155459566389,0.0079203364495,0.000692750175825,0.00459438603779,-0.00315978713413,-0.0174747800636,0.00860681420688,3.3973312378,1.46499729157,0.578556239605,-0.445410653949,1.16412043572,0.163915552199,2159661.0,1518247210.0,273048698.0,,,,,,302084.5,1518247210.0,280232257.5,,0.447000025212,-1.07899997533,-4.39800005965,-0.115499999375,0.138000003993,-0.0449999999255,-1.0
33,365.042888385,36512.5,1518247210.0,403980575.0,,2159329.0,1518247210.0,403980575.0,,0.727500989733,-0.264512856323,0.0363629835561,-0.0539387149339,0.998430809218,0.000235540278079,-0.0150492111259,-0.0115833187872,0.0185547879447,-0.00671363335005,0.00630580439985,0.0258193772283,0.0208793293295,3.34784531593,1.54977822304,0.715189158916,-0.444952994585,1.16959035397,0.161771178246,2159672.0,1518247210.0,383036222.0,,,,,,302097.5,1518247210.0,410229609.5,,0.832000008226,-1.54899998904,-3.44799989275,-0.155000001192,0.148999996483,-0.0135000003502,-1.0
34,365.145452487,36520.5,1518247210.0,479976034.0,,2159336.5,1518247210.0,479976034.0,,0.727556790664,-0.265156135978,0.0363693855187,-0.0525638426803,0.998503694219,0.000413728358897,-0.0150647710909,-0.00859454681734,-0.00348471396839,-0.00535631933822,0.00107195228714,0.0166326085339,-0.0107210626228,3.18902039528,1.50792402029,0.64212808013,-0.410359248519,1.09828060866,0.179655373096,1506766.0,1518247210.0,482523015.0,,,,,,302105.5,1518247210.0,490574018.5,,0.786999991534,-1.17900001407,-3.78799992613,-0.175499998033,0.162500001491,-0.0580000001937,-1.0
35,365.24801659,36532.5,1518247210.0,599972206.0,,2159348.5,1518247210.0,599972206.0,,0.727344077097,-0.265259041887,0.036168184608,-0.0528250723654,0.998486435992,0.000492596695901,-0.0152988044892,0.00016502104334,0.00770331421408,-0.00424234690614,0.00966879803425,-0.00245364390293,0.00896328390404,3.25950717926,1.38903969526,0.71144208312,-0.319610089064,1.12959116698,0.215547204017,2159692.0,1518247210.0,583059676.0,,,,,,302117.5,1518247210.0,609793401.5,,0.561999997496,-2.50400000215,-2.79300004057,-0.139499999583,0.142000004649,-0.00649999990128,-1.0
36,365.350580692,36543.5,1518247210.0,709480842.5,,2159359.5,1518247210.0,709480842.5,,0.727352089082,-0.265254961851,0.0359162487662,-0.0529330833486,0.998482067725,0.000409234663761,-0.0152060543844,-0.00401598008463,0.0125865512842,-0.0109222542209,-0.0030792640262,0.00257809838404,0.028015999155,3.02009618282,1.33129405976,0.698489814997,-0.308494478464,1.03398191929,0.19613660872,1506782.0,1518247210.0,704036846.0,,,,,,302128.0,1518247210.0,715047648.0,,-0.0630000025034,-0.724000000954,-4.14800005965,-0.172000005841,0.167999997735,-0.0410000011325,-1.0
37,365.453144795,36554.5,1518247210.0,819986759.5,,2159370.5,1518247210.0,819986759.5,,0.726981127895,-0.265157688269,0.0360384210256,-0.0528928424079,0.998479639926,0.000416501592753,-0.0155086885411,-0.00601064680576,-0.00631233402794,0.00130339443169,-0.00341204251702,0.0129502479683,-5.4398309125e-05,3.04101216793,1.42540061474,0.735396236181,-0.321957796812,1.03117328882,0.209519207477,2159715.5,1518247210.0,818045138.0,,,,,,302139.5,1518247210.0,830468885.0,,0.362000009417,-0.68899998963,-2.69299995713,-0.126000002026,0.133999995888,-0.0235000001267,-1.0
38,365.555708897,36562.5,1518247210.0,904493030.0,,2159379.0,1518247210.0,904493030.0,,0.727362482454,-0.264295912586,0.036217354986,-0.0532825149132,0.998462469871,0.000750958559325,-0.0152586429753,0.00375041994162,-0.00469093557854,0.00557738663128,-0.0119725120481,-0.00703184373953,-0.00271431659585,3.07392370701,1.39535224438,0.68954116106,-0.337254017591,1.06054615974,0.205363936722,1506795.5,1518247210.0,900033543.0,,,,,,302147.5,1518247210.0,910941888.5,,-0.253000000119,-1.13399998248,-2.90799993091,-0.131999999285,0.136500000954,-0.0354999992997,-1.0
39,365.658273,36574.5,1518247211.0,19980262.5,,2159390.5,1518247211.0,19980262.5,,0.727120368071,-0.265509011195,0.0356103902294,-0.0529589959205,0.99847478318,0.000171815694023,-0.015598541984,0.00377512428394,-0.00266616074758,-0.0011172436043,-0.00553014608444,-0.00587918712419,0.0018549465626,3.40806925297,1.21025443077,0.777656495571,-0.203859984875,1.1645821929,0.222014971077,1506803.5,1518247211.0,22533281.5,,,,,,302159.5,1518247211.0,32576923.5,,1.07200004756,-1.40399997831,-1.95800000243,-0.128000002354,0.15000000596,-0.0189999998547,-1.0
