,Unnamed: 0,.header.seq,.header.stamp.secs,.header.stamp.nsecs,.header.frame_id,.endpoint_state.header.seq,.endpoint_state.header.stamp.secs,.endpoint_state.header.stamp.nsecs,.endpoint_state.header.frame_id,.endpoint_state.pose.position.x,.endpoint_state.pose.position.y,.endpoint_state.pose.position.z,.endpoint_state.pose.orientation.x,.endpoint_state.pose.orientation.y,.endpoint_state.pose.orientation.z,.endpoint_state.pose.orientation.w,.endpoint_state.twist.linear.x,.endpoint_state.twist.linear.y,.endpoint_state.twist.linear.z,.endpoint_state.twist.angular.x,.endpoint_state.twist.angular.y,.endpoint_state.twist.angular.z,.endpoint_state.wrench.force.x,.endpoint_state.wrench.force.y,.endpoint_state.wrench.force.z,.endpoint_state.wrench.torque.x,.endpoint_state.wrench.torque.y,.endpoint_state.wrench.torque.z,.joint_state.header.seq,.joint_state.header.stamp.secs,.joint_state.header.stamp.nsecs,.joint_state.header.frame_id,.joint_state.name,.joint_state.position,.joint_state.velocity,.joint_state.effort,.wrench_stamped.header.seq,.wrench_stamped.header.stamp.secs,.wrench_stamped.header.stamp.nsecs,.wrench_stamped.header.frame_id,.wrench_stamped.wrench.force.x,.wrench_stamped.wrench.force.y,.wrench_stamped.wrench.force.z,.wrench_stamped.wrench.torque.x,.wrench_stamped.wrench.torque.y,.wrench_stamped.wrench.torque.z,.tag
0,429.230008,42930.5,1518247274.0,584169504.0,,2165747.5,1518247274.0,589176991.0,,0.752017759831,-0.285042148801,0.114591436087,-0.0350965389852,0.999345522698,0.00180209608178,0.00856562564658,-0.0480975000538,0.0132961447075,-0.0669268764993,0.0052730905585,0.109188772625,0.0271636034431,2.18852069974,1.04230985046,4.58173060417,-0.149806804955,0.962321192025,0.26339623332,2166091.5,1518247274.0,577249417.0,,,,,,308508.5,1518247274.0,585400026.5,,0.175999993086,1.80899997801,-0.32199998796,-0.00249999994411,0.0185000002384,0.0200000004843,3.0
1,429.332572103,42938.5,1518247274.0,664167709.0,,2165755.0,1518247274.0,664167709.0,,0.747953599863,-0.282281509492,0.110280583744,-0.0369040258366,0.99930818784,0.00152335500925,0.00433890822979,-0.0626768888239,0.0515312772118,-0.0633161759723,0.00494373016952,0.126095489636,0.0320932322779,1.68501903117,0.995824873449,4.59491896629,-0.112645559013,0.703038983048,0.230515599251,2166100.0,1518247274.0,662267720.0,,,,,,308517.0,1518247274.0,668958748.0,,0.770999991893,1.8939999789,-0.136999985576,-0.0115000000224,0.00950000039304,0.00050000054765,3.0
2,429.435136205,42949.5,1518247274.0,774173986.0,,2165766.0,1518247274.0,774173986.0,,0.742614923444,-0.279257849292,0.102444526079,-0.0406048088441,0.99917441781,0.000671256550101,-0.00113212490068,-0.0550865408168,-0.00119388335475,-0.0718300964167,-0.0769625550199,0.121266856178,0.073652672408,2.36375308037,0.822189748287,4.80011034012,-0.0180629864335,1.03276205063,0.265779197216,1511252.0,1518247274.0,774621210.5,,,,,,308527.5,1518247274.0,775680511.0,,-0.313999956846,3.94399991632,-0.261999985575,-0.0190000003204,0.0175000000745,-0.0439999997616,3.0
3,429.537700308,42960.5,1518247274.0,879173039.0,,2165776.5,1518247274.0,879173039.0,,0.73803828119,-0.275787327652,0.096557652638,-0.0449250923664,0.998973500904,-0.000307310186502,-0.00578099011218,-0.0501062228291,0.052395911219,-0.0587597787248,0.0123244846298,0.107874847314,0.0693327095015,1.70905330777,0.785732030868,5.25148868561,-0.0324502140284,0.731425195933,0.251236751676,1511259.5,1518247274.0,880127471.0,,,,,,308538.5,1518247274.0,885356700.0,,1.22099999488,1.02899998426,0.447999992967,0.00349999999162,0.00349999964236,0.019999999553,3.0
4,429.64026441,42972.5,1518247275.0,9175303.0,,2165789.5,1518247275.0,9175303.0,,0.734061108811,-0.271936133789,0.0892318130333,-0.0458497139653,0.998898958643,0.00114431876256,-0.00986539855143,-0.0301659943366,0.0219086470183,-0.0550015314561,0.0132528596594,0.0604501397797,0.0026873034469,2.67955595255,0.509878933429,4.78981208801,0.157555401325,1.06620979309,0.262424424291,2166132.0,1518247274.0,982227920.0,,,,,,308550.5,1518247275.0,5545455.0,,1.63599998653,0.438999980688,-0.446999987959,-0.00300000002608,0.0189999993891,0.00449999980628,3.0
5,429.742828513,42979.5,1518247275.0,74214261.0,,2165796.5,1518247275.0,79223818.0,,0.732434535966,-0.270609661425,0.0865973844329,-0.04777449471,0.998794537825,0.000413069127701,-0.011258767815,-0.0248892150957,0.0341860963424,-0.0370750363838,-0.0227779442175,0.0505920939365,0.0856970078463,0.630529418588,0.674362301826,5.45155405998,-0.0232634805143,0.529740095138,0.269268020988,1511273.0,1518247275.0,76147770.5,,,,,,308557.5,1518247275.0,74724003.5,,1.18599999845,0.493999958038,-0.966999994963,0.0065000000177,0.0209999997169,0.0164999999106,3.0
6,429.845392615,42990.5,1518247275.0,184216836.0,,2165807.0,1518247275.0,184216836.0,,0.7281649639,-0.269545528077,0.0831290424083,-0.0498244335601,0.998632700496,-0.000130487626391,-0.0158169529894,-0.0346068622694,0.0129069154288,-0.0331942221456,-0.00326825003001,0.0694737583236,0.0353627197521,3.44324052334,1.15893989802,4.50141263008,-0.173556849361,1.33846151829,0.234097510576,2166152.0,1518247275.0,182297893.0,,,,,,308569.0,1518247275.0,189027527.0,,2.81100001335,0.263999998569,-0.477000018954,0.0185000002384,-0.00099999993108,0.0319999996573,3.0
7,429.947956718,43000.5,1518247275.0,289215971.5,,2165817.5,1518247275.0,289215971.5,,0.728223029598,-0.268365817786,0.0803461474694,-0.0508480279005,0.998598356406,-0.000210359956166,-0.0146877297833,0.0126093453436,-0.0009320304445,-0.0388572953415,0.00416268117303,-0.0590051243715,0.00754184039185,4.22562980652,0.61279475689,4.3753054142,0.0552034862341,1.66799002885,0.272492140532,1511287.5,1518247275.0,282142482.0,,,,,,308579.0,1518247275.0,288738923.0,,1.44599998891,1.62399998307,-0.54200001657,-0.00300000002608,0.0410000011325,0.00800000037998,3.0
8,430.050520821,43011.5,1518247275.0,394244331.0,,2165828.0,1518247275.0,394244331.0,,0.726557908972,-0.267059554565,0.0763525475452,-0.0527630391761,0.99847622198,-0.000652385364332,-0.0161514776596,-0.0160097777364,0.025267175306,-0.0411223944364,-0.00671951993353,0.0262571649774,0.0633637826403,3.45130562782,1.34975004196,4.58292293549,-0.272608011961,1.51525843143,0.211366444826,2166172.0,1518247275.0,382269119.0,,,,,,308589.5,1518247275.0,396287207.5,,1.12100000083,-0.020999997854,-0.626999995113,-0.0209999997169,0.0329999998211,0.0470000002533,3.0
9,430.153084923,43024.5,1518247275.0,524215973.0,,2165841.0,1518247275.0,524215973.0,,0.724156557122,-0.266249347606,0.0717664838628,-0.0545053763346,0.998338372378,-0.00103643155347,-0.0186649616286,-0.0210395422572,-0.00385803379891,-0.0401873072907,-0.0335260508953,0.0355398558142,0.0233497930542,3.60497581959,1.35436749458,4.47090291977,-0.344613194465,1.52154159546,0.191494673491,1511304.5,1518247275.0,527637671.5,,,,,,308602.5,1518247275.0,525339174.5,,0.510999971628,0.763999968767,-0.0519999772309,-0.00200000009499,0.0265000006184,0.0209999997169,3.0
10,430.255649026,43034.5,1518247275.0,624220223.0,,2165851.5,1518247275.0,629216691.5,,0.723308839921,-0.265300140968,0.0673294628404,-0.0538299136997,0.99836009489,-0.000662048954048,-0.0194637607328,0.00348241196653,0.0226519705564,-0.0417238024142,0.00865184695592,-0.0146425015352,-0.0268616412613,3.4713230133,1.10762935877,4.31450319291,-0.24612416327,1.47468793392,0.196730092168,2166196.5,1518247275.0,627302178.0,,,,,,308613.0,1518247275.0,630887001.0,,0.366000050306,-0.886000007391,-0.591999998689,-0.0130000002682,0.0280000008643,0.0289999991655,3.0
11,430.358213128,43042.5,1518247275.0,704226952.0,,2165859.0,1518247275.0,704226952.0,,0.723274420948,-0.264428301803,0.0647673504692,-0.0546503040229,0.998316669452,-0.000295420786306,-0.0194099486983,-0.0140139433757,0.0172388296793,-0.0469262683001,0.0195329295684,0.0249390403232,0.0346765997968,2.57079982757,1.25892555713,4.66200947762,-0.343424275517,1.20766967535,0.197674840689,1511317.0,1518247275.0,699635115.0,,,,,,308621.0,1518247275.0,710034907.5,,1.80599999856,0.619000039996,-0.277000001073,0.00100000016391,0.0099999997765,-0.0130000001518,3.0
12,430.460777231,43053.5,1518247275.0,819216476.5,,2165870.5,1518247275.0,819216476.5,,0.721870550259,-0.263245696362,0.060855412261,-0.0550606883845,0.998262097276,0.000364435629084,-0.020995619464,-0.0346331228791,0.0214290065282,-0.0404299737537,0.0246357075405,0.0865643413572,0.0237670417336,1.85967797041,1.0624076128,4.10674536229,-0.232856437563,0.748198688032,0.186518475414,2166214.5,1518247275.0,807287736.0,,,,,,308632.0,1518247275.0,819257712.0,,0.266000026464,0.91400000453,-0.191999992728,0.0109999999404,0.00800000037998,0.0189999993891,3.0
13,430.563341333,43061.5,1518247275.0,889215161.0,,2165877.5,1518247275.0,889215161.0,,0.721175972076,-0.262937674014,0.0581095945622,-0.0554542328905,0.998229035305,0.00056506060937,-0.0215197837171,-0.00468178096777,-0.00143555203816,-0.0357090919231,0.00720030173658,0.00126464081418,0.0039134379539,3.27315461636,1.01787799597,4.28163218498,-0.279616922141,1.38466155529,0.190673701465,856437.0,1518247275.0,888999936.0,,,,,,308639.5,1518247275.0,896326511.5,,0.900999972223,-0.21099999547,-0.341999998689,0.00749999983236,0.0214999997988,-0.00499999988824,3.0
14,430.665905436,43074.5,1518247276.0,24215116.5,,2165891.0,1518247276.0,24215116.5,,0.721611457166,-0.263010647142,0.0536309214598,-0.0569331827751,0.998158512905,-0.000327153002001,-0.0209287800809,-0.00507738404145,0.00012976638779,-0.0346946148933,-0.0143808353338,0.008694415215,0.0277702961594,1.75035327673,1.03949007392,4.09035563469,-0.273711159825,0.676564440134,0.15882974118,1511339.0,1518247276.0,26145595.5,,,,,,308652.5,1518247276.0,25885074.5,,0.650999987126,0.513999968767,-0.137000015378,0.0015000002459,0.00500000012106,0.0109999999404,3.0
15,430.768469538,43083.5,1518247276.0,109220257.5,,2165899.5,1518247276.0,109220257.5,,0.721673278472,-0.263709793965,0.0509683731723,-0.0563019731468,0.998195273131,-0.000379464355161,-0.0208819553742,0.00233452863096,-0.00798985634471,-0.0332998191538,-0.00237687407939,-0.010399317139,-0.0140988781809,3.14675092697,1.26059937477,3.88385272026,-0.303534775973,1.24639350176,0.16704505682,2166245.0,1518247276.0,112278295.0,,,,,,308662.0,1518247276.0,121340420.5,,-0.188999956846,0.928999990224,0.308000007272,0.00349999999162,0.0144999995828,0.0224999999628,3.0
16,430.871033641,43095.5,1518247276.0,229220352.5,,2165912.0,1518247276.0,234220229.0,,0.723312248428,-0.263508262547,0.0469956629906,-0.0557463510472,0.998263598039,4.54033064178e-05,-0.0190297428556,0.00488548541242,-0.0129362055712,-0.045266795719,0.0207004445804,-0.00402916018056,-0.0472270510706,2.77409338951,0.95220720768,3.79784965515,-0.170446783304,1.10544073582,0.162201315165,2166257.0,1518247276.0,232300684.0,,,,,,308673.5,1518247276.0,236426049.0,,0.775999987126,1.18399998546,0.228000023961,0.0065000000759,-0.00199999997858,-0.0109999999404,3.0
17,430.973597744,43102.5,1518247276.0,304230693.0,,2165919.0,1518247276.0,304230693.0,,0.723081730199,-0.264316388136,0.0441430091796,-0.0550004756468,0.998300515652,0.000215989542587,-0.0192584440528,0.00847885512996,-0.00136016122815,-0.0357520328469,0.00949513798744,-0.0216142754745,-0.0157483613347,2.73748290539,0.97758883238,4.69981312752,-0.227839931845,1.17674934864,0.155105113983,856453.0,1518247276.0,295000064.0,,,,,,308680.5,1518247276.0,305855246.5,,1.43599999287,1.13399998844,0.337999978662,-0.0065000001341,0.00999999977648,-0.0185000002384,3.0
18,431.076161846,43115.5,1518247276.0,434215798.5,,2165932.0,1518247276.0,434215798.5,,0.723133029625,-0.264954117183,0.039729875085,-0.0530384082753,0.998403411929,-0.000125504286659,-0.0194280620958,0.0161529054491,-0.011895594133,-0.0337351981174,-0.000375960535,-0.0338957652938,-0.074950222814,2.31265103817,0.749826788902,4.00237226486,-0.0480403583497,0.861485689878,0.190529070794,1511367.5,1518247276.0,433134523.0,,,,,,308694.0,1518247276.0,439960366.0,,0.755999976397,1.18399998546,-0.352000018954,-0.0299999993294,0.019999999553,0.0149999996647,3.0
19,431.178725949,43122.5,1518247276.0,504212242.0,,2165939.0,1518247276.0,504212242.0,,0.725600269671,-0.265016123354,0.0376325350681,-0.0530785431078,0.998453492866,0.000266099797287,-0.016529368904,0.0392189355137,-0.0183687679733,-0.0370018738728,0.0152079111807,-0.0935183160971,-0.0461722278202,2.4746427536,0.723279476166,3.4798951149,0.0331549346447,0.976308405399,0.229545101523,856461.0,1518247276.0,497999872.0,,,,,,308700.5,1518247276.0,506982177.5,,0.425999993086,0.553999960422,-0.156999996305,0.00450000027193,0.0290000010282,-0.0154999997467,3.0
20,431.281290051,43134.5,1518247276.0,619216387.0,,2165950.5,1518247276.0,619216387.0,,0.726610851986,-0.266210816289,0.0360682258878,-0.0514503334336,0.998543249076,0.000537680795286,-0.0162397188064,0.0170949139089,-0.0031489735476,0.00365428434602,0.00291436763607,-0.048447009058,-0.00472686153064,3.07609343529,1.03867119551,1.34559169412,-0.262060910463,1.21895062923,0.221610188484,2166296.0,1518247276.0,622271788.0,,,,,,308713.0,1518247276.0,631693990.0,,0.26599996686,0.319000035524,-2.88699992597,-0.166999995708,0.123999997974,-0.00950000016017,-1.0
21,431.383854154,43146.5,1518247276.0,739220938.0,,2165962.5,1518247276.0,739220938.0,,0.726533407233,-0.265240841626,0.0361893192211,-0.0521973850216,0.998505610888,0.000722664338157,-0.0161604821486,-0.00131514603579,-0.00321883905383,0.00704936541703,-0.00205630210241,-0.00278147610691,-0.00116167902873,3.26804220677,1.07856160402,0.658482939005,-0.231410257519,1.17429208756,0.177946791053,856470.5,1518247276.0,744000000.0,,,,,,308724.5,1518247276.0,747568112.5,,1.97599998265,2.58399999142,-4.02200003565,-0.199500001967,0.144000001252,-0.0610000006855,-1.0
22,431.486418256,43155.5,1518247276.0,839224245.5,,2165972.5,1518247276.0,839224245.5,,0.727204630937,-0.265774219195,0.0365498934694,-0.0515216699805,0.998552433717,0.000569449822926,-0.0154339499743,0.00831943428618,-0.0100852232503,0.00356617651316,-0.0045891838201,-0.0125738601865,-0.0146356740815,2.88637113572,1.0083233118,0.533748209477,-0.138919342309,1.01441255212,0.200400076807,2166316.5,1518247276.0,827295202.5,,,,,,308734.0,1518247276.0,840201545.0,,3.33599995971,2.34400001168,-3.33199997842,-0.182999998331,0.159999996424,-0.070000000298,-1.0
23,431.588982359,43167.5,1518247276.0,959219144.0,,2165984.5,1518247276.0,959219144.0,,0.726601623761,-0.26581036794,0.0364173675942,-0.0518896904488,0.998522313742,0.000418201110954,-0.0161302565941,0.00136208155365,-0.00366295900366,0.00254183643772,-0.00619365016735,-0.0086837720753,0.00130199395929,3.00909030437,1.15584248305,0.502110347152,-0.246877200902,1.04791176319,0.197177484632,856479.0,1518247276.0,952999936.0,,,,,,308745.5,1518247276.0,957438886.5,,1.97099999488,0.163999944925,-2.14199998081,-0.133500002324,0.115499999374,-0.0354999992997,-1.0
24,431.691546462,43175.5,1518247277.0,34213306.0,,2165992.0,1518247277.0,34213306.0,,0.726339211959,-0.26545051193,0.0360668643309,-0.0521688951757,0.998502847509,0.000414259720737,-0.0164407506255,0.0126727561042,0.00785853419393,0.00776197360871,0.00192273933744,-0.0287270434865,0.0168760424828,3.61070680618,1.16310095787,0.429808676243,-0.279382228851,1.27096152306,0.156313985586,1511409.0,1518247277.0,31147944.0,,,,,,308753.5,1518247277.0,37114845.5,,0.086000019312,-0.501000016927,-3.85700007379,-0.178999997676,0.152999997139,-0.0429999995977,-1.0
25,431.794110564,43186.5,1518247277.0,149216957.5,,2166003.5,1518247277.0,149216957.5,,0.726314963472,-0.265985139097,0.0361523294665,-0.0519278156164,0.998514855034,0.000268206675695,-0.0164726082566,-0.00555511595,0.0170607606604,-0.00228909382494,0.0103604024945,0.0120922182867,0.0243371402307,3.50501430034,1.08370965719,0.508942201734,-0.209869369864,1.25029790401,0.185091927647,856486.0,1518247277.0,142000128.0,,,,,,308764.5,1518247277.0,146134580.5,,0.550999993086,0.994000010192,-3.10699995458,-0.152999997139,0.141000002623,-0.0545000005514,-1.0
26,431.896674667,43194.5,1518247277.0,229229091.5,,2166011.5,1518247277.0,229229091.5,,0.726817418486,-0.265706458559,0.036319077247,-0.0515019592779,0.998545333899,0.000785672452955,-0.0159408451189,-0.00257178384632,0.0130714520727,0.00183778746077,0.00798252019388,0.00294215563281,0.00475759039755,3.05961370468,1.10451203585,0.546571165323,-0.234072037041,1.06400471925,0.194433838129,2166356.0,1518247277.0,222311852.5,,,,,,308771.5,1518247277.0,222171358.0,,1.19599998891,0.563999980688,-4.08699997366,-0.105500001461,0.133000001311,-0.0469999983907,-1.0
27,431.999238769,43206.5,1518247277.0,344213198.0,,2166023.0,1518247277.0,344213198.0,,0.727306992683,-0.265912089039,0.0362211799106,-0.0516238813473,0.998547955049,0.00055925619269,-0.0153832237823,0.00261057260081,0.0246282895272,0.00254879212488,0.0381431230382,-0.00517650751262,-0.00602141247084,3.29924201965,1.13149762154,0.580293595791,-0.265428632498,1.17520987988,0.173401743174,856494.0,1518247277.0,344000000.0,,,,,,308783.5,1518247277.0,347616938.5,,2.03599999156,0.703999966383,-2.50199999511,-0.112500000745,0.125500001013,-0.0564999990165,-1.0
28,432.101802872,43215.5,1518247277.0,439227536.0,,2166032.5,1518247277.0,439227536.0,,0.726463481389,-0.266273920428,0.0360649968775,-0.0512434872198,0.998552383902,0.000432011916527,-0.0163288832643,0.00950278666382,-0.00493597704638,0.00515793154086,-0.00600209648991,-0.0174695456049,-0.0104898824293,3.42871129513,1.0326974392,0.501998797059,-0.224007755518,1.19478660822,0.16357383132,2166376.5,1518247277.0,427309103.5,,,,,,308792.5,1518247277.0,436591756.5,,1.47099999115,0.368999987841,-3.30700000227,-0.153999999166,0.143500000238,-0.0639999993145,-1.0
29,432.204366974,43229.5,1518247277.0,574224786.0,,2166046.0,1518247277.0,574224786.0,,0.726790574723,-0.266364530637,0.0363434299793,-0.0513680434743,0.998552425091,0.000309925823301,-0.0159462346985,0.00255067088676,0.0068815557261,-0.00136019596007,0.00749090518667,-0.0107507316291,0.00195070606905,3.51166057587,1.0837290287,0.608896017075,-0.221722781658,1.27648341656,0.174767196178,2166391.0,1518247277.0,572321111.0,,,,,,308806.5,1518247277.0,576846646.5,,0.941000008582,0.954000011088,-2.87699999511,-0.13750000298,0.137000001967,-0.0465000011027,-1.0
30,432.306931077,43239.5,1518247277.0,669216968.5,,2166055.5,1518247277.0,669216968.5,,0.726288945493,-0.266282636615,0.0361909221552,-0.0509696916665,0.998564836637,0.000614922931327,-0.0164242422095,-0.00489905252588,0.000224429121315,-0.00835030118978,0.00448851622945,0.0128561188608,0.00630609824897,3.40260279179,1.09063124657,0.65863803029,-0.236177012325,1.20435756445,0.180149063468,2166401.0,1518247277.0,672278753.0,,,,,,308816.5,1518247277.0,679770400.0,,2.12099999339,2.79399999976,-2.75699999035,-0.12799999863,0.138000003993,-0.0384999997913,-1.0
31,432.409495179,43249.5,1518247277.0,774224230.0,,2166066.0,1518247277.0,774224230.0,,0.72583426876,-0.265644349617,0.0354757529063,-0.0518676133839,0.99850864691,0.000383566076285,-0.0170318996515,-0.0101391708244,0.00555312371433,-0.00220376564408,0.00868884927759,0.0188527131579,0.00670651847253,3.43907475471,1.07850968838,0.661734223366,-0.22169610858,1.22848021984,0.187536150217,2166411.0,1518247277.0,772318088.0,,,,,,308826.5,1518247277.0,778394534.0,,0.635999971628,0.488999992609,-2.69199999273,-0.116999998689,0.125,-0.0449999999255,-1.0
32,432.512059282,43259.5,1518247277.0,869220218.5,,2166075.5,1518247277.0,869220218.5,,0.726631349881,-0.265659554552,0.0362110509854,-0.0518331588052,0.998523975425,0.000539523162643,-0.016206514066,-0.00869973274474,0.00171542937861,-0.00312467546416,-0.00873426817065,0.0150271995434,0.00994307317188,3.93249869346,1.18875956536,0.801455497742,-0.277473211288,1.39180105925,0.179285190999,2166421.0,1518247277.0,872271592.5,,,,,,308836.5,1518247277.0,876930972.0,,1.84099999219,1.50899998751,-1.75200002492,-0.10699999705,0.139499999583,-0.0495000015944,-1.0
33,432.614623385,43266.5,1518247277.0,944222227.0,,2166083.0,1518247277.0,944222227.0,,0.726799956138,-0.265594596242,0.0363643557857,-0.0520011127533,0.998519033449,0.000628074577769,-0.0159666288313,0.000714673562605,-0.00414720483885,0.000963893249265,-0.00386682953531,-0.00495354293025,0.00024719820745,4.08963024616,1.15259486437,0.742881298065,-0.305247813463,1.42620903254,0.167092844844,1511472.5,1518247277.0,941143040.5,,,,,,308843.5,1518247277.0,947636065.5,,2.30599998832,0.418999999761,-1.827000013,-0.123500000685,0.14849999547,-0.0245000002906,-1.0
34,432.717187487,43277.5,1518247278.0,49219249.0,,2166093.5,1518247278.0,49219249.0,,0.726799920149,-0.26541924396,0.0363114132761,-0.0521234710613,0.998511615311,0.00038040221906,-0.0160424495599,0.00611222823198,-0.00424817586393,0.00497781705444,-0.00365244746414,-0.00734634001062,-1.2767996565e-05,4.43563938141,1.30162072181,0.756748199463,-0.379929870367,1.56499582529,0.164480492473,856522.0,1518247278.0,51000064.0,,,,,,308854.5,1518247278.0,59263547.0,,1.90100000203,0.533999949694,-1.84699999392,-0.117499999702,0.133999995887,-0.0364999994636,-1.0
35,432.81975159,43291.5,1518247278.0,199221463.0,,2166108.5,1518247278.0,199221463.0,,0.726881436389,-0.265759902304,0.0362327311368,-0.0520708128448,0.998516990459,0.00052183089337,-0.0158771635094,-0.00201472372303,-0.00339224433762,-0.00110204276067,-0.00565544073541,0.00261889920005,0.0123599614326,4.3071205616,1.209628582,0.749648690224,-0.365632712841,1.4899559021,0.17163605988,1511490.0,1518247278.0,192636546.5,,,,,,308868.0,1518247278.0,191738398.0,,0.256000036001,0.543999940157,-1.39200001061,-0.112000003457,0.136999994516,-0.0520000010729,-1.0
36,432.922315692,43298.5,1518247278.0,269225291.0,,2166115.5,1518247278.0,269225291.0,,0.727062863664,-0.266001577828,0.0363808386158,-0.0517295515056,0.998535945872,0.000288734594042,-0.0158090399098,-0.00201579037527,-0.00677302926305,0.00255575426974,-0.00157081890846,0.00411656963934,0.00274567679143,4.27300167083,1.15024811029,0.806424170733,-0.309044197202,1.49607360363,0.168947778642,2166460.5,1518247278.0,267278926.5,,,,,,308873.5,1518247278.0,269151866.0,,0.950999999047,0.253999978304,-1.37199999988,-0.112500000745,0.13599999994,-0.0420000012964,-1.0
37,433.024879795,43311.5,1518247278.0,399214545.0,,2166128.5,1518247278.0,399214545.0,,0.727329006944,-0.266076916516,0.0365626841299,-0.0519267821709,0.998530404507,0.000252925371925,-0.0155046556515,0.00610566883984,-0.00731166211399,0.000887332377573,0.00466168373529,-0.0109894855103,-0.00982205699476,4.13327550888,1.10006982088,0.800153195858,-0.309037059545,1.44519597292,0.187630578875,2166472.0,1518247278.0,382304874.0,,,,,,308887.0,1518247278.0,402171542.0,,2.43599998355,0.594000011683,-2.01199998558,-0.136000007391,0.157000005245,-0.0419999994338,-1.0
38,433.127443897,43319.5,1518247278.0,469224428.5,,2166135.5,1518247278.0,469224428.5,,0.726877019571,-0.266111025552,0.0361969268572,-0.0516744208818,0.998535432767,0.000252608099721,-0.0160113929073,0.00126315012894,-0.00647889085673,-0.00230987391701,-0.00321264479988,-0.00142070776695,-0.00878284433319,4.27924418449,1.18627256155,0.794961243868,-0.364675462246,1.48955881596,0.167182870209,1511510.0,1518247278.0,471134764.0,,,,,,308894.5,1518247278.0,479024934.5,,2.47099997252,0.454000011087,-1.52199997604,-0.107999999076,0.136500000954,-0.0714999996126,-1.0
39,433.230008,43332.5,1518247278.0,604216684.0,,2166149.0,1518247278.0,604216684.0,,0.726588358749,-0.265759193582,0.0359844419089,-0.0519264426798,0.998518005012,0.000424150489733,-0.0162846432852,-0.00202608434556,-0.00644737296287,-0.00220672087277,-0.00542415931919,0.005480576165,-0.0168163027067,4.30850362778,1.0699980855,0.804637104273,-0.286421686411,1.50889390707,0.18447560817,1511518.0,1518247278.0,595139420.5,,,,,,308907.5,1518247278.0,609273397.5,,2.18599999845,0.69399997592,-1.17699999586,-0.111499998718,0.137000001967,-0.0345000009984,-1.0
