,Unnamed: 0,.header.seq,.header.stamp.secs,.header.stamp.nsecs,.header.frame_id,.endpoint_state.header.seq,.endpoint_state.header.stamp.secs,.endpoint_state.header.stamp.nsecs,.endpoint_state.header.frame_id,.endpoint_state.pose.position.x,.endpoint_state.pose.position.y,.endpoint_state.pose.position.z,.endpoint_state.pose.orientation.x,.endpoint_state.pose.orientation.y,.endpoint_state.pose.orientation.z,.endpoint_state.pose.orientation.w,.endpoint_state.twist.linear.x,.endpoint_state.twist.linear.y,.endpoint_state.twist.linear.z,.endpoint_state.twist.angular.x,.endpoint_state.twist.angular.y,.endpoint_state.twist.angular.z,.endpoint_state.wrench.force.x,.endpoint_state.wrench.force.y,.endpoint_state.wrench.force.z,.endpoint_state.wrench.torque.x,.endpoint_state.wrench.torque.y,.endpoint_state.wrench.torque.z,.joint_state.header.seq,.joint_state.header.stamp.secs,.joint_state.header.stamp.nsecs,.joint_state.header.frame_id,.joint_state.name,.joint_state.position,.joint_state.velocity,.joint_state.effort,.wrench_stamped.header.seq,.wrench_stamped.header.stamp.secs,.wrench_stamped.header.stamp.nsecs,.wrench_stamped.header.frame_id,.wrench_stamped.wrench.force.x,.wrench_stamped.wrench.force.y,.wrench_stamped.wrench.force.z,.wrench_stamped.wrench.torque.x,.wrench_stamped.wrench.torque.y,.wrench_stamped.wrench.torque.z,.tag
0,508.00471,50807.5,1518247353.0,354077376.5,,2173624.0,1518247353.0,354077376.5,,0.755577213414,-0.28399019226,0.119193591592,-0.0326101596126,0.9993852174,0.00396531552086,0.0122178619272,-0.0653948106984,0.0230764884369,-0.0377617436923,-0.0478865803993,0.128104036225,0.0812413013867,1.15834208578,1.05881330371,5.41337609291,-0.169952198863,0.685681551694,0.312209099531,1516735.0,1518247353.0,352074477.5,,,,,,316366.5,1518247353.0,364211289.0,,-1.55100002028,-1.72699998878,-0.138000006974,0.0054999999702,0.0154999997466,0.0190000003203,3.0
1,508.107274103,50819.5,1518247353.0,469077021.5,,2173635.5,1518247353.0,469077021.5,,0.749207053854,-0.280805530167,0.113385772554,-0.0369750975254,0.99929546407,0.00257673643144,0.00588034140012,-0.0347783187031,0.0187414780694,-0.0547638130228,-0.0447939138836,0.0503644588129,0.0851393378398,2.40969932079,0.817295789719,4.48306870461,0.0193762630224,1.03226590157,0.336605936289,1516743.0,1518247353.0,471598281.5,,,,,,316378.0,1518247353.0,477353399.0,,-1.70600002147,-1.8969999887,0.187000010908,0.00200000009499,0.0170000009239,0.019999999553,3.0
2,508.209838205,50828.5,1518247353.0,564081092.0,,2173645.0,1518247353.0,564081092.0,,0.745698196841,-0.27876731465,0.107816630497,-0.0395830703365,0.999210123499,0.00232499318373,0.002627555242,-0.0322070506305,0.0140716008394,-0.0547538301519,-0.00353036189711,0.0519938102434,0.0391594234468,0.825985074043,0.764694690704,4.29109716415,0.0221294909716,0.466213107109,0.324387133121,1516749.5,1518247353.0,558593632.0,,,,,,316387.5,1518247353.0,573863758.0,,-1.21599999703,-0.497000008821,-0.987999999149,0.0125000001863,0.0085000002291,0.00899999972901,3.0
3,508.312402308,50836.5,1518247353.0,644081542.0,,2173653.0,1518247353.0,644081542.0,,0.742722179346,-0.276218168814,0.102759803026,-0.0411516436851,0.999148981988,0.00277364490461,-0.000401133918188,-0.0407899123998,0.0488408784769,-0.0607755904291,0.0205976975353,0.0945293180419,0.0687791052729,1.46560895443,0.951001465321,4.17595434189,-0.0583015531301,0.670396208763,0.30013152957,1516754.5,1518247353.0,638572728.5,,,,,,316395.0,1518247353.0,647929444.0,,-1.14099999406,-2.21199997514,-0.768000002206,-0.00400000019,0.022500000894,0.0189999998547,3.0
4,508.41496641,50848.5,1518247353.0,764078880.5,,2173665.0,1518247353.0,764078880.5,,0.737457769267,-0.272929616247,0.0951467893573,-0.0448827461881,0.998970743155,0.00251202931042,-0.00599043164461,-0.0607843176335,0.0188450612143,-0.071385614681,-0.0206400091942,0.140446706907,0.0662476099321,2.78612732887,0.4411136657,5.04263567924,0.210529692471,1.21726596356,0.344542652369,2174009.5,1518247353.0,757159992.0,,,,,,316407.5,1518247353.0,773024450.5,,-0.826000005752,-1.98700000345,-1.45799999982,0.0344999991358,-0.0145000000484,0.0250000003725,3.0
5,508.517530513,50860.5,1518247353.0,884076227.0,,2173677.0,1518247353.0,884076227.0,,0.730849150669,-0.270734076479,0.0875781335562,-0.0482547518842,0.998742049128,0.00206251006536,-0.0134738367087,-0.0635233817778,0.0101925408438,-0.0670892172821,-0.032792858004,0.133796189223,0.0769713393708,2.95959758759,0.885970532894,4.69380664825,-0.0868592113256,1.15405666828,0.29948091507,1516771.5,1518247353.0,879078420.5,,,,,,316419.0,1518247353.0,889216537.0,,-1.63100000359,-1.46699997038,-1.23300000578,0.0260000005364,-0.00550000020303,0.00699999975041,3.0
6,508.620094615,50867.5,1518247353.0,959079077.0,,2173684.5,1518247353.0,959079077.0,,0.728172307871,-0.27050771701,0.083491825258,-0.0492778652427,0.998649208941,0.00179359121142,-0.0163690793559,-0.02468259479,0.0154455917023,-0.0431512897845,-0.00490028181909,0.039351391045,0.0459793731514,3.18613362312,1.04103952647,5.16952204704,-0.175613932312,1.20937621593,0.256982371211,1516777.0,1518247353.0,954075553.0,,,,,,316426.0,1518247353.0,958910894.0,,-1.15099999942,-2.15199998021,-1.13300001361,0.0194999999367,0.0065000000759,0.0109999999404,3.0
7,508.722658718,50881.5,1518247354.0,94080056.0,,2173698.0,1518247354.0,94080056.0,,0.726531824327,-0.268605447366,0.0774230729414,-0.0493525637047,0.998628760034,0.00195007514741,-0.0173528468745,-0.0120413841863,0.00395435556256,-0.0398021367348,0.00347259973586,0.00706309696074,0.0195612908453,2.55225753784,1.00830459595,5.14963960648,-0.339961647987,1.16448712349,0.172699779272,1516786.0,1518247354.0,90064441.0,,,,,,316440.0,1518247354.0,98795460.0,,-0.266000023857,-1.93699998781,-0.572999994457,-0.0140000004321,0.0390000008047,0.0430000014603,3.0
8,508.825222821,50887.5,1518247354.0,154083336.0,,2173704.0,1518247354.0,154083336.0,,0.724487472274,-0.266595483269,0.0761251778474,-0.0508681722908,0.998510603133,0.00257556063047,-0.0195543081264,-0.042646910562,0.0224181149155,-0.030801414962,0.00222945273092,0.0887540412573,0.0432775895563,1.58865869045,0.903822004795,4.87991189957,-0.140652745962,0.800400316715,0.225777477026,859532.0,1518247354.0,148999936.0,,,,,,316445.5,1518247354.0,154464031.0,,-0.0360000047832,-1.69699999132,-1.02299999744,-0.0124999997206,0.0200000000186,0.0240000002087,3.0
9,508.927786923,50901.5,1518247354.0,294080661.0,,2173718.0,1518247354.0,294080661.0,,0.722314742272,-0.266368665294,0.0719720040207,-0.0520439235502,0.998421868147,0.00101892875889,-0.0210709010522,-0.00659759396845,-0.00486771231727,-0.0288057479813,-0.0461120923953,0.00337119918613,0.00440405412175,2.23938524723,1.03065997362,4.28120589257,-0.158092416823,0.96577423811,0.217605285346,1516800.0,1518247354.0,292063659.5,,,,,,316460.0,1518247354.0,298446473.5,,-0.800999997931,-2.73699998856,-0.957999994232,-0.00600000028498,0.00450000015553,0.0370000004768,3.0
10,509.030351026,50912.5,1518247354.0,404073438.0,,2173729.0,1518247354.0,404073438.0,,0.72226886977,-0.265784270008,0.0680830292302,-0.0530659031771,0.998375125746,0.00060553236728,-0.0207545547484,0.00394118085693,0.000244258091603,-0.0159717537237,0.0152639790153,-0.0143468434805,-0.00946326417542,1.88020586967,0.922316670418,4.21173238754,-0.150545299053,0.734321177006,0.204624056816,859542.0,1518247354.0,403000064.0,,,,,,316470.5,1518247354.0,405535621.5,,-0.666000000015,-1.62199999392,-1.22799999565,-0.0055000000284,0.00300000002607,0.0170000009239,3.0
11,509.132915128,50918.5,1518247354.0,464076448.5,,2173735.0,1518247354.0,464076448.5,,0.722034862166,-0.265330053027,0.0660048354798,-0.0532454505995,0.998357784292,0.000985462370039,-0.0211096035266,-0.00144544672255,0.0215435571168,-0.0361911209789,0.0230138814733,0.00476720174559,0.017797679695,0.96183118224,1.29649937153,3.96432173252,-0.373321667313,0.477367457003,0.173712961376,1516812.5,1518247354.0,462588101.0,,,,,,316476.5,1518247354.0,464986572.5,,-0.866000008583,-2.15199998766,-1.23300000578,-0.00999999977647,0.00400000018997,0.0259999996051,3.0
12,509.235479231,50932.5,1518247354.0,604081989.0,,2173749.0,1518247354.0,604081989.0,,0.720532954262,-0.264412377343,0.0604657651698,-0.0534969162711,0.998315292493,0.00186214233382,-0.0223822349177,-0.00335888694834,-0.00053928434225,-0.0382744079649,-0.00612103969829,-0.00810304532837,0.003765472213,2.93522012234,1.13240134716,4.83172130585,-0.333854436875,1.31549337506,0.17820353061,1516821.0,1518247354.0,593565742.5,,,,,,316490.5,1518247354.0,604753887.0,,-0.0660000059752,-3.03699997067,-0.887999999523,0.00600000016855,0.020999999484,0.0360000003129,3.0
13,509.338043333,50941.5,1518247354.0,694080880.0,,2173758.5,1518247354.0,699081363.0,,0.720117062,-0.264003143191,0.0574893647425,-0.0544836650843,0.998254921024,0.00174566231532,-0.0226989636564,-0.0034369155674,0.00988045088845,-0.0363114442724,0.0140680364661,0.0125257965783,0.00565550480724,2.03699350358,0.621765106916,4.17182183266,-0.0613745935262,0.980787098406,0.195342749357,2174102.0,1518247354.0,682133412.0,,,,,,316499.5,1518247354.0,695368047.0,,-0.480999997631,-0.85199999809,-1.32299999445,-0.00250000011874,0.0265000006184,0.00900000007823,3.0
14,509.440607436,50951.5,1518247354.0,794079992.5,,2173768.0,1518247354.0,794079992.5,,0.719809765459,-0.263150161318,0.0540684133633,-0.0546692027135,0.998237289048,0.00252590820401,-0.0229567776254,0.00244218759361,-0.006343244968,-0.0287024075865,0.00197033334005,0.00133424951865,-0.0192467695512,1.51781916619,1.03306597471,4.68546748161,-0.32766982913,0.614158868789,0.147578530014,2174112.0,1518247354.0,782129024.0,,,,,,316509.5,1518247354.0,795937363.5,,-1.23599999286,-1.28699999303,-1.1580000028,-0.000499999616295,-0.0084999995888,0.00050000008196,3.0
15,509.543171538,50963.5,1518247354.0,914078661.5,,2173780.0,1518247354.0,914078661.5,,0.720102218781,-0.264141815664,0.0498074386796,-0.0559388598116,0.998174170201,0.000584132053867,-0.0227690411073,0.00186552354164,-0.0192126913761,-0.0444964569231,-0.0525301438862,-0.003390767938,0.0377971400318,2.6431196928,1.17286968231,4.51999664307,-0.314810566604,1.11877435446,0.181163795292,2174125.0,1518247354.0,912132228.5,,,,,,316522.0,1518247354.0,919128160.0,,-0.956000006574,-2.52699998021,-0.928000006077,-0.00949999975275,0.0210000006482,0.00350000010803,3.0
16,509.645735641,50972.5,1518247355.0,9089594.0,,2173789.5,1518247355.0,9089594.0,,0.720582008031,-0.26433947489,0.0464833105795,-0.0570926325134,0.998115571612,-0.000319109423867,-0.0224793581535,-0.0165662645811,0.00483959984242,-0.0373186199965,-0.0111547811311,0.0354532874986,0.0207868303621,2.1826672554,1.123957932,4.50153040886,-0.279788143933,0.974954634905,0.172707617283,859565.5,1518247354.5,498999936.0,,,,,,316530.5,1518247354.5,505597530.5,,-0.991000002995,0.232999950647,-0.978000004961,-0.0065000001341,0.0195000004023,-0.00400000018999,3.0
17,509.748299744,50980.5,1518247355.0,84077713.0,,2173797.0,1518247355.0,84077713.0,,0.721507801558,-0.263543945592,0.0445238544044,-0.0556040491538,0.998224919441,0.000813374750982,-0.0213199049513,0.019634889998,0.0110503852066,-0.0348846988519,0.016208247665,-0.045935866905,-0.0656212312474,3.18191623688,1.1491189003,4.31443977356,-0.263487875462,1.31346130371,0.185802534223,1516855.0,1518247355.0,81091908.0,,,,,,316539.5,1518247355.0,96014130.0,,-1.12599999718,-2.21699998528,-1.14799999743,0.00350000010803,0.00150000001304,0.0164999999106,3.0
18,509.850863846,50992.5,1518247355.0,204093600.0,,2173809.0,1518247355.0,204093600.0,,0.722570252465,-0.26319096316,0.040695586336,-0.0551610493104,0.998271195866,0.00132083708579,-0.0202517538177,0.0169908781735,0.00372274071453,-0.0210724720262,-0.00762439067125,-0.0302079917422,-0.00349250968634,2.29303455353,0.826819419861,3.79860162735,-0.22317276895,1.03416025639,0.17735914886,1516864.0,1518247355.0,201575809.5,,,,,,316550.5,1518247355.0,205098837.0,,-0.860999992863,-1.73699997366,-1.50299998671,-0.00499999994645,0.0310000004247,0.0200000004843,3.0
19,509.953427949,51000.5,1518247355.0,279095485.0,,2173817.0,1518247355.0,284099938.0,,0.7232935043,-0.264519616533,0.0383032942248,-0.0541391816479,0.998342153637,0.00122923756831,-0.0195033908899,0.0127470032242,0.00209087277899,-0.0469841335229,0.0293463620889,-0.0306845642918,-0.0158964313404,2.77549982071,0.917500138283,3.80956482887,-0.153699681163,1.05036592484,0.194917172194,1516869.0,1518247355.0,282079025.5,,,,,,316559.0,1518247355.0,289218602.0,,-0.256000014767,-1.58699999005,-1.20300000459,-0.0034999998752,0.0185000002384,-0.00350000010803,3.0
20,510.055992051,51013.5,1518247355.0,414078419.0,,2173830.0,1518247355.0,414078419.0,,0.723903922891,-0.264383002207,0.0357269976445,-0.0520179152312,0.998450535912,0.00257717076907,-0.0195964798575,0.000324492448831,-0.00846658237272,-0.000235771536323,0.0224628929638,0.0096190655969,-0.0508880385075,1.5893625021,1.04377031326,0.982418835163,-0.255778849125,0.624429643154,0.195789784193,1516877.5,1518247355.0,398083126.0,,,,,,316572.0,1518247355.0,418678235.0,,-1.12600000836,-2.57699999213,-5.23299982697,-0.143999993801,0.119000002742,-0.0480000004172,-1.0
21,510.158556154,51024.5,1518247355.0,524075984.5,,2173841.0,1518247355.0,524075984.5,,0.724535795502,-0.263821829417,0.0358539940197,-0.0521461890345,0.998463993217,0.00300205182979,-0.0184774240652,-0.00094702052977,0.00797838411624,-0.000238764941631,0.00585596575163,0.00674439910545,-0.00115455776125,2.98179185391,1.39238440991,0.408552974462,-0.245111767202,0.899230480194,0.205146342516,2174186.0,1518247355.0,522145822.5,,,,,,316582.5,1518247355.0,525676249.0,,-0.340999997035,-2.27199998498,-4.30299999863,-0.134999997914,0.154500000179,-0.0400000009685,-1.0
22,510.261120256,51032.5,1518247355.0,609148074.5,,2173849.5,1518247355.0,609148074.5,,0.724224474478,-0.264414365982,0.0358292080185,-0.05169541913,0.998482245642,0.0027702591071,-0.0187865404387,0.00321146658316,0.00330324719167,0.00025259962031,0.0054267196381,-0.00838064292954,0.00740337047119,2.91263616085,1.23144108057,0.337162837386,-0.192399539053,0.890565007925,0.188198328019,859589.5,1518247355.0,605500032.0,,,,,,316591.0,1518247355.0,610213292.0,,0.603999980912,-1.65199998021,-4.80800011307,-0.127000000328,0.188000001014,-0.0480000004172,-1.0
23,510.363684359,51045.5,1518247355.0,734127242.0,,2173862.0,1518247355.0,734127242.0,,0.724213512183,-0.26374668798,0.0355483606518,-0.052349862158,0.99844634701,0.00283026192035,-0.0188778625036,0.0209232726028,0.00700150689107,0.00563709128591,0.0033327874261,-0.047406204917,0.00738148965747,3.25084781647,1.32088470459,0.383503258228,-0.297555059195,1.04822421074,0.180914163589,2174207.0,1518247355.0,732211610.0,,,,,,316603.5,1518247355.0,735467405.5,,0.639000007137,-1.20199999213,-3.19799997956,-0.109999999404,0.138500005007,-0.06950000301,-1.0
24,510.466248462,51052.5,1518247355.0,799133842.5,,2173868.5,1518247355.0,799133842.5,,0.724544311897,-0.264085326925,0.035839520753,-0.0521663346659,0.998463440703,0.00277416710753,-0.0184806513592,-0.00122158115675,0.00527226826039,-0.00612665307406,0.00277540467826,0.00170461018751,0.00682995190326,2.7714496851,1.34779560566,0.346805781126,-0.317748978734,0.851753860712,0.183012932538,1516906.0,1518247355.0,804605656.0,,,,,,316611.0,1518247355.0,811257778.0,,0.0490000184625,-1.42199999094,-5.0330000177,-0.159500002861,0.202500000596,-0.0499999988824,-1.0
25,510.568812564,51065.5,1518247355.0,939119737.5,,2173882.5,1518247355.0,939119737.5,,0.724072759454,-0.264090955229,0.0356587186217,-0.0524248541199,0.998441535228,0.0025388903748,-0.0189594738552,0.00707740531591,-0.00463171422188,0.00315373342079,-0.00656901636842,-0.0160204195049,-0.00267910614664,3.21547353268,1.23104083538,0.335827738047,-0.310669064522,1.03379023075,0.159791253507,2174227.0,1518247355.0,932228848.0,,,,,,316623.5,1518247355.0,936493369.0,,-0.395999996737,-2.07199998945,-3.31799998432,-0.111000001431,0.149000003934,-0.0305000003427,-1.0
26,510.671376667,51072.5,1518247355.5,499124999.5,,2173888.5,1518247355.5,499124999.5,,0.724179782554,-0.26492697087,0.0357021211676,-0.0519044039777,0.998470789057,0.00240179574995,-0.0188721670511,0.00718977857711,-0.0110145321343,-0.000862315984498,0.00359872477464,-0.0156409315519,-0.0278720205534,2.98311257363,1.25353634357,0.223379679025,-0.419859468937,0.911151856184,0.111331038177,859605.0,1518247355.0,999000064.0,,,,,,316630.5,1518247356.0,6143711.0,,-0.126000008359,-3.13199999929,-4.91800000817,-0.166000001133,0.185500003398,-0.0299999993295,-1.0
27,510.773940769,51086.5,1518247356.0,144131522.5,,2173903.0,1518247356.0,144131522.5,,0.724308393887,-0.264426127201,0.0354906849271,-0.0516308730319,0.99848592103,0.00285607809237,-0.0187562268563,0.0020376216896,0.00157431146631,0.0045478681076,-0.00292837773569,-0.00809230169404,0.00186629276696,3.16017460823,1.15207207203,0.350025102496,-0.263086497784,0.995054811239,0.176350273192,1516929.0,1518247356.0,141111697.5,,,,,,316645.0,1518247356.0,149775392.0,,1.18400002383,-0.907000035048,-4.71300008446,-0.182999998331,0.170000001788,-0.0659999996424,-1.0
28,510.876504872,51096.5,1518247356.0,244128385.0,,2173913.0,1518247356.0,244128385.0,,0.724538364599,-0.264634422217,0.0356046630596,-0.0511679854483,0.998513714732,0.00276177657684,-0.0185626330732,-0.00823695552265,0.0103851168948,0.000824099324229,-0.00190250228325,0.00730455217748,0.0403566358812,3.24965119362,1.29583179951,0.348842769861,-0.405864536762,1.01460707188,0.149364411831,1516936.0,1518247356.0,242108210.5,,,,,,316654.5,1518247356.0,246600260.5,,0.769000002369,-2.51199996099,-5.38300016075,-0.186499997974,0.207499995828,-0.0365000003949,-1.0
29,510.979068974,51103.5,1518247356.0,319127207.0,,2173920.5,1518247356.0,319127207.0,,0.723927341046,-0.264815985601,0.03534270935,-0.0517174547518,0.998473182719,0.00276569466172,-0.0192056916294,0.000269147730885,-0.00965625773451,0.0023723171397,-0.00490915955518,0.00452730237785,-0.00921383774766,3.14631354809,1.22237312794,0.376808032394,-0.324580192566,0.984694093467,0.164755620062,1516941.5,1518247356.0,312589634.5,,,,,,316661.5,1518247356.0,316277743.5,,0.0939999904485,-2.85199999809,-4.74799993188,-0.188000001013,0.191500000655,-0.0224999999628,-1.0
30,511.081633077,51115.5,1518247356.0,429130493.5,,2173931.5,1518247356.0,429130493.5,,0.724421638852,-0.264826610747,0.035520154717,-0.0515628421212,0.998491652205,0.00256479276707,-0.0186787978784,-0.000377960125425,-0.010505784087,-0.00784279228666,-0.00188791267228,0.00381948442657,-0.0126871607371,3.2962268591,1.16474294663,0.440324425697,-0.272656530142,1.04209035635,0.169255077839,2174277.0,1518247356.0,432225164.0,,,,,,316673.5,1518247356.0,437875347.0,,0.668999978528,-1.91199997812,-4.33300008923,-0.144999995828,0.192000001669,-0.050000000745,-1.0
31,511.184197179,51124.5,1518247356.0,529122107.0,,2173941.5,1518247356.0,529122107.0,,0.724051387762,-0.264688099283,0.0356758219836,-0.0515679613269,0.998482406781,0.0027161861799,-0.0191366690524,0.0111246185777,-0.00665817759928,0.0100240053909,-0.0143049290396,-0.0246066241285,-0.00198124625111,3.52577149868,1.27519917488,0.435187593102,-0.314833745361,1.12467348576,0.170631848276,1516956.0,1518247356.0,524091876.5,,,,,,316682.5,1518247356.0,526516034.0,,0.359000035748,-1.53699998558,-4.54300000817,-0.167499996722,0.191500000655,-0.0740000009537,-1.0
32,511.286761282,51133.5,1518247356.0,614120118.5,,2173950.0,1518247356.0,614120118.5,,0.724111705493,-0.264780555152,0.0356285024667,-0.0516710790666,0.998482945162,0.00241968268226,-0.0188673109064,-0.0039575844627,-0.00575100819377,0.000874585390849,-0.00190760295124,0.00928533634025,-0.0115228070052,2.29334783554,1.17345267535,1.56848412752,-0.343457832932,0.638826876879,0.143557190895,1516962.5,1518247356.0,614590720.0,,,,,,316691.5,1518247356.0,616774292.5,,0.374000021442,-2.64699998498,-4.24300005585,-0.152500003576,0.195000000298,-0.0430000014603,-1.0
33,511.389325385,51145.5,1518247356.0,739127459.5,,2173962.5,1518247356.0,739127459.5,,0.724305853817,-0.264476424909,0.0357050716804,-0.0519386940219,0.998470568601,0.00257251935604,-0.0187641466761,0.00374309596305,0.00718041546218,-0.00406441230899,0.00103689682865,-0.00860250571092,0.0165791834147,2.26661598682,1.10002028942,1.63694572448,-0.284415274859,0.637898057699,0.141984902322,2174307.0,1518247356.0,732219092.0,,,,,,316703.5,1518247356.0,735941110.5,,-0.0610000107435,-2.51699998975,-3.05799999386,-0.124500002712,0.16099999845,-0.0519999992103,-1.0
34,511.491889487,51156.5,1518247356.0,839134804.5,,2173972.5,1518247356.0,839134804.5,,0.724137382719,-0.264502164819,0.035603102223,-0.0515195856206,0.998489615777,0.00289932283137,-0.0188588769911,-0.00284965378051,-0.00356075036506,-0.00331130818609,0.0103708527035,0.00898565883555,-0.0135836939541,2.19797849655,0.957434833052,1.63844007253,-0.202181473374,0.61450535059,0.16697923094,2174317.0,1518247356.0,832187766.0,,,,,,316714.5,1518247356.0,846725635.0,,-0.456000006571,-0.74200001359,-2.76300003678,-0.122000001371,0.158500000834,-0.051000000909,-1.0
35,511.59445359,51165.5,1518247356.0,934136246.5,,2173982.0,1518247356.0,934136246.5,,0.724606211636,-0.264547147866,0.0359984238351,-0.0515689464381,0.998495938024,0.00285084799635,-0.0183879178716,0.00609361176544,-0.00182164299184,0.00444173966644,-0.00785749219287,-0.00660228448325,0.00990059402148,2.41630864144,1.11090058089,1.60922050476,-0.266623318196,0.70558014512,0.160211466252,859642.0,1518247356.0,932000000.0,,,,,,316723.5,1518247356.0,937319752.5,,0.619000026211,-1.13199999929,-2.56799998432,-0.107999999076,0.138499997556,-0.0604999996722,-1.0
36,511.697017692,51177.5,1518247357.0,59133823.5,,2173994.5,1518247357.0,59133823.5,,0.724314314857,-0.2642767505,0.0359697326852,-0.0519590987039,0.998467677893,0.00264226129736,-0.0188371598348,0.0251968405015,-0.00237456904764,0.0164789199629,-0.00721990176167,-0.0501473866013,0.0217562536275,2.19969809056,0.977326750756,1.50989139081,-0.225748181343,0.596518367529,0.163383923471,2174338.5,1518247357.0,47192566.5,,,,,,316735.5,1518247357.0,58840279.0,,1.80400002859,-1.59699998796,-3.14799990803,-0.124499998987,0.168999999762,-0.0499999988824,-1.0
37,511.799581795,51188.5,1518247357.0,164137839.0,,2174005.5,1518247357.0,169134024.5,,0.724688261768,-0.26532206767,0.0359533287215,-0.0514405287493,0.998505284158,0.00234210677214,-0.0183124230691,0.00324387353409,-0.00329409910563,0.00871265620077,0.00111467311178,-0.00731790047359,-0.00573344601462,2.24220371246,1.0759382844,1.66053634882,-0.255061820149,0.636592626572,0.1587414518,2174350.0,1518247357.0,162175075.0,,,,,,316746.5,1518247357.0,168203139.5,,0.588999995216,-2.80199998617,-3.81799998433,-0.094999998808,0.155500002205,-0.0410000011325,-1.0
38,511.902145897,51199.5,1518247357.0,274144394.0,,2174016.5,1518247357.0,279138402.0,,0.724471206484,-0.264543648377,0.0354841353782,-0.0515320248543,0.99849525777,0.00269683167157,-0.0185549302714,0.00502806823158,0.00294516707329,-0.000932405694563,-0.00338370465028,-0.0107200718554,0.0134671312576,2.50064444542,0.914999306202,1.64442646504,-0.179520368576,0.736656337976,0.173559986055,2174361.5,1518247357.0,277193654.5,,,,,,316757.5,1518247357.0,277028582.0,,-0.741000004858,-1.52699998021,-2.81299992948,-0.119000002742,0.149000003933,-0.0415000002831,-1.0
39,512.00471,51207.5,1518247357.0,349140822.5,,2174023.5,1518247357.0,349140822.5,,0.724339992877,-0.264351866216,0.0357930707156,-0.0516891180357,0.998483128491,0.00285462856732,-0.0187479149356,-0.00600222162704,-0.00426811438683,-0.0110326008786,0.00571167335704,0.0100233128533,-0.00318031115947,2.6990916729,0.965008437633,1.66376304627,-0.16703107208,0.827209174633,0.187019020319,1517014.0,1518247357.0,349604871.0,,,,,,316765.5,1518247357.0,357169967.5,,1.09900004528,-1.54199998081,-4.0179999128,-0.0865000002087,0.153999999166,-0.0625,-1.0
