,Unnamed: 0,.header.seq,.header.stamp.secs,.header.stamp.nsecs,.header.frame_id,.endpoint_state.header.seq,.endpoint_state.header.stamp.secs,.endpoint_state.header.stamp.nsecs,.endpoint_state.header.frame_id,.endpoint_state.pose.position.x,.endpoint_state.pose.position.y,.endpoint_state.pose.position.z,.endpoint_state.pose.orientation.x,.endpoint_state.pose.orientation.y,.endpoint_state.pose.orientation.z,.endpoint_state.pose.orientation.w,.endpoint_state.twist.linear.x,.endpoint_state.twist.linear.y,.endpoint_state.twist.linear.z,.endpoint_state.twist.angular.x,.endpoint_state.twist.angular.y,.endpoint_state.twist.angular.z,.endpoint_state.wrench.force.x,.endpoint_state.wrench.force.y,.endpoint_state.wrench.force.z,.endpoint_state.wrench.torque.x,.endpoint_state.wrench.torque.y,.endpoint_state.wrench.torque.z,.joint_state.header.seq,.joint_state.header.stamp.secs,.joint_state.header.stamp.nsecs,.joint_state.header.frame_id,.joint_state.name,.joint_state.position,.joint_state.velocity,.joint_state.effort,.wrench_stamped.header.seq,.wrench_stamped.header.stamp.secs,.wrench_stamped.header.stamp.nsecs,.wrench_stamped.header.frame_id,.wrench_stamped.wrench.force.x,.wrench_stamped.wrench.force.y,.wrench_stamped.wrench.force.z,.wrench_stamped.wrench.torque.x,.wrench_stamped.wrench.torque.y,.wrench_stamped.wrench.torque.z,.tag
0,294.004142,29409.5,1518247139.0,374492201.0,,2152226.0,1518247139.0,374492201.0,,0.750784713798,-0.285529909092,0.11406716221,-0.0350623516076,0.999360432076,0.000548795477212,0.00699388850533,-0.0500665697319,0.024698580364,-0.039785130402,-0.0200457830625,0.102610598558,0.0334406198412,2.17241156102,1.34560906887,4.92188429832,-0.232833370566,1.00807338953,0.261644221842,2152570.5,1518247139.0,367585329.5,,,,,,295001.5,1518247139.0,378801603.0,,-0.752000018209,-0.215000012516,-0.0280000060796,0.0115000002552,0.0205000001005,0.0365000003949,3.0
1,294.106706103,29417.5,1518247139.0,454493978.0,,2152234.0,1518247139.0,454493978.0,,0.746711856682,-0.282710017947,0.110292932132,-0.0367695666958,0.999319296594,0.000225797770031,0.00294038490189,-0.0392716866075,0.0370386493862,-0.0473363541236,-0.0232350425726,0.0740562551901,0.055550543522,3.38488698006,1.24787425995,4.08410716057,-0.200214847922,1.20535218716,0.310974612832,1501809.5,1518247139.0,448291629.5,,,,,,295009.5,1518247139.0,459160885.0,,-1.02700001672,-0.275000014901,-0.937999995056,0.0324999988079,0.00850000046195,0.0539999995381,3.0
2,294.209270205,29429.5,1518247139.0,569495862.5,,2152245.5,1518247139.0,569495862.5,,0.743248914608,-0.278800465387,0.104140670286,-0.041311606776,0.999145575171,-0.00114739760767,-0.00029005319865,-0.0288109081495,0.0366082778981,-0.0548755296428,-0.0108496276514,0.0439498099156,0.0713709062297,1.75504297018,1.14434289932,4.90863752365,-0.157426971942,0.798248261214,0.279696881771,2152591.5,1518247139.0,577588499.0,,,,,,295021.5,1518247139.0,580590921.0,,-1.21200001165,1.26499996186,-1.5630000025,0.0239999992773,0.0125000001863,0.0109999999404,3.0
3,294.311834308,29436.5,1518247139.0,644493307.5,,2152253.0,1518247139.0,644493307.5,,0.741828937291,-0.277201716351,0.10002476901,-0.0435328805316,0.999049171769,-0.00169161946139,-0.00152337572003,-0.0308819966899,0.0283017847048,-0.0629717990785,-0.0117315755314,0.0590414362983,0.0846278629936,3.18365526199,0.965175956487,5.17718744278,0.0210471637547,1.37156566977,0.301894709468,1501822.5,1518247139.0,639801246.5,,,,,,295028.5,1518247139.0,650285997.5,,-0.562000005692,1.24999997616,-1.33800000846,0.0329999988899,0.00649999990128,0.0275000007823,3.0
4,294.41439841,29449.5,1518247139.0,769497218.5,,2152265.5,1518247139.0,769497218.5,,0.735625049563,-0.273506430148,0.0932553191347,-0.0469254845943,0.998862911856,-0.00109508544255,-0.00834591387349,-0.0516460536154,0.0107411674411,-0.0443967078175,-0.00303105339642,0.112475258601,0.0210577959109,3.60491859912,0.733558923006,5.30798768997,-0.0463885217905,1.51451027394,0.304392412305,2152611.5,1518247139.0,777564577.5,,,,,,295041.5,1518247139.0,780058562.5,,-1.67700001522,2.85499999524,-1.09299998879,0.0169999999926,0.0195000004024,-0.00199999992037,3.0
5,294.516962513,29460.5,1518247139.0,879492909.5,,2152276.5,1518247139.0,879492909.5,,0.732003327966,-0.273123250973,0.0886804746638,-0.0500404134756,0.998664969316,-0.00358665796864,-0.0122989831186,-0.0255198010856,-0.0117035913832,-0.0457164009609,-0.0424672768331,0.0476202882987,0.0394264709013,3.4908913374,0.900288641452,4.59979295731,0.0794798098505,1.36360776425,0.265080697835,2152621.5,1518247139.0,877581869.5,,,,,,295052.5,1518247139.0,889241193.5,,-1.2670000039,2.1,0.0419999867678,0.015500000678,0.0279999999329,-0.0130000002682,3.0
6,294.619526615,29467.5,1518247139.0,949496634.5,,2152283.5,1518247139.0,949496634.5,,0.731221872435,-0.27173607747,0.0855987465305,-0.049563207383,0.998686289167,-0.00290470069248,-0.0126747394402,-0.0187038450795,0.006360463272,-0.0563289689885,0.0132417897139,0.0226459790004,-0.0438349461504,4.82089686394,1.14338892698,4.91660690307,-0.112126417458,1.8879930377,0.224485248327,1501845.0,1518247139.0,957281561.0,,,,,,295059.5,1518247139.0,959367978.0,,-1.88200002834,0.424999958277,0.0769999831913,0.0140000004321,0.0269999997691,0.0280000008642,3.0
7,294.722090718,29479.5,1518247140.0,69502957.5,,2152295.5,1518247140.0,69502957.5,,0.729142824035,-0.269438913021,0.0798647077107,-0.0514888002069,0.998562613516,-0.00225229063025,-0.0146980207683,-0.0191771824924,0.020467340431,-0.0520531312095,-0.00464064429572,0.0288022281051,0.0638555376954,4.80623340607,1.32611209154,4.58476638794,-0.279477626085,2.04120218754,0.247660413385,2152641.0,1518247140.0,72598603.0,,,,,,295071.5,1518247140.0,80755728.5,,-1.97200001702,1.20500001907,-0.702999995649,-0.00249999994412,0.0455000009388,0.0405000001192,3.0
8,294.824654821,29490.5,1518247140.0,179497151.0,,2152306.5,1518247140.0,179497151.0,,0.72641354233,-0.268836812128,0.0755964884058,-0.0524524318623,0.998467109761,-0.00232003638534,-0.0175044583276,-0.0348878611704,0.0301824407377,-0.044783877811,0.0103967254245,0.0716016164552,0.049216090356,1.37799245119,1.33454948664,5.11959409713,-0.326173990965,0.721525013446,0.216908298433,2152651.5,1518247140.0,177597206.0,,,,,,295082.5,1518247140.0,189276467.5,,-0.987000021336,1.43499997854,-0.257999995351,0.00550000043585,0.0290000000969,0.0360000003129,3.0
9,294.927218923,29499.5,1518247140.0,269499756.0,,2152315.5,1518247140.0,269499756.0,,0.724632211585,-0.267824978569,0.0730240523305,-0.0549081343732,0.99830522416,-0.00320631185239,-0.0190059640762,-0.01599927783,0.0130097553664,-0.0360718509354,-0.0143472798974,0.0180732557895,0.0488754330245,3.63264453411,1.11541634798,4.09587836266,-0.0429351218044,1.37968456745,0.25366306305,2152660.5,1518247140.0,267564787.0,,,,,,295091.5,1518247140.0,279969146.5,,-1.89700001404,1.20000002385,-0.743000002205,-0.00199999986216,0.035500000231,0.00649999990128,3.0
10,295.029783026,29511.5,1518247140.0,394502998.0,,2152328.0,1518247140.0,394502998.0,,0.723709006021,-0.266798871097,0.0696599179868,-0.0550436076453,0.998298581685,-0.00291602447121,-0.0190168310884,0.0129153692357,0.0175579684264,-0.022913910523,-0.00427138718335,-0.0485430492872,-0.0202401694388,3.18060851097,1.26740145683,4.46050834656,-0.234194651246,1.46319270134,0.209067523479,2152672.0,1518247140.0,382609299.0,,,,,,295103.5,1518247140.0,399436498.5,,-2.46700000688,0.549999988079,-1.3130000025,0.0175000000745,0.0620000008494,0.0324999997393,3.0
11,295.132347128,29518.5,1518247140.0,464494108.0,,2152335.5,1518247140.0,469493219.0,,0.723488299391,-0.266199830746,0.0665179519356,-0.0545758085557,0.998318014032,-0.00249623673871,-0.019390359381,0.00220174772544,0.00965593526678,-0.0304692218222,0.011186697139,-0.0135000175304,0.003375429566,3.32329177856,1.32165658474,4.59674572945,-0.387936726212,1.46379905939,0.225761070847,2152680.5,1518247140.0,467559703.5,,,,,,295110.5,1518247140.0,469384865.5,,-2.13199999854,-0.100000017882,-1.19799999297,0.00600000051783,0.0484999995679,0.0259999996051,3.0
12,295.234911231,29532.5,1518247140.0,604503409.0,,2152349.0,1518247140.0,604503409.0,,0.722812784567,-0.264753249714,0.0620880285946,-0.0571919366639,0.99815424966,-0.00273814048711,-0.0202405250312,-0.0107782585598,-0.0175079144248,-0.0327908206038,0.00148724757584,0.0369304748732,-0.0432348284119,1.40994048119,1.35559821129,4.28208494186,-0.332298278809,0.504890978336,0.191213339567,1501889.0,1518247140.0,595296926.5,,,,,,295124.5,1518247140.0,609359190.0,,-0.692000015825,-0.744999998806,-1.01299999058,-0.00400000007357,0.050000000745,0.0519999992103,3.0
13,295.337475333,29538.5,1518247140.0,659499099.5,,2152355.0,1518247140.0,664499770.5,,0.72280651656,-0.264528710208,0.059402796139,-0.0565859457844,0.99819123413,-0.00221534609908,-0.020182071398,0.00857374989737,0.0197344847811,-0.0295425098942,0.0234766675301,-0.0124572220338,0.0158325938222,2.73691296577,1.28860598803,4.44103813171,-0.269647821784,1.17884230613,0.201350905001,2152700.0,1518247140.0,662592051.0,,,,,,295130.5,1518247140.0,671052922.0,,-0.892000011355,0.549999988079,-1.65300000608,0.0174999996089,0.0139999999665,0.0405000001192,3.0
14,295.440039436,29550.5,1518247140.0,784491966.5,,2152367.0,1518247140.0,784491966.5,,0.723159183799,-0.263091858844,0.0559955480541,-0.0575097228144,0.998148637583,-0.00131260924072,-0.0197487474763,-0.00566926349886,0.00170657955499,-0.0340357654305,0.00434182662008,0.0151750535015,0.00163540269015,2.7991553545,0.934278458357,4.08256232738,-0.16728772223,1.09606763721,0.182614117861,2152712.0,1518247140.0,782571892.0,,,,,,295142.5,1518247140.0,790208306.0,,-0.767000026256,0.115000008047,-0.638000000827,0.00650000013411,0.0339999999851,0.054999999702,3.0
15,295.542603538,29562.5,1518247140.0,904493192.0,,2152379.0,1518247140.0,904493192.0,,0.723439569042,-0.262494188404,0.0522844208915,-0.0577295325152,0.998143542248,-0.00114817861941,-0.0193741038035,0.00987101150754,-0.0131407251838,-0.0357287881749,-0.0135782409389,-0.0224902039687,0.00213377982655,3.55668735504,0.979435026645,4.01926219464,-0.208399817348,1.48183166981,0.193055875599,2152723.5,1518247140.0,897566464.0,,,,,,295154.5,1518247140.0,909452912.5,,-1.74200001285,-0.19500001669,-1.953000018,0.0310000004247,0.0150000001304,0.047499999404,3.0
16,295.645167641,29572.5,1518247140.5,499497390.5,,2152388.5,1518247140.5,499497390.5,,0.723878602379,-0.263462714523,0.048894522383,-0.0573836228628,0.998168374691,-0.00221970832118,-0.019027576917,-0.00494047739363,-0.00750158648994,-0.0374805373462,0.00482607017369,0.0219926384973,-0.0837342071657,2.83264088631,1.09695550799,3.85719120502,-0.177741348744,1.1927883625,0.193721942604,1501917.0,1518247140.5,498275096.5,,,,,,295164.5,1518247141.0,10631292.5,,-1.1170000147,-0.184999996424,-1.29800001681,-0.0010000001639,-0.00300000002608,0.0620000008493,3.0
17,295.747731744,29583.5,1518247141.0,119493716.5,,2152400.5,1518247141.0,119493716.5,,0.724160179553,-0.263568969642,0.0443126549793,-0.0561017033626,0.998250815759,-0.00157221288626,-0.0185824013164,0.00792521314697,-0.00495622585716,-0.0411022349304,0.000427379839145,-0.0234591939962,0.0115628929512,3.89554548264,0.97401535511,3.66950237751,-0.123993352056,1.57989937067,0.199478320777,2152745.0,1518247141.0,112557416.5,,,,,,295176.0,1518247141.0,125425869.0,,-1.90200001858,1.07499999404,-0.573000000417,0.00849999999627,0.0269999997691,0.0249999994412,3.0
18,295.850295846,29594.5,1518247141.0,219492348.5,,2152410.5,1518247141.0,219492348.5,,0.724820347159,-0.263290822055,0.0410144198128,-0.0562283922798,0.998252416937,-0.00102226038748,-0.0181456204049,-0.00475843239638,-0.00617290445075,-0.040809798791,0.0131695750872,0.0189950030152,-0.0242943855362,2.65011411905,0.869137257338,3.36918711662,-0.0655469484627,1.02616381645,0.232190288603,1501933.0,1518247141.0,219774902.0,,,,,,295186.5,1518247141.0,230931271.5,,-1.02200001497,0.585000014305,-1.19299999774,-0.00349999999162,0.0380000006408,0.0130000002682,3.0
19,295.952859949,29603.5,1518247141.0,309495244.5,,2152419.5,1518247141.0,309495244.5,,0.725322412517,-0.264780079137,0.0369697631556,-0.0556862813043,0.998288575662,-0.0013591836417,-0.0177960597145,0.0098749966796,0.0231504037054,-0.0383755054925,0.0246815881745,-0.0105482273557,0.00188686269559,2.23376357555,0.86177572608,4.37748837471,-0.194834344089,0.978833019731,0.175047576427,1501938.0,1518247141.0,300274019.0,,,,,,295195.5,1518247141.0,321576610.0,,-2.06200000569,0.579999959469,-1.4680000186,-0.0375000005588,0.0530000012368,0.0300000002608,3.0
20,296.055424051,29611.5,1518247141.0,389494883.0,,2152427.5,1518247141.0,389494883.0,,0.726040906402,-0.264327196593,0.0364802584832,-0.0543747355961,0.998368672121,-0.000144713268759,-0.0174143052335,0.00192743780395,-0.00226295646504,-0.00507173472828,-0.00901111965848,-0.0126921179474,0.0103602225596,2.07505840063,1.10216134787,1.32511734963,-0.325308516622,0.781320244073,0.235275276005,2152772.0,1518247141.0,382552594.0,,,,,,295203.5,1518247141.0,402067767.5,,-0.867000012845,2.48499999046,-5.92799992264,-0.265000000596,0.1875,-0.0139999999665,1.0
21,296.157988154,29623.5,1518247141.0,509500838.5,,2152439.5,1518247141.0,509500838.5,,0.725707200519,-0.264882235987,0.0360762214844,-0.0546622881655,0.998349046054,-0.000576086474372,-0.017630299549,-0.00590662333746,0.0014028025325,-0.00169767647136,0.00563298627907,0.0141819440334,-0.00969665279742,2.64436340332,0.766497850418,0.841506451368,-0.0190750956535,0.802581965926,0.249986603856,1501952.0,1518247141.0,501279733.0,,,,,,295215.5,1518247141.0,521567148.0,,0.407999993115,0.210000014305,-6.19300002754,-0.24850000441,0.223499998451,0.0114999997895,-1.0
22,296.260552256,29632.5,1518247141.0,599634029.0,,2152448.5,1518247141.0,599634029.0,,0.726212173901,-0.264190704618,0.036560749097,-0.0548151725166,0.998349652055,-0.000567526397321,-0.0171106658779,0.00987093187064,-0.00749392019846,0.00308103966396,-0.0164737813174,-0.0240300131443,-0.00562171449305,2.8436896801,1.20084768533,0.725384503603,-0.257532827556,0.926909804344,0.182626388967,2152793.0,1518247141.0,592701080.0,,,,,,295224.5,1518247141.0,611780464.5,,0.638000012188,0.789999997615,-5.06800002753,-0.169999994338,0.213500000536,-0.0314999995753,-1.0
23,296.363116359,29644.5,1518247141.0,719627575.0,,2152460.5,1518247141.0,719627575.0,,0.726134096006,-0.264243525348,0.0365364197588,-0.0552150861287,0.998327448391,-0.000721967678981,-0.0171185028052,-0.00301830065778,0.00730352851125,-0.00556780033131,0.0110491272086,0.00972237094914,0.00730859943885,3.3693010807,1.32754647732,0.633788228035,-0.309651017189,1.1090413332,0.182050921023,1501968.0,1518247141.0,722357915.0,,,,,,295236.5,1518247141.0,731292401.0,,-0.992000012847,0.25000000596,-4.82300014198,-0.131999999285,0.178000003099,0.0214999997988,-1.0
24,296.465680462,29655.5,1518247141.0,829626593.5,,2152471.5,1518247141.0,829626593.5,,0.725913818678,-0.264337760508,0.036257845618,-0.0550418836921,0.99833240903,-0.000840253040977,-0.0173767466936,0.00665177171504,-0.00191820683426,0.00031469851322,0.00404235138371,-0.0129016440773,-0.00808884422967,3.52399539947,1.39675909281,0.582547932863,-0.369767531752,1.14362353087,0.169969573617,1501975.5,1518247141.0,828370427.0,,,,,,295247.5,1518247141.0,842534277.0,,-0.68200001046,0.585000014305,-4.68800003231,-0.158500000834,0.199499994516,0.01200000057,-1.0
25,296.568244564,29664.5,1518247141.0,919637462.5,,2152480.5,1518247141.0,919637462.5,,0.725995413294,-0.264290163364,0.0363568639075,-0.0546026784974,0.998357106353,-0.000493919627208,-0.0173508833932,-0.00458537398656,0.00111635667566,-0.00485242564809,-0.00582052615191,0.0103278601325,0.0154458781269,3.62277317047,1.41818958521,0.587841749192,-0.390066891908,1.18807488679,0.171605475247,1501981.5,1518247141.0,918859465.0,,,,,,295256.5,1518247141.0,931103362.5,,-1.19700001851,3.07999989986,-4.3129999131,-0.20150000602,0.232000000775,-0.0470000002533,-1.0
26,296.670808667,29673.5,1518247142.0,14620565.0,,2152490.0,1518247142.0,14620565.0,,0.726252533932,-0.264863089906,0.0359149301995,-0.0541991468328,0.998384256181,-0.000557262128408,-0.0170592775535,-0.00148396627489,0.02008949164,0.00120808921817,0.00498242203396,0.00794046137135,0.0318199375913,3.06896424294,1.37772154808,0.648725986481,-0.340865850449,0.956552147865,0.183321401477,2152835.0,1518247142.0,12681486.0,,,,,,295265.5,1518247142.0,21808009.5,,-0.792000017315,1.71500000954,-4.71300000846,-0.211999997497,0.234499998391,-0.0129999998026,-1.0
27,296.773372769,29685.5,1518247142.0,129629416.5,,2152501.5,1518247142.0,129629416.5,,0.726526905036,-0.264009807955,0.0365835690505,-0.0549560419837,0.99834963088,-0.000603279618398,-0.0166534547044,0.00699436400168,0.0165761638924,0.00608532190151,0.00486590593606,-0.0160953340058,0.0191209266385,3.37184917926,1.38738906383,0.685518294573,-0.319281876087,1.0943081975,0.189731761813,1501996.5,1518247142.0,130354190.0,,,,,,295277.5,1518247142.0,140958127.5,,0.00799995735285,0.520000016689,-3.99299997985,-0.139499999583,0.175999999046,-0.0265000006184,-1.0
28,296.875936872,29696.5,1518247142.0,239628360.0,,2152512.5,1518247142.0,239628360.0,,0.726229448251,-0.264990469365,0.0364435327277,-0.0541886052551,0.998384574157,-0.000808943364222,-0.0170576264052,0.00227135475515,0.0102953375122,0.000943063375289,0.00775952473171,-0.0058164982765,0.0121718153955,3.35791945457,1.22247290611,0.728524625302,-0.217583559453,1.08794873953,0.206073567271,2152857.0,1518247142.0,232685663.0,,,,,,295288.5,1518247142.0,252310862.0,,-0.372000008077,2.06500003338,-3.39299995601,-0.100999999791,0.145499996841,-0.0254999995232,-1.0
29,296.978500974,29704.5,1518247142.0,319629393.5,,2152520.5,1518247142.0,319629393.5,,0.72592763396,-0.26480162308,0.0362992018109,-0.054615570295,0.998355211261,-0.000823909395389,-0.0174063082696,0.00238660809575,-0.00750066854184,-0.00191079643215,-0.00018604514505,-0.0034088626332,-0.0188784442491,3.44345939159,1.29198491574,0.697677344084,-0.277996569872,1.10211735963,0.200417146087,2152866.0,1518247142.0,322717754.5,,,,,,295296.0,1518247142.0,326402086.5,,-0.252000033111,1.33000001907,-4.55300004184,-0.153499998152,0.180500000715,0.00250000011874,-1.0
30,297.081065077,29714.5,1518247142.0,419627051.0,,2152530.5,1518247142.0,419627051.0,,0.725966236099,-0.264715516726,0.0362971497898,-0.0544786917723,0.998364174278,-0.00055838858034,-0.0173395472839,0.00678309936483,9.0955961275e-05,0.00274779062883,0.00310665216595,-0.00715966955568,-0.0103557568987,3.37736201286,1.31693154573,0.649552494287,-0.320295512677,1.09654086828,0.180497542023,1502016.5,1518247142.0,422351236.5,,,,,,295306.5,1518247142.0,431277548.0,,-0.0970000021161,2.05500004291,-4.27299995124,-0.186499997974,0.221000000834,-0.0374999996275,-1.0
31,297.183629179,29725.5,1518247142.0,529624264.5,,2152542.0,1518247142.0,534627784.0,,0.726347991508,-0.264869932178,0.0361837311346,-0.0543443094074,0.998376981614,-0.000577052117372,-0.0170212458998,-0.00331433479405,-0.00719780921135,0.00428191743145,-0.00967926742246,0.00331230931524,-0.00584453796166,3.36895811558,1.35434043408,0.697611689568,-0.343435332179,1.09253954887,0.182952918113,851162.0,1518247142.0,534000128.0,,,,,,295317.5,1518247142.0,542308824.0,,0.362999976427,0.965000009539,-4.06800002753,-0.175499998033,0.217000000179,-0.019499999471,-1.0
32,297.286193282,29734.5,1518247142.0,619629274.5,,2152550.5,1518247142.0,619629274.5,,0.726037459081,-0.2644966353,0.0364608142089,-0.054969271092,0.998339242486,-0.000953867115188,-0.0172104614093,-0.00560236905225,-0.0104605028854,-0.00674353385916,-0.00243131089998,0.010439903887,-0.0156544060189,3.52230465412,1.16708630324,0.753424376249,-0.204280294478,1.15397149325,0.188063204288,2152896.0,1518247142.0,622707477.5,,,,,,295326.5,1518247142.0,632794369.0,,-1.55700000301,1.15500000715,-4.61799997985,-0.203500002623,0.215000003577,-0.00699999998324,-1.0
33,297.388757385,29744.5,1518247142.0,719623427.5,,2152560.5,1518247142.0,719623427.5,,0.726040236388,-0.264557666898,0.0363559689581,-0.0548808109515,0.99834241631,-0.000827379322813,-0.0173130295531,-0.0100624281063,0.00907258226405,-0.00165842441284,-0.0044559497972,0.0213454306464,0.011628521006,3.25993061066,1.01091048121,0.876982092857,-0.137988656759,1.04102450609,0.203987084329,1502037.0,1518247142.0,722839040.0,,,,,,295336.0,1518247142.0,729789605.0,,-1.29700002,0.399999952316,-4.51800007522,-0.184000000358,0.216000005603,0.01600000076,-1.0
34,297.491321487,29755.5,1518247142.0,829639442.0,,2152572.0,1518247142.0,834628742.5,,0.725740467815,-0.264919652894,0.0362780925817,-0.0545915960152,0.998354445608,-0.000735580159135,-0.0175378143627,-0.00449326678271,0.00301794395895,-0.00786604575665,0.00116739142785,0.0159311644715,0.00999099118328,3.0892547369,1.10018825531,1.01258099079,-0.166846655309,0.988546073439,0.194859333336,1502045.0,1518247142.0,829860928.5,,,,,,295347.0,1518247142.0,837089348.0,,-0.606999992579,1.6300000906,-4.11799997985,-0.173999994993,0.218999996781,-0.0329999998212,-1.0
35,297.59388559,29767.5,1518247142.0,949634325.0,,2152583.5,1518247142.0,949634325.0,,0.726053790981,-0.264991239557,0.0364075242321,-0.0544737139862,0.998366237692,-0.000750623680245,-0.0172285454553,0.0092879697209,0.00181675725395,-0.00114897929818,0.0162278711347,-0.0201793015553,-0.0123093084701,3.20884490013,1.18061536551,1.06124383211,-0.247213259339,1.04303795099,0.177120111882,1502054.0,1518247142.0,950840527.0,,,,,,295359.5,1518247142.0,962372161.5,,-0.992000016571,0.484999990463,-4.28799993693,-0.1875,0.21249999851,-0.00499999988824,-1.0
36,297.696449692,29778.5,1518247143.0,64629427.0,,2152595.0,1518247143.0,64629427.0,,0.725935667774,-0.264615421249,0.0363028755219,-0.0548550605051,0.99834180622,-0.000707208706181,-0.0174373204873,0.00901668181976,-0.00497530979638,0.00349539138513,0.023017872202,-0.0174670150687,-0.0359905562548,3.25533008575,1.19930076599,0.946353077888,-0.23903901875,1.04658329487,0.1856764853,2152940.0,1518247143.0,62731228.0,,,,,,295370.5,1518247143.0,73084491.0,,0.71300000027,0.930000042916,-4.13799996078,-0.181500002742,0.204499997198,-0.0300000011921,-1.0
37,297.799013795,29786.5,1518247143.0,139630590.0,,2152602.5,1518247143.0,139630590.0,,0.72614654471,-0.264804093033,0.0365880721021,-0.0545208977276,0.998367098614,-0.00064680695868,-0.0170338318949,-0.0163652624452,0.00858126066166,-0.00998875959216,0.0138503231897,0.0282935435401,0.00948851318026,3.38156354428,1.07418161631,1.02681207657,-0.168975740671,1.11239022016,0.195807486772,851186.0,1518247143.0,140999936.0,,,,,,295378.5,1518247143.0,153303210.0,,0.427999974043,0.274999952316,-3.88299996555,-0.162499994039,0.206500001252,-0.0259999996051,-1.0
38,297.901577897,29799.5,1518247143.0,269626705.5,,2152615.5,1518247143.0,269626705.5,,0.726428335735,-0.264699570589,0.0366296377246,-0.0546664897855,0.998362030703,-0.000860165219949,-0.0168449356739,-0.00206292340231,0.011995914005,0.00464730488839,0.00347436173208,0.0053430076283,0.0065036836125,3.54322242736,1.22881639003,1.02287584543,-0.264474615455,1.15633273125,0.168898455798,2152961.5,1518247143.0,277707571.0,,,,,,295391.0,1518247143.0,277099726.5,,0.302999974042,-0.714999997616,-3.60299999416,-0.137499995529,0.226999998093,-0.00700000021606,-1.0
39,298.004142,29808.5,1518247143.0,359631969.5,,2152624.5,1518247143.0,359631969.5,,0.72621452586,-0.264410412455,0.0363388167714,-0.0545833409966,0.998361227076,-0.000518838275374,-0.017179059054,0.00083974665516,-0.00292708133293,0.000720928607645,-0.00782425284236,0.00261910916478,0.00670466560017,3.9533342123,1.19129627943,1.112611413,-0.217887029052,1.31614977121,0.186443455517,1502082.5,1518247143.0,358356819.0,,,,,,295400.0,1518247143.0,367797038.5,,-0.177000045031,0.284999972582,-3.24299997985,-0.138499997556,0.204999998212,-0.0139999999665,-1.0
