,Unnamed: 0,.header.seq,.header.stamp.secs,.header.stamp.nsecs,.header.frame_id,.endpoint_state.header.seq,.endpoint_state.header.stamp.secs,.endpoint_state.header.stamp.nsecs,.endpoint_state.header.frame_id,.endpoint_state.pose.position.x,.endpoint_state.pose.position.y,.endpoint_state.pose.position.z,.endpoint_state.pose.orientation.x,.endpoint_state.pose.orientation.y,.endpoint_state.pose.orientation.z,.endpoint_state.pose.orientation.w,.endpoint_state.twist.linear.x,.endpoint_state.twist.linear.y,.endpoint_state.twist.linear.z,.endpoint_state.twist.angular.x,.endpoint_state.twist.angular.y,.endpoint_state.twist.angular.z,.endpoint_state.wrench.force.x,.endpoint_state.wrench.force.y,.endpoint_state.wrench.force.z,.endpoint_state.wrench.torque.x,.endpoint_state.wrench.torque.y,.endpoint_state.wrench.torque.z,.joint_state.header.seq,.joint_state.header.stamp.secs,.joint_state.header.stamp.nsecs,.joint_state.header.frame_id,.joint_state.name,.joint_state.position,.joint_state.velocity,.joint_state.effort,.wrench_stamped.header.seq,.wrench_stamped.header.stamp.secs,.wrench_stamped.header.stamp.nsecs,.wrench_stamped.header.frame_id,.wrench_stamped.wrench.force.x,.wrench_stamped.wrench.force.y,.wrench_stamped.wrench.force.z,.wrench_stamped.wrench.torque.x,.wrench_stamped.wrench.torque.y,.wrench_stamped.wrench.torque.z,.tag
0,610.350216,61041.5,1518247455.0,694743302.0,,2183858.5,1518247455.0,699744611.0,,0.750389455425,-0.287159813842,0.113478916161,-0.032295649061,0.999449680225,0.00275633604378,0.00702808643859,-0.0384914523918,0.0369529439206,-0.0395384679742,0.00173966620379,0.0605672393897,0.0674620087556,0.524766862392,1.423615098,4.78258395195,-0.219656325877,0.230415776372,0.348597407341,863548.0,1518247455.0,691000064.0,,,,,,326589.5,1518247455.0,696664961.5,,-0.471999999136,1.03300000429,0.356000024081,0.0259999996052,0.0314999995754,0.0329999998212,3.0
1,610.452780103,61054.5,1518247455.0,819750279.0,,2183870.5,1518247455.0,819750279.0,,0.744897827464,-0.283438869652,0.108899128895,-0.0354243239989,0.999366883593,0.002555560293,0.00200143151543,-0.0444112353592,0.0265422998649,-0.0463811461225,-0.00846087881085,0.0761084820808,0.0474132563838,0.556487545371,0.811447173357,4.63230609894,0.0270706191661,0.209991872311,0.371249064803,1523884.0,1518247455.0,819898700.0,,,,,,326602.5,1518247455.0,826775342.5,,1.05800000205,0.217999991775,0.161000031233,-0.0054999999702,0.0100000007078,0.0260000005364,3.0
2,610.555344205,61061.5,1518247455.0,894741747.0,,2183878.0,1518247455.0,894741747.0,,0.742999500921,-0.280299448943,0.105471640897,-0.0388592565996,0.99924219575,0.00218793841911,0.000453138543919,-0.0386512867383,0.0625988056788,-0.0483257698806,0.000796713383844,0.0773720178777,0.106915633513,3.45526123047,0.942605018616,5.13726854324,-0.0807047486305,1.44626700878,0.327971100807,863556.0,1518247455.0,892999936.0,,,,,,326609.5,1518247455.0,896384427.5,,0.038000009954,1.14799998403,0.786000031233,0.0289999991655,0.0355000011623,0.0380000006408,3.0
3,610.657908308,61073.5,1518247456.0,9749138.0,,2183889.5,1518247456.0,9749138.0,,0.740127260946,-0.276613663537,0.0998447200502,-0.0422724594278,0.999101441945,0.00173961931828,-0.0024258364936,-0.017287913476,0.0295202640674,-0.0538006344145,-0.0294783464306,0.0280079722759,0.0866674272533,2.49835836887,0.565669417381,4.62619948387,0.139151971787,1.04780557752,0.364729970693,1523897.5,1518247455.5,503398180.0,,,,,,326622.0,1518247456.0,20107314.0,,-0.551999982446,0.587999989094,0.276000010967,0.0129999998026,0.00600000005215,0.0215000002645,3.0
4,610.76047241,61081.5,1518247456.0,99031119.0,,2183898.5,1518247456.0,99031119.0,,0.737109551502,-0.273792573876,0.0946514242132,-0.045464881146,0.99894763064,0.00154139284623,-0.00584242465024,-0.0186001768199,0.048528759874,-0.0664877798815,0.0314669617033,0.0464361578414,0.0672075013631,0.764993175866,0.836958765984,4.31726241112,-0.0254195556045,0.352534711361,0.304813176394,1523903.0,1518247456.0,89076441.0,,,,,,326629.5,1518247456.0,95933074.0,,0.622999999672,0.142999988794,1.01100001037,0.00299999996787,0.0144999995828,0.00949999992735,3.0
5,610.863036513,61093.5,1518247456.0,219035705.0,,2183910.5,1518247456.0,219035705.0,,0.733432932692,-0.270549044227,0.0879906529846,-0.048519526672,0.998770758765,0.0016969058804,-0.00997131957944,-0.0443902540372,0.0130834102247,-0.0511237416544,-0.0177180431266,0.108968973094,0.0349585238584,0.969862133264,0.155853673815,4.80027127266,0.268014848232,0.550631314516,0.343746066093,2184255.5,1518247456.0,217088653.5,,,,,,326641.5,1518247456.0,217253317.5,,2.04800001159,1.1430000186,0.591000008583,0.0145000005141,0.00850000046195,-0.022999999579,3.0
6,610.965600615,61101.5,1518247456.0,294027252.0,,2183918.0,1518247456.0,294027252.0,,0.729883519761,-0.269831219161,0.0840730315134,-0.0499010342753,0.998654562829,0.00125539106026,-0.0140490181936,-0.0483789843752,0.0388378833911,-0.0589714084236,0.0224547030887,0.116385810811,0.0405275521712,3.0088121891,0.480301231146,5.17045593262,0.120268329978,1.24339950085,0.32561519742,1523917.0,1518247456.0,290550534.5,,,,,,326649.5,1518247456.0,297412166.0,,0.338000003248,-0.341999995709,0.26099999547,0.00949999969455,0.0355000002309,0.0165000003763,3.0
7,611.068164718,61112.5,1518247456.0,404025990.5,,2183929.0,1518247456.0,404025990.5,,0.725437314428,-0.269464492903,0.0780979323587,-0.0508315091244,0.998529282717,0.00113481822164,-0.0188099245295,-0.0262353289482,0.00167682296314,-0.0428968284492,-0.0174538302726,0.0416177063851,0.0020324652873,3.10796964169,0.834033668041,4.75816392898,-0.0044506564735,1.15600001812,0.326742559671,1523925.0,1518247456.0,401052294.5,,,,,,326661.0,1518247456.0,410345928.0,,1.06300002709,-0.797000008822,0.701000022888,0.0230000000447,0.0345000000671,0.038500001654,3.0
8,611.170728821,61125.5,1518247456.0,534024357.0,,2183942.0,1518247456.0,534024357.0,,0.724642067543,-0.268204657347,0.0726543201044,-0.0515839508195,0.998491558022,0.00149286799311,-0.0187476910967,-0.0141018819411,-0.0119010031678,-0.0360607764262,-0.0332201272234,0.0333956442747,0.0195248296347,1.12856149673,1.44315266609,4.55859327316,-0.489552497864,0.603926956654,0.237742483616,1523934.0,1518247456.0,533548166.5,,,,,,326674.0,1518247456.0,542162659.0,,1.11300002411,-0.277000005543,0.0710000276565,0.0374999996275,-0.0205000005663,0.0235000001267,3.0
9,611.273292923,61132.5,1518247456.0,609025127.5,,2183949.5,1518247456.0,609025127.5,,0.723133991883,-0.267843395278,0.07083166893,-0.052392872843,0.998413733562,0.000871593623611,-0.0205948362261,-0.0285045410362,0.00407763695823,-0.0271254422254,0.00395776057945,0.0660086331771,0.00191010636949,1.30227822065,1.00171625614,4.16769599914,-0.0812637358904,0.452929690481,0.275192931294,1523939.0,1518247456.0,602048487.5,,,,,,326680.5,1518247456.0,606079727.0,,-0.391999986022,0.102999993414,0.230999994278,0.0324999988079,-0.0179999992251,-0.00700000009964,3.0
10,611.375857026,61145.5,1518247456.0,734022995.5,,2183962.5,1518247456.0,739028152.0,,0.721996286541,-0.267246927974,0.0665102343139,-0.0523527653597,0.998397801685,0.00126638316033,-0.0214301447409,-0.0147395478868,-0.0035559502629,-0.0288732280233,0.00166169691833,0.0177751551067,-0.0020866113932,2.75663101673,0.960375517607,4.09648156166,-0.0803323462603,1.01911020279,0.270614415407,1523947.5,1518247456.0,730047607.0,,,,,,326694.0,1518247456.0,742113056.5,,-0.292000006884,-0.011999993771,0.801000031828,0.0099999997183,0.0284999990836,0.0205000005662,3.0
11,611.478421128,61156.5,1518247456.0,849028777.5,,2183973.5,1518247456.0,849028777.5,,0.721743721206,-0.266343237241,0.0627394262436,-0.0512021284524,0.998454568697,0.0017365561,-0.0215341755934,0.00627617624712,0.00509210189922,-0.0343983833693,0.00563368185244,-0.0107037667363,0.0105688346617,1.94277381897,1.38000983,4.2880089283,-0.34757591784,0.812902212143,0.231822177768,863593.5,1518247456.0,846500096.0,,,,,,326704.5,1518247456.0,849161971.5,,0.518000002951,0.447999984771,0.101000058651,0.0310000004247,-0.00200000009499,0.0219999998808,3.0
12,611.580985231,61167.5,1518247456.0,959036473.0,,2183984.5,1518247456.0,959036473.0,,0.721165018987,-0.26525748477,0.0589736943117,-0.0530937018659,0.998346697188,0.00135260056149,-0.0219791725668,-0.0124338036023,0.0101288895429,-0.0334630100909,-0.0255521067776,0.0250144664868,0.0591980899008,0.324751585721,0.75167042017,4.65182566643,-0.0508838295936,0.215907737613,0.247817359865,1523963.0,1518247456.0,946542563.0,,,,,,326715.5,1518247456.0,958728666.5,,-0.696999993175,-1.00200002193,0.436000037193,-0.00499999988823,0.0334999989719,0.0405000001192,3.0
13,611.683549333,61176.5,1518247457.0,49035416.5,,2183993.5,1518247457.0,49035416.5,,0.720490092454,-0.265721576651,0.0556608479101,-0.0536204425612,0.998300978934,0.000941592104007,-0.0227798778109,-0.000208533202825,-0.0043361833446,-0.0381087808806,0.00711674172625,0.0127485059695,-0.0149617682951,2.24530953169,1.35509228706,4.05681109428,-0.341137111187,0.832429349423,0.220538534224,863601.0,1518247457.0,41999872.0,,,,,,326724.5,1518247457.0,47036627.0,,1.48800000921,-0.512000026369,0.50600003004,0.0179999999236,0.0234999991953,0.0384999997914,3.0
14,611.786113436,61186.5,1518247457.0,139030359.5,,2184002.5,1518247457.0,139030359.5,,0.721781498405,-0.263669284233,0.0527907879132,-0.0543027705557,0.998299654368,0.00189045795364,-0.0211042393569,0.0159077281136,0.0112059216231,-0.0346337650528,0.0133781466067,-0.0438132975386,0.0140092507196,1.6183026433,0.920952111481,4.36052536964,-0.216386795044,0.751725584269,0.199656628072,1523976.5,1518247457.0,144037242.5,,,,,,326735.0,1518247457.0,152354472.5,,1.06299999729,-0.227000015974,0.711000013351,0.0124999997206,0.0435000006109,0.039999999106,3.0
15,611.888677538,61193.5,1518247457.0,219027201.5,,2184010.5,1518247457.0,219027201.5,,0.721722086138,-0.263605765727,0.0497913627121,-0.0541821679021,0.998300918273,0.00213902261254,-0.021321667481,-0.0148856875952,0.0116738067375,-0.045651787587,-0.00151003338949,0.0381409608402,0.022221519646,2.65718507767,0.99517145753,4.02919828892,-0.231855437159,1.0733140707,0.200637385249,1523982.0,1518247457.0,214547855.0,,,,,,326741.5,1518247457.0,218406533.0,,1.88799998537,0.587999996543,1.09100000858,0.00499999988824,0.0285000009462,0.0309999994934,3.0
16,611.991241641,61206.5,1518247457.0,344030799.0,,2184023.0,1518247457.0,344030799.0,,0.721542327445,-0.263649653403,0.0460926809746,-0.0546183941043,0.998264662241,0.00179980538302,-0.0219375442463,-0.00598533105906,-0.00652533750939,-0.0388294630751,-0.0244255350139,0.0119762874843,0.0152921496464,1.37959480286,1.14351177216,3.96209311485,-0.171601012349,0.488513708115,0.25471252203,1523990.0,1518247457.0,339038509.0,,,,,,326754.5,1518247457.0,348494287.0,,0.248000007123,0.337999991886,1.07100001275,0.0079999998561,0.0439999997616,0.0119999998715,3.0
17,612.093805744,61217.5,1518247457.0,459021149.0,,2184034.5,1518247457.0,459021149.0,,0.723750901987,-0.264116255973,0.0418882955895,-0.0548823443442,0.998312305555,0.00154078734514,-0.0189172186467,0.00789666086513,0.00374966155669,-0.0265897946913,0.0198207258808,-0.0044964751472,-0.0242143945642,0.840542331338,0.981483936308,4.33143401146,-0.259708106518,0.468162961304,0.189365491271,863617.5,1518247457.0,453000064.0,,,,,,326765.5,1518247457.0,457664631.0,,-0.396999981254,-0.451999995112,1.12100000977,0.00499999988824,0.00750000035625,0.0215000002645,3.0
18,612.196369846,61225.5,1518247457.0,534021251.0,,2184042.0,1518247457.0,534021251.0,,0.723292535698,-0.26408662946,0.0395134566535,-0.0545757014768,0.998317842343,0.00199349395461,-0.0194680366372,0.0008664590482,-0.0255379862866,-0.0200083861168,-0.0213160856907,0.00490973334771,-0.0328448330588,2.18802523613,0.705419003963,3.86629652977,-0.0678353384137,0.849107325077,0.18748241663,2184387.0,1518247457.0,532076405.0,,,,,,326774.0,1518247457.0,541365293.0,,0.0530000068247,-0.897000002861,1.14600001574,0.0130000002682,0.00600000005215,0.019999999553,3.0
19,612.298933949,61234.5,1518247457.0,624054527.0,,2184051.0,1518247457.0,624054527.0,,0.723441194881,-0.263921406758,0.0366812253145,-0.0531542736357,0.998391721596,0.00237002397945,-0.0195697835913,0.0275067799669,0.0155365915248,-0.0261882729485,0.0161497325546,-0.0467967866682,-0.0383160698558,2.5694963932,1.04069924355,3.71830892563,-0.10796867311,0.973482728004,0.226186960936,2184396.0,1518247457.0,622082586.0,,,,,,326782.5,1518247457.0,627852121.5,,-0.71199997887,-0.492000001668,1.38100001234,-0.00200000009499,0.0394999999553,0.0285000000149,3.0
20,612.401498051,61246.5,1518247457.0,744033767.5,,2184063.0,1518247457.0,744033767.5,,0.724609792222,-0.263494884398,0.0353343363617,-0.0528306698798,0.998426199558,0.00269440626215,-0.0186219126077,0.0215782783473,-0.0120421122309,0.00428599759056,-0.0170408752341,-0.0587928753124,-0.00445512561605,2.46875417233,0.962694048882,0.0964126139875,-0.0962103996426,0.563706785441,0.220284357667,1524018.0,1518247457.0,741538543.5,,,,,,326794.5,1518247457.0,747184352.5,,0.708000022918,0.428000000119,-3.77899999619,-0.249499991536,0.310000002384,-0.0400000018999,-1.0
21,612.504062154,61258.5,1518247457.0,864021150.0,,2184075.0,1518247457.0,864021150.0,,0.725079844249,-0.264199591016,0.0356074899121,-0.0524795636979,0.998455556671,0.00259403872642,-0.0180462658361,0.0257246932431,0.0108788629869,0.00410994812223,0.00660250267478,-0.0592571036563,0.00967749562834,4.41294670105,1.19081485271,0.0884829238057,-0.192326754332,1.38421702385,0.215978324413,2184420.0,1518247457.0,862117587.5,,,,,,326806.5,1518247457.0,868228663.0,,2.78800002113,0.852999997139,-2.98400015831,-0.166500002146,0.247000001371,-0.0534999985248,-1.0
22,612.606626256,61268.5,1518247457.0,964257658.0,,2184085.0,1518247457.0,964257658.0,,0.724846836487,-0.263069665104,0.0357476022736,-0.0531352627452,0.998417005873,0.00282774639497,-0.0182244365502,-0.0149340606287,-0.00160021722845,-0.00283007179857,-0.0210129383872,0.0348686596328,0.0187218540921,3.38090062141,1.12848615646,0.0016527865082,-0.0854067876935,0.9310541749,0.254332095385,1524034.0,1518247457.0,962660947.0,,,,,,326816.5,1518247457.0,968588456.0,,0.578000012786,-0.201999995112,-3.53899998665,-0.180500000715,0.288000002503,-0.0590000003576,-1.0
23,612.709190359,61279.5,1518247458.0,74277118.0,,2184096.0,1518247458.0,74277118.0,,0.725040558574,-0.263581693086,0.0355023199757,-0.0529280598748,0.998428957045,0.00243591766543,-0.0182292215195,-0.0150895422854,-0.00384776689719,-0.00822663928952,0.00321405951738,0.026858149906,-0.00077869319394,2.86552429199,1.23471605778,0.0796395465732,-0.262829601765,0.744381129742,0.183683693409,2184440.5,1518247458.0,67332764.5,,,,,,326827.5,1518247458.0,79193543.0,,0.933000002057,1.65300000906,-3.32399983406,-0.171999998391,0.261999994517,-0.0645000003278,-1.0
24,612.811754462,61288.5,1518247458.0,159277337.5,,2184104.5,1518247458.0,159277337.5,,0.725188775138,-0.264153021615,0.0356398583171,-0.0527491040308,0.998443080719,0.00238200619577,-0.0179736357411,-0.000779174137835,-0.00083019788215,0.00369499387043,-0.01322373633,0.00102331648265,0.0145716986382,3.60275435448,1.14252984524,0.0387672558427,-0.135475628078,1.01626288891,0.229458630085,863645.5,1518247458.0,160000000.0,,,,,,326836.5,1518247458.0,167651405.5,,2.14799997583,-0.257000002265,-3.63400001526,-0.151000000536,0.234499998391,-0.0489999987185,-1.0
25,612.914318564,61298.5,1518247458.0,264282362.0,,2184115.0,1518247458.0,264282362.0,,0.72496686116,-0.263432807602,0.0357185641283,-0.0528952948634,0.998432440896,0.0028905609573,-0.0180663611515,0.00388410926524,0.0151793823146,0.00919924708615,0.0136526410687,-0.00341254682723,0.0224949265877,3.66022157669,1.30731999874,0.0228326786309,-0.225806027651,1.03541326523,0.231777518988,1524054.5,1518247458.0,259684842.0,,,,,,326846.5,1518247458.0,268542592.0,,1.27800003067,0.818000000718,-2.97399992943,-0.156500004232,0.254500001669,-0.0714999996125,-1.0
26,613.016882667,61310.5,1518247458.0,384276709.0,,2184127.0,1518247458.0,384276709.0,,0.725093090056,-0.263958803125,0.0353696719796,-0.0531280181029,0.998422991627,0.0025585447749,-0.0179420171651,0.00018830178115,0.00991166923008,-0.00291044543567,0.0061379944397,-0.0003871204629,0.0126764989697,3.66003537178,1.25576353073,0.125004183501,-0.17586492002,1.06568813324,0.232933908701,2184471.5,1518247458.0,377359190.0,,,,,,326858.5,1518247458.0,389819305.5,,1.39800003543,0.177999992669,-2.94899983406,-0.178000003099,0.267999991775,-0.0329999988899,-1.0
27,613.119446769,61318.5,1518247458.0,464280801.0,,2184135.0,1518247458.0,464280801.0,,0.724786447029,-0.264846547049,0.0353384753073,-0.052281604619,0.998459137314,0.00221419903935,-0.0184684123857,-0.0185831757498,-0.010898014771,-0.00882760738331,-0.0267154977752,0.0382126564718,0.0227284103026,3.8283624649,1.18881678581,0.226868256927,-0.145541518927,1.13685297966,0.229340463877,863657.5,1518247458.0,462999936.0,,,,,,326866.5,1518247458.0,470116039.0,,2.88299993053,1.2680000186,-2.90899987221,-0.152000002563,0.253999993205,-0.0584999993444,-1.0
28,613.222010872,61330.5,1518247458.0,589277311.5,,2184147.5,1518247458.0,589277311.5,,0.725002720644,-0.264076169333,0.0355765079323,-0.0528379645202,0.998436953571,0.00228890105399,-0.0180645149663,-0.00750724233123,0.00516148192027,-0.00619625387819,-0.00437433142515,0.0176552203912,0.00959298573235,3.90693092346,1.22829604149,0.127547957003,-0.222197145223,1.17112809419,0.215287476778,2184491.5,1518247458.0,577337644.5,,,,,,326878.5,1518247458.0,588962830.0,,0.952999997886,0.672999989987,-3.77899999618,-0.159000001848,0.234000004828,-0.051000000909,-1.0
29,613.324574974,61338.5,1518247458.0,664273448.0,,2184155.5,1518247458.0,669275491.5,,0.725260851238,-0.263462006436,0.0355399958512,-0.0529244987247,0.998436729273,0.00269072389687,-0.0177640046603,-0.0048046399264,0.00926309441593,-0.00373794426355,0.0102024139727,0.00450960506516,0.0177603857178,3.59706771374,1.2919460535,0.211919240654,-0.22842463851,1.04453110695,0.217555589974,2184500.5,1518247458.0,667350399.5,,,,,,326886.5,1518247458.0,670793031.0,,1.88300004974,0.282999992185,-3.75900001526,-0.145000003278,0.228500001133,-0.0480000004172,-1.0
30,613.427139077,61351.5,1518247458.0,799280116.5,,2184168.5,1518247458.0,799280116.5,,0.725236896077,-0.264356001859,0.0357276284578,-0.0526520893296,0.998449563415,0.00232613679224,-0.0179098860727,0.0048372442478,-0.0180328027,-0.00930744806676,-0.0168271443986,-0.0197242220577,-0.00168390572489,3.7501308918,1.27836370468,0.139737397432,-0.205334365368,1.10301738978,0.21113088727,2184512.0,1518247458.0,782359587.0,,,,,,326899.5,1518247458.0,798750757.5,,1.08300000801,0.757999998331,-3.33899993897,-0.172499999404,0.269500002265,-0.089999999851,-1.0
31,613.529703179,61359.5,1518247458.0,874274558.0,,2184176.0,1518247458.0,874274558.0,,0.724893407564,-0.263967954172,0.0358011887457,-0.0527729020422,0.998440028171,0.00239780845221,-0.01807709796,0.0052273485102,-0.00102160984524,0.00333787860344,-0.000628694729858,-0.0133973457456,0.0035202963903,3.40756201744,1.24351811409,0.232875451446,-0.242221146822,0.951880931854,0.23058617115,2184521.5,1518247458.0,877357855.0,,,,,,326907.5,1518247458.0,878955555.0,,2.06799999252,1.72300000191,-2.85900015831,-0.155000001192,0.259000003338,-0.070000000298,-1.0
32,613.632267282,61372.5,1518247458.5,499277249.0,,2184188.5,1518247458.5,499277249.0,,0.725087708358,-0.263688173765,0.0356355450489,-0.0526368729713,0.998448245982,0.00261662533677,-0.0179877452656,-0.00215211514327,0.00671457954298,-0.00174618022745,0.00822303456009,0.00664967084322,0.0139445209385,3.70720005035,1.34278410673,0.192293658853,-0.288386881351,1.08620357513,0.197506263852,1524105.5,1518247458.5,497673578.0,,,,,,326920.5,1518247459.0,8905224.0,,1.55800000205,-0.127000007033,-3.24399991035,-0.149000003933,0.256999999285,-0.0484999995679,-1.0
33,613.734831385,61378.5,1518247459.0,64290982.0,,2184195.0,1518247459.0,64290982.0,,0.725116048086,-0.263692027549,0.0357091592113,-0.0526982851878,0.998444432719,0.00284555502953,-0.0179832239513,-0.0010481803055,-0.00320783253667,-0.00109513225272,0.00429140489164,0.00092816715185,-0.0136693937333,3.69346320629,1.4324772954,0.19351541996,-0.313355587423,1.07412117719,0.212897233665,1524111.0,1518247459.0,68174340.0,,,,,,326926.5,1518247459.0,70671877.0,,2.79300001636,0.402999994158,-2.69900007248,-0.144999995828,0.247499994934,-0.0545000005514,-1.0
34,613.837395487,61391.5,1518247459.0,194278876.5,,2184208.0,1518247459.0,194278876.5,,0.725239549754,-0.263788741129,0.035830623338,-0.0531938138293,0.998421858004,0.00229568202552,-0.0178468077022,-0.00556185353113,-0.00059730758837,-0.000103748076225,-0.00260151381762,0.0148881367418,0.00786340504156,3.76528394222,1.3358746171,0.163345359266,-0.278899088502,1.0998955369,0.20638372004,2184552.0,1518247459.0,182328619.0,,,,,,326939.5,1518247459.0,200640096.5,,1.93300000205,-0.677000033856,-2.69400019645,-0.153000004589,0.244500003755,-0.0679999999702,-1.0
35,613.93995959,61400.5,1518247459.0,284282672.0,,2184217.0,1518247459.0,284282672.0,,0.724997458662,-0.264122547855,0.0354340075392,-0.0529206497613,0.998431228425,0.00236887297875,-0.0181263280986,-0.00701416551797,-0.0001980978039,-0.00361280315132,-0.00039257137375,0.0177070877662,-0.0020858583915,3.81131851673,1.573215127,0.189686954021,-0.418233305216,1.11835187673,0.193021804095,1524126.0,1518247459.0,280185690.5,,,,,,326948.5,1518247459.0,288912701.5,,3.1430000402,0.0479999974371,-3.15399999619,-0.140000000596,0.242499999702,-0.0419999994338,-1.0
36,614.042523692,61413.5,1518247459.0,414277738.0,,2184230.0,1518247459.0,414277738.0,,0.725452257337,-0.263885071028,0.0356546832807,-0.0531769636642,0.998426755614,0.0021783155611,-0.0176437829079,0.00532176394215,0.00505908376108,0.00223628760768,0.0013529539812,-0.0097545266812,0.00413425768945,3.67403614521,1.59340459108,0.169060043991,-0.394233301282,1.06500083208,0.213673397899,2184574.0,1518247459.0,402349080.5,,,,,,326961.5,1518247459.0,420078308.5,,-0.016999986023,1.54800001978,-3.27400012016,-0.133000001311,0.252499997616,-0.107500001788,-1.0
37,614.145087795,61421.5,1518247459.0,499278204.0,,2184238.5,1518247459.0,499278204.0,,0.72511443222,-0.26369298666,0.0354786157454,-0.0531676680294,0.998420036054,0.00220863734008,-0.0180418215976,-0.0130710879935,-0.00073543652401,-0.00696191125159,-0.0107899747287,0.0283816611246,0.00304274389465,3.77136445046,1.50834429264,0.261014245451,-0.347645714879,1.10458642245,0.210077345371,2184582.0,1518247459.0,482331401.0,,,,,,326969.5,1518247459.0,500174290.0,,1.35299998895,-0.05700000301,-3.73900003433,-0.109000001103,0.265999987722,-0.0530000012368,-1.0
38,614.247651897,61429.5,1518247459.0,579272537.0,,2184246.5,1518247459.0,579272537.0,,0.725019542111,-0.263364689906,0.0351024443162,-0.0534250504194,0.998404103509,0.00258144093186,-0.0181127493195,-0.00409499659029,-0.0029898351493,-0.00228149632071,-0.00511568161579,0.00637068742932,-0.00254680460245,3.80683803558,1.45494234562,0.154456727207,-0.309231251479,1.12171292305,0.212568208575,1524146.5,1518247459.0,577185615.5,,,,,,326978.0,1518247459.0,584737432.0,,0.887999994679,0.292999992893,-3.70900006294,-0.111999999732,0.270000010729,-0.0844999998808,-1.0
39,614.350216,61443.5,1518247459.0,714273419.5,,2184260.0,1518247459.0,714273419.5,,0.725044201373,-0.26393381864,0.0353821583664,-0.0529649352241,0.998430055804,0.00220326144078,-0.018088268426,0.00350642418392,-0.00219717126991,0.000167583765275,-0.000697727692377,-0.0102436981962,0.00576802682503,3.87482357025,1.51528817415,0.11049433425,-0.365303128958,1.13685441017,0.188458837569,1524156.0,1518247459.0,717661388.5,,,,,,326991.5,1518247459.0,720829983.0,,1.52299997583,-1.14200000763,-3.29400010109,-0.122000001371,0.259000003338,-0.039999999106,-1.0
