,Unnamed: 0,Unnamed: 0.1,.header.seq,.header.stamp.secs,.header.stamp.nsecs,.header.frame_id,.endpoint_state.header.seq,.endpoint_state.header.stamp.secs,.endpoint_state.header.stamp.nsecs,.endpoint_state.header.frame_id,.endpoint_state.pose.position.x,.endpoint_state.pose.position.y,.endpoint_state.pose.position.z,.endpoint_state.pose.orientation.x,.endpoint_state.pose.orientation.y,.endpoint_state.pose.orientation.z,.endpoint_state.pose.orientation.w,.endpoint_state.twist.linear.x,.endpoint_state.twist.linear.y,.endpoint_state.twist.linear.z,.endpoint_state.twist.angular.x,.endpoint_state.twist.angular.y,.endpoint_state.twist.angular.z,.endpoint_state.wrench.force.x,.endpoint_state.wrench.force.y,.endpoint_state.wrench.force.z,.endpoint_state.wrench.torque.x,.endpoint_state.wrench.torque.y,.endpoint_state.wrench.torque.z,.joint_state.header.seq,.joint_state.header.stamp.secs,.joint_state.header.stamp.nsecs,.joint_state.header.frame_id,.joint_state.name,.joint_state.position,.joint_state.velocity,.joint_state.effort,.wrench_stamped.header.seq,.wrench_stamped.header.stamp.secs,.wrench_stamped.header.stamp.nsecs,.wrench_stamped.header.frame_id,.wrench_stamped.wrench.force.x,.wrench_stamped.wrench.force.y,.wrench_stamped.wrench.force.z,.wrench_stamped.wrench.torque.x,.wrench_stamped.wrench.torque.y,.wrench_stamped.wrench.torque.z,.tactile_values.tactile_values_0,.tactile_values.tactile_values_1,.tactile_values.tactile_values_2,.tactile_values.tactile_values_3,.tactile_values.tactile_values_4,.tactile_values.tactile_values_5,.tactile_values.tactile_values_6,.tactile_values.tactile_values_7,.tactile_values.tactile_values_8,.tactile_values.tactile_values_9,.tag,.delta_wrench.force.x,.delta_wrench.force.y,.delta_wrench.force.z,.delta_wrench.torque.x,.delta_wrench.torque.y,.delta_wrench.torque.z,.wrench_stamped.wrench.force.magnitude,.wrench_stamped.wrench.torque.magnitude,.endpoint_state.wrench.force.magnitude,.endpoint_state.wrench.torque.magnitude,.endpoint_state.twist.linear.magnitude,.endpoint_state.twist.angular.magnitude
0,0,43.550226,4353.5,1521536756.0,589931964.0,,2130138.5,1521536755.0,932311832.5,,0.7620830025045,-0.1558448887045,0.08263267701375,0.8487701132754999,0.5284877684764999,-0.004684083501725,-0.016355623208100002,0.08235392091065,0.05535226248930001,0.1039522724655,0.022555488571544997,-0.227768422457,0.06231737188930001,2.8743499517449997,4.519334077835,3.32185745239,-1.4574472308150002,1.5552546978,0.1196745298805,842542.0,1521536755.0,924000000.0,,,,,,1635079.0,1521536756.0,582185379.0,,-0.7719997882855001,-0.9750000000010001,0.0019992828365,-0.05799999833105001,-0.152500003576,-0.08500000089404999,-10.0,-7.0,-1.0,11.5,50.0,234.5,239.5,242.5,292.5,303.5,4.0,0.0,0.0,0.0,0.0,0.0,0.0,1.2436288313828476,0.1839707885754429,6.302460240745371,2.134781393665731,0.14370844165456498,0.2372143738740147
1,1,43.6527901026,4366.5,1521536756.0,720650076.5,,2130151.5,1521536756.0,62310116.5,,0.7670707952879999,-0.149238485769,0.09192869252045,0.846365237096,0.5324430310135,0.0027198048885650004,-0.01275916308735,0.01991390734485,0.04141266095965,0.041427063153750006,0.040679102573300006,-0.07316498130480001,0.0361782033145,1.10440158844,-3.6591793298699997,3.3336505889850003,2.05312907696,0.841925382614,0.439199000597,1486525.5,1521536756.0,60701559.0,,,,,,1635092.5,1521536756.0,717598419.5,,-0.782000017166,-0.6,-0.8730007171634999,-0.09899999946374999,-0.1299999989565,-0.08500000089410001,-9.0,-8.0,-4.0,30.5,36.5,216.5,217.0,228.5,271.5,289.0,4.0,-0.010000228880499895,0.37500000000100003,-0.8749999999999999,-0.041000001132699984,0.0225000046195,-5.0015547259363296e-14,1.3166830594397458,0.18419011855826983,5.071737620001325,2.2620948518295503,0.06186900480081267,0.09119630623312601
2,2,43.75535420510001,4374.5,1521536756.0,800216555.0,,2130159.5,1521536756.0,142312681.5,,0.76789170083,-0.147416780194,0.0940322872072,0.8449174337234999,0.534689134703,0.005311060479820001,-0.0139047491946,-0.0012517729641345,0.008472255139704999,0.00847883321792,0.01447688815015,-0.00831024717464,0.2096333113295,0.08103336393799998,-3.8517655134199993,4.705256700515,1.95564866066,0.353481262922,0.500236302614,1486531.5,1521536756.0,135696883.5,,,,,,1635100.5,1521536756.0,797366983.5,,-1.3119999885575,-1.5699999839049998,-0.982999420166,-0.05650000087915,-0.12250000238449996,-0.05750000104309999,-7.0,-5.0,-2.0,1.5,12.5,239.0,239.5,242.5,278.0,306.0,4.0,-0.5299999713915,-0.969999983905,-0.10999870300250003,0.0424999985846,0.007499996572000026,0.027499999851000014,2.2699188927103258,0.14664498219681077,6.0812913590934,2.0493284377159044,0.01205141715497806,0.21029685142100116
3,3,43.857918307700004,4383.5,1521536756.0,889874100.0,,2130166.5,1521536756.0,212308893.5,,0.7680459917545001,-0.14811021271250002,0.0930454886914,0.8440464890215,0.5360845580425,0.004912950636850001,-0.01321795172575,0.009698535216625,-0.010153651329345002,-0.008343419609225,-0.005968467032435001,-0.011948936681280001,0.006161127590250004,-0.4285313524308,-2.7153607606900003,5.525623321535,1.4089419245700001,0.042453166097249986,0.417423725128,1486535.5,1521536756.0,207181218.5,,,,,,1635109.5,1521536756.0,887442740.5,,-0.7020000934605,-0.4350000083445,-0.9579998016355,-0.05199999921025,-0.13599999994,-0.0964999981225,-19.5,-17.5,-16.0,-9.0,112.0,250.0,254.5,262.0,315.5,337.5,4.0,0.609999895097,1.1349999755604998,0.024999618530499926,0.004500001668900007,-0.013499997555500036,-0.038999997079400016,1.2648291419839768,0.1746775587738405,6.171655877655739,1.470089175670113,0.016333121913511363,0.014709152923055835
4,4,43.960482410299996,4394.5,1521536756.5,500100016.0,,2130177.0,1521536756.0,317318540.0,,0.7674669962549999,-0.147756998671,0.09035141565610001,0.8432140959860001,0.537432039563,0.0033962986582100002,-0.0120522337329,-0.018442025700400003,0.017419632994299997,-0.0206431745652,0.00831820629735,0.0525118400126,0.00641326921771,-0.15354296565099998,2.13494968414,7.511382102969999,-0.587106227875,0.217658996582,0.172535985708,1486543.5,1521536756.0,317710009.5,,,,,,1635120.5,1521536756.5,497886348.5,,-0.1769999980925,-0.605000025034,-0.02800140380845,-0.06900000199675001,-0.155500002205,-0.10200000181775,-16.5,-13.0,-9.0,15.0,65.0,276.5,287.0,296.0,356.5,365.0,4.0,0.525000095368,-0.1700000166895,0.92999839782705,-0.017000002786500008,-0.019500002264999983,-0.00550000369525,0.6309818604612414,0.19835637456892458,7.810406307800407,0.6494904371635704,0.03270615510450043,0.05355199267602465
5,5,44.0630465128,4406.5,1521536757.0,119876503.5,,2130188.0,1521536756.0,427310937.0,,0.767908808395,-0.14449278725,0.08744428316099999,0.8454811397509999,0.533837769716,0.004243826407719999,-0.0126833704871,0.00664171746816,0.049017286996,-0.052914996195199994,0.013956482217700001,-0.0237392614265,0.0408626244994,1.97630786896,3.5010731220199998,6.173008918759999,-1.3190734386399998,0.85511392355,0.0312719084322,2130542.0,1521536756.0,435413196.0,,,,,,1635132.5,1521536757.0,117215053.5,,-0.2269999504091,-0.7250000000000001,-0.027999496460099985,-0.05800000019375,-0.1349999979135,-0.06299999915065001,-12.0,-11.0,-8.5,-1.5,52.0,274.0,283.5,290.5,333.5,355.0,4.0,-0.04999995231660001,-0.11999997496600012,1.9073483500144089e-06,0.011000001803000007,0.020500004291499983,0.039000002667099985,0.7602223025456127,0.1598686940964425,7.366773032321179,1.5723080140454735,0.07243482351544125,0.04927565331832397
6,6,44.1656106154,4413.5,1521536757.0,191718458.5,,2130196.0,1521536756.0,507311141.0,,0.769496709385,-0.141729330692,0.08331166967039999,0.844952126436,0.534632563254,0.0067931256959,-0.0133334085257,0.0342675044201,0.0075612144695699985,-0.0469162160262,0.0253837766582,-0.07347349252730001,-0.032475258752000004,0.976571261883,1.2017456293100002,5.8363709449800005,-0.486018300056,0.703607678413,0.0948370397091,2130549.0,1521536756.0,505400863.5,,,,,,1635139.5,1521536757.0,187341312.0,,-0.2419998168945,-1.3899999991049998,0.27699890136749994,-0.0559999998659,-0.117000002414,-0.05100000090895,-1.0,1.0,2.0,7.0,95.0,246.0,257.0,264.0,304.0,316.0,4.0,-0.0149998664854,-0.6649999991049997,0.3049983978275999,0.002000000327849999,0.017999995499500016,0.011999998241700005,1.4378429330937623,0.1393771883866571,6.0383035526965845,0.8603903865175628,0.058588097337714196,0.08424566845008676
7,7,44.2681747179,4424.5,1521536757.0,301857948.0,,2130207.0,1521536756.0,617315261.5,,0.7707909034739999,-0.1413463806985,0.0769576240405,0.8450864600770001,0.5343997781405,0.007854121093759998,-0.0135641551117,0.01388050996508,-0.01544931112295,-0.0674254911061,0.004262812481295,-0.01963433081562,-0.02024258289434,-1.227751463653,1.44470512867,6.4831097125999975,-0.46076261997199996,-0.25290535483520005,0.08012079633785,1486564.5,1521536756.0,619186892.0,,,,,,1635151.0,1521536757.0,302500708.0,,0.20300011634799997,-0.8199999988065001,-0.008000946044900002,-0.055000001564600005,-0.1405000016095,-0.06850000098350001,-9.0,-7.0,-5.5,30.5,87.0,231.0,237.5,244.0,286.5,304.5,4.0,0.4449999332425,0.5700000002984997,-0.2849998474123999,0.0009999983012999938,-0.023499999195500002,-0.01750000007455001,0.8447917260588997,0.16570304993908533,6.754647149253312,0.5316790878655953,0.07055173011318121,0.02852088145661203
8,8,44.3707388205,4438.5,1521536757.0,439990996.5,,2130223.5,1521536756.0,782309793.0,,0.7729008262404999,-0.1429442418765,0.06138592451365001,0.845959228644,0.5329430977095,0.01118807549195,-0.01411935813625,0.007784553639035,-0.014475025414725,-0.10372354819645,0.03025714439995,-0.0309854136424,-0.018181539689705,-0.4127297028879999,0.17312830314055005,10.7488975525,0.07542879879490001,0.25436423020415,0.2320964112875,1486576.0,1521536756.0,780181773.5,,,,,,1635164.0,1521536757.0,431808112.0,,-0.03200001716600001,-0.8199999988075,0.392000579832,-0.07000000029794999,-0.138499997556,-0.06299999915065001,-11.0,-9.5,5.0,27.0,111.0,110.5,114.0,118.0,123.5,129.0,4.0,-0.23500013351399998,-9.99866855977416e-13,0.4000015258769,-0.014999998733349984,0.002000004053499982,0.0055000018328500025,0.9094440355137574,0.16748507174583324,10.75821164558194,0.35250448142899926,0.10501761798182832,0.04696976720528187
9,9,44.47330292310001,4447.5,1521536757.0,529860496.0,,2130232.5,1521536756.0,872311351.5,,0.7716259773095,-0.145055728702,0.0535016129959,0.8448566626905001,0.5346792324815,0.0106465847079,-0.014898554579,-0.01188734948017,-0.0292345092917,-0.07782514413649999,-7.524765029999839e-05,0.007369444793454998,0.10131985899115,4.01779294014,-1.068333387375,5.032589912415,0.856387555599,1.832716405395,0.4260656237605001,1486581.5,1521536756.0,865681545.5,,,,,,1635173.5,1521536757.0,528349873.5,,-0.271999788284,-1.295000007747,-0.058000183105500015,-0.044999999925499995,-0.145499996841,-0.06499999761585,-11.0,-9.0,-4.0,33.5,108.0,91.0,92.0,96.0,98.0,103.5,4.0,-0.239999771118,-0.4750000089395001,-0.4500007629375,0.02500000037244999,-0.0069999992850000034,-0.0019999984651999925,1.324527435024108,0.16559060590530647,6.527706914603334,2.0673125026805272,0.08398046600881177,0.10158753961367101
10,10,44.575867025600004,4455.5,1521536757.0,609833478.5,,2130240.0,1521536756.0,947308394.0,,0.7694956783845,-0.147197769422,0.04901007564820002,0.8451885255305,0.534160059513,0.008234869940735,-0.016166100970900002,-0.035374347025300006,-0.022189857581685,-0.0517754401062,-0.01821467108939,0.07254649283075,-0.007643629337903998,-0.16745018959000002,0.8725914955120001,7.737274646760001,-0.2270504832265,0.04344755411150003,0.1997760310765,2130593.0,1521536756.0,945362380.0,,,,,,1635181.5,1521536757.0,608250512.0,,-1.80700011253,-1.35,-0.13299903869625002,-0.0384999997914,-0.164999999106,-0.0769999995828,-5.0,4.0,5.0,23.0,149.0,85.5,89.5,94.0,96.5,111.0,4.0,-1.535000324246,-0.054999992253000014,-0.07499885559075001,0.006500000134100001,-0.019500002264999983,-0.01200000196695,2.259521664197438,0.18610816646420705,7.788123936059871,0.3055324442417492,0.0665163920034191,0.07518771797569061
11,11,44.678431128199996,4468.5,1521536757.0,739943504.0,,2130253.5,1521536757.0,82310739.0,,0.7671435966340001,-0.1494412539615,0.0398098162585,0.8457387056350001,0.533268587131,0.006246896257744999,-0.017647360760450002,-0.006793260903625,-0.03267853385725,-0.08691804103775,-0.0020420396314500006,0.01154806088299,-0.016760670382869998,3.83691048622,2.41991186142,3.7169611454,-0.6958923935895001,1.496620595455,0.30842930078499997,1486597.0,1521536757.0,82208446.0,,,,,,1635194.5,1521536757.0,737151212.0,,-1.1670000076315001,0.09000002741799995,-0.07800064086899999,-0.05350000038739999,-0.16250000149,-0.06850000098345,-13.0,-4.0,0.5,21.0,50.5,120.0,126.0,128.5,130.5,138.0,4.0,0.6400001048985,1.440000027418,0.054998397827250016,-0.015000000595999985,0.0024999976160000052,0.008499998599350009,1.173061431777184,0.18428442869769124,5.8646104433900375,1.6790676173932146,0.09310628779306018,0.02045599441965293
12,12,44.7809952308,4477.5,1521536757.0,831945896.0,,2130262.5,1521536757.0,172310496.5,,0.7692093933995,-0.15097972428200002,0.0303123935552,0.843533762093,0.5367847803474999,0.00932097354548,-0.01501682132585,0.044343368155950004,-0.04088400036555,-0.1033959732102,-0.03513899628075,-0.14298683717799998,0.0884427941478,2.28512430191,-0.9527912735945,4.796158075335,0.5793537646535001,1.0312553048150002,0.3314567506315,2130614.0,1521536757.0,155384903.0,,,,,,1635203.5,1521536757.0,827267019.0,,-0.6470000267029999,-0.54500002265,0.3869995117185001,-0.048000000417250006,-0.1550000011925,-0.06400000117719999,-11.0,-8.0,7.0,11.0,58.0,241.5,245.0,248.0,265.0,288.0,4.0,0.5199999809285,-0.6350000500680001,0.4650001525875001,0.00549999997014998,0.0075000002975000035,0.004499999806250003,0.9302702195128794,0.174427637031557,5.3974750179893025,1.2284143705877322,0.11970197601288297,0.17176178999549513
13,13,44.8835593333,4486.5,1521536757.0,919919490.5,,2130269.0,1521536757.0,237309648.5,,0.7713210918239999,-0.15229118255500002,0.02509494506555,0.8434424681495001,0.536915724156,0.0122149936166,-0.01330537338565,0.019310342621105,-0.0265498597084,-0.09460940606805,0.01050348692225,-0.06669938140944999,-0.03331952000735,0.585530988874,-0.438733339309,6.052987098689999,0.7693222761145,0.6291614025810002,0.373930156231,2130622.0,1521536757.0,235386958.0,,,,,,1635212.5,1521536757.0,917663540.0,,-1.2720000267025,-0.25999999642390004,0.386999511719,-0.054500000551349986,-0.1585000008345,-0.07099999859930001,-18.0,-12.5,-11.5,-10.5,101.0,248.5,254.5,278.5,294.0,305.0,4.0,-0.6249999999995001,0.2850000262261,4.99933427988708e-13,-0.006500000134099987,-0.0034999996420000123,-0.0069999974221000155,1.3547518917286416,0.18202609737544298,6.097047342678303,1.061849611179769,0.10014351750976877,0.07529489445805311
14,14,44.98612343590001,4499.5,1521536758.0,49779534.0,,2130281.0,1521536757.0,357326151.0,,0.766190616127,-0.155323899124,0.0165760746378,0.842976230147,0.53765691893,0.00696735325774,-0.016357534129899997,-0.07337360497739999,-0.0630536299597,-0.0783541885497,-0.0504320170287,0.195320042192,0.00406535085387,2.13948130608,-0.38053077459299994,6.437085628509999,0.49890944361699996,0.963782131672,0.321786671877,1486616.5,1521536757.0,369190440.5,,,,,,1635225.5,1521536758.0,47207320.5,,-2.16700000763,0.255000048875775,0.142000579834,-0.047499999403949986,-0.1410000026225,-0.0969999991356,-6.0,-5.0,-2.5,20.0,69.5,213.0,225.0,228.0,242.0,253.0,4.0,-0.8949999809275,0.515000045299675,-0.244998931885,0.007000001147400001,0.01749999821199999,-0.0260000005363,2.1865676807883765,0.17761264176636374,6.79398670283127,1.1319599341222837,0.12449427706427413,0.20176678195637857
15,15,45.088687538500004,4509.5,1521536758.0,149891495.0,,2130291.0,1521536757.0,457309617.0,,0.76077600553,-0.158242542524,0.009618285893995,0.8434417376425,0.536877265056,0.00108005640035,-0.019173791752349997,-0.043262779522199986,-0.030576422212200007,-0.08069127425820001,-0.02198094465935,0.12233996629975,-0.01907653025168,2.927609026435,-1.33137559891,4.371483564375,1.072833955287,1.2671599090085,0.3590292036535,2130645.0,1521536757.0,465383466.5,,,,,,1635235.5,1521536758.0,147710830.5,,2.08800034523,1.3149999916600001,-11.222999191285,-1.084000051025,0.195499993861,-0.117499999702,-7.0,-3.0,0.5,6.5,9.5,293.5,302.0,312.0,375.0,381.0,4.0,4.25500035286,1.0599999427842248,-11.364999771119,-1.03650005162105,0.33649999648350004,-0.0205000005664,11.49106963112356,1.1077376079883827,5.427091684377315,1.6986962352613975,0.0965280654975394,0.12575429729748655
16,16,45.191251641,4516.5,1521536758.0,220412969.0,,2130298.5,1521536757.0,532308199.5,,0.7695534194085001,-0.1598204511745,0.007922498166215,0.8435083637109999,0.5368555302675,0.009806670898854999,-0.0135153701911,0.1967635300345,0.004676647309560001,0.011381549042085,0.048714555772650006,-0.4777972791475,-0.01812119901395,1.0532923340784999,-0.32262827456,0.309459924698,0.8962050974369999,0.640651732683,0.350249782205,842605.5,1521536757.0,539000064.0,,,,,,1635242.5,1521536758.0,217127040.5,,-1.69699997902,-2.104999995235,-2.06300125122,-0.1205000020565,-0.11349999904625,-0.0764999985695,6.0,7.5,12.5,23.5,78.5,287.0,291.5,294.5,357.0,368.5,4.0,-3.78500032425,-3.4199999868949997,9.159997940065,0.9635000489685,-0.30899999290725,0.041000001132500005,3.4010010395865096,0.18235884968996913,1.1442373833991744,1.1559814571161782,0.19714790752197442,0.48061598575014525
17,17,45.2938157436,4528.5,1521536758.0,342549443.0,,2130310.5,1521536757.0,652310634.5,,0.7834263855625001,-0.16209199705850005,0.004710599259945,0.8442687407005001,0.5353491177,0.0241655447377,-0.005243257999189999,0.07169859740385001,-0.05811287718555001,-0.01564676771729,-0.08579212229534999,-0.160362705989,0.012821835127174998,-4.597990751269999,-1.7608450651199998,2.7207667827649997,1.5428338646899995,-0.9630691409105,0.3509479165075,2130664.0,1521536757.0,655403160.0,,,,,,1635254.0,1521536758.0,333196128.5,,-0.21699995994600002,0.3749999940395,-6.232999420165,-0.4914999902245,-0.09349999949345,-0.06950000114739999,16.0,16.5,18.5,30.0,84.0,317.0,323.0,330.5,381.0,406.5,4.0,1.480000019074,2.4799999892745,-4.169998168945,-0.3709999881680001,0.019999999552800005,0.0069999974221000155,6.248039352462772,0.5051185409935448,5.6253592043814695,1.8522966674669918,0.09360884949865059,0.18232083034059274
18,18,45.3963798462,4540.5,1521536758.0,461696982.0,,2130325.5,1521536757.0,802312391.0,,0.789269290634,-0.1676629141745,0.002088780960585,0.8455403109110001,0.5331807350744999,0.02788360224085,-0.001475216370795,0.0487451104996,-0.029797142718750006,-0.0150222489209,0.021011936589700003,-0.09494739395525,-0.06667330328229999,4.279010295865,2.20927286148,-7.7531614303600005,-0.303746007383,1.9410812854750001,0.130644671619,842616.0,1521536757.0,796999936.0,,,,,,1635266.5,1521536758.0,459371099.5,,-0.4970001697545,2.600000077485,-6.728000259400001,-0.714000016451,0.09300000220555,-0.09899999946364998,24.0,24.0,27.5,37.0,58.5,269.5,276.0,281.5,319.5,349.0,4.0,-0.28000020980850004,2.2250000834455,-0.4950008392350007,-0.22250002622649995,0.186500001699,-0.029499998316250005,7.230006712455009,0.7268053548207135,9.127010893705158,1.9690419558873875,0.05907303508760365,0.11790605781178748
19,19,45.498943948699996,4550.5,1521536758.0,559781551.0,,2130335.5,1521536757.0,902314901.0,,0.7962128464395,-0.17007070891299994,-0.002021285256355,0.8463536982325001,0.5315067534210001,0.0343281872211,0.0027246497344050003,0.05626245873895,-0.03244525954019,-0.056227674374050005,-0.007360436683099998,-0.128223279159,-0.03640754129880002,0.3861205950377,2.908945679665,-3.349938333035,-0.241385415196,1.035308659077,0.15298552066100002,842619.5,1521536757.0,894499968.0,,,,,,1635276.0,1521536758.0,553612100.0,,-1.5969998359650002,4.43000000119,-7.388000106814999,-0.8194999992845,0.041500001214449994,-0.08500000089410001,13.5,15.0,17.5,39.0,58.0,153.5,157.0,171.0,176.0,181.5,4.0,-1.0999996662105,1.829999923705,-0.6599998474149986,-0.10549998283350004,-0.051500000991100005,0.01399999856954999,8.761155977661515,0.8249409064169941,4.453441468829611,1.0740277034420844,0.08590524137383318,0.13349492278688577
20,20,45.6015080513,4560.5,1521536758.0,661561012.0,,2130345.5,1521536757.5,502309068.5,,0.8013501462070001,-0.17404694872049994,-0.00827697292931,0.8478966018645,0.528705891537,0.03893240600415,0.00504938547786,-0.01675899972185,-0.013247428638495002,-0.09087918193495,0.01213165498304,0.02288833659985,-0.029120619581299998,6.342674970630001,1.602491557595,-2.8816024065,0.28614409267900004,3.653912067415,0.358600333333,842623.5,1521536757.0,995000064.0,,,,,,1635286.5,1521536758.0,658435995.0,,0.3579998493195,2.030000025035,-4.6879993438700005,-0.49200001359,0.04999999981375,-0.0960000008345,7.0,7.0,11.5,21.0,28.5,236.0,242.0,250.5,295.5,303.5,4.0,1.9549996852845,-2.399999976155,2.700000762944999,0.3274999856945001,0.0084999985993,-0.010999999940400004,5.121171920750214,0.5037658320233313,7.148505956097828,3.6826004449631218,0.09335622178716707,0.03897516503793596
21,21,45.7040721538,4570.5,1521536758.0,759817599.5,,2130355.0,1521536758.0,97313730.0,,0.7923029588815,-0.17626297102049998,-0.01512744609585,0.8492259075615001,0.5272089844405,0.029392673599600006,5.373717712500031e-06,-0.13307857214149998,-0.033510678433350004,-0.07213880572305001,-0.0646914087979,0.3122417600155,0.003564962146855,7.911726713180001,2.04707503319,3.66176187992,-0.4431939721104999,3.4119148254400002,0.2883921116595,2130707.5,1521536758.0,90371216.5,,,,,,1635296.0,1521536758.0,753458075.0,,0.10800008773814998,0.5150000393375002,-1.0379997253449995,-0.08550000190729999,-0.08599999919535001,-0.0635000001639,2.5,10.0,16.0,39.0,94.5,249.0,261.5,275.0,315.5,320.0,4.0,-0.24999976158135004,-1.5149999856975,3.649999618525001,0.4065000116827,-0.1359999990091,0.032500000670600014,1.1637579169592658,0.1368886416345922,8.955134607631038,3.452644447816742,0.1550383153398919,0.3188927782577439
22,22,45.806636256400004,4580.5,1521536758.0,862513542.0,,2130364.0,1521536758.0,187826963.0,,0.78324053605,-0.17789197878899998,-0.0183594423521,0.8491279461300001,0.5278067356480001,0.0196843524783,-0.003782482266530001,-0.0496892471363,-0.004464994428430001,-0.0243086121276,-0.0012150468764100001,0.0892000933686,-0.0294536790413,12.406148910499999,2.15488386154,0.897086083889,-0.126870840788,4.26590251923,0.352911740541,1486673.5,1521536758.0,183682185.5,,,,,,1635306.5,1521536758.0,858726498.5,,-0.12700004577649998,-0.7200000047685,-0.13300094604499998,-0.08799999952314999,-0.13349999487400002,-0.07249999791385,14.0,16.0,21.0,23.0,78.5,168.5,176.0,177.0,203.0,216.0,4.0,-0.23500013351465,-1.235000044106,0.9049987792999996,-0.00249999761585,-0.04749999567865002,-0.00899999774995,0.743113901190617,0.1755633738709207,12.62381949681368,4.282355334442343,0.055496541151573674,0.09394494241281298
23,23,45.909200358999996,4591.5,1521536758.0,969967603.0,,2130373.0,1521536758.0,276808913.5,,0.7853363503165001,-0.17611763042200002,-0.0182561389339,0.848713346248,0.5283607932509999,0.022604910448800003,-0.0030747714020249997,0.03666549941904999,0.008603538388844999,0.011824789765495,0.008717507423924999,-0.0848021958969,0.014874705597299996,7.183097124095001,1.0876001417645,1.940444886685,0.201722502708,2.927700042725,0.3943821042775,1486681.0,1521536758.0,289432869.5,,,,,,1635317.0,1521536758.0,963271405.0,,-0.151999902725,-1.27499999702,-0.307998275757,-0.07199999690060001,-0.11699999868899999,-0.06499999761580001,22.0,25.0,36.0,52.0,147.0,150.5,153.5,169.0,174.5,179.0,4.0,-0.024999856948500012,-0.5549999922515001,-0.17499732971200002,0.016000002622549983,0.016499996185000018,0.007500000298049994,1.3204514003547023,0.1519802583790619,7.51964658217459,2.961022923323137,0.039474110166726244,0.086537068538452
24,24,46.01176446149999,4600.5,1521536759.0,59893012.0,,2130383.0,1521536758.0,376820106.0,,0.787858787616,-0.17584943657699995,-0.017079458787299998,0.8488914535109999,0.527960327959,0.025257708579099997,-0.00180011502394,0.0110578780735,-0.0060266369837,0.012492412694299999,-0.00148868239256,-0.0138880340243,-0.010277564055299998,6.07480669022,0.999315798283,0.707512199879,0.227894455194,2.4879732132,0.369591057301,2130735.0,1521536758.0,364893935.0,,,,,,1635326.0,1521536759.0,54703404.0,,-1.27199978828,-0.055000013113,-1.9780002594,-0.09499999880789999,-0.0750000029802,-0.0769999995828,8.0,12.0,38.0,42.0,108.0,148.5,150.0,156.0,161.5,169.5,4.0,-1.119999885555,1.2199999839070002,-1.6700019836430002,-0.02300000190729999,0.0419999957088,-0.01200000196699999,2.3523378773070127,0.1434538258684034,6.1969736082395315,2.5255779817589823,0.017738584942052184,0.01734133752733125
25,25,46.1143285641,4612.5,1521536759.0,179825901.5,,2130395.0,1521536758.0,496817468.0,,0.7888290190520001,-0.176487621132,-0.016841478860299998,0.848867112656,0.527955572077,0.026211443387000002,-0.0007065405887210001,0.004447669507489999,0.0132803798743,0.0048507847839200004,0.018230352762,-0.0145479985232,0.0020658420538199997,5.18283128738,1.09939277172,1.77582836151,0.189050346613,2.32804560661,0.323603391647,1486695.5,1521536758.0,495449311.5,,,,,,1635338.0,1521536759.0,174824310.5,,0.6080000877359001,0.6000000178805001,-0.15299949645985,-0.1515000015495,-0.08250000327825,-0.09299999848005,9.0,11.0,14.5,36.5,42.0,142.5,145.5,155.0,161.5,170.0,4.0,1.8799998760158998,0.6550000309935,1.82500076294015,-0.0565000027416,-0.007500000298049994,-0.015999998897249998,0.8677977725601917,0.19597831698353535,5.587841353286482,2.3580194093976536,0.014821618220473723,0.023414903934232182
26,26,46.2168926667,4619.5,1521536759.0,249789953.0,,2130401.0,1521536758.0,556816170.0,,0.7888336449519999,-0.175918331632,-0.017150479843999998,0.848961053171,0.527788187837,0.026514574547700002,-0.00131769275696,-0.0164397224626,0.0030558663368800004,0.00525929256563,-0.00374479529515,0.0558786745857,-0.00932308615034,4.64530706406,1.19261693954,2.3385148048400004,0.08800212293860002,2.1289246082299997,0.299169480801,1486700.0,1521536758.0,554454571.0,,,,,,1635345.5,1521536759.0,248205907.5,,-0.15200014114399998,1.1150000631794998,-1.3980003356900002,-0.13349999487400002,-0.06700000166895001,-0.1035000011325,4.0,8.0,11.5,34.0,77.0,147.5,148.0,162.0,171.0,185.5,4.0,-0.7600002288798999,0.5150000452989998,-1.24500083923015,0.018000006675499974,0.015500001609299985,-0.010500002652450005,1.794640388040857,0.18172368885047663,5.335715919756163,2.151642800144043,0.017528917593710183,0.05677472765785666
27,27,46.3194567692,4631.5,1521536759.0,370147943.0,,2130413.5,1521536758.0,681807567.0,,0.7878943318430001,-0.1760417127775,-0.016604905106400003,0.848778927153,0.5281331178515001,0.0254372422725,-0.0016186215851049998,0.00205453098879,0.01504173598539,-0.0032993412439940003,0.00931480804392,-0.01480772333335,0.0220883766553,7.284632444385,1.22433048487,1.636193692685,0.173090495169,2.894007086755,0.3629416823385001,1486708.5,1521536758.0,687448702.0,,,,,,1635357.0,1521536759.0,362852832.5,,0.00299983024599998,0.2499999940395,-0.7030006408695001,-0.0855000019073,-0.107499998063,-0.07400000095364999,10.0,15.5,22.5,44.0,82.5,144.0,148.5,162.0,163.5,171.5,4.0,0.15499997138999996,-0.8650000691399998,0.6949996948205001,0.04799999296670002,-0.040499996394049984,0.02950000017885002,0.7461359775966996,0.15602083210531056,7.56584329641784,2.9218083445846874,0.015535783587653207,0.02817677594187307
28,28,46.4220208718,4642.5,1521536759.0,481802463.0,,2130427.5,1521536758.0,821809465.0,,0.7883875477565001,-0.17627141336599994,-0.0162074505246,0.8488241596639999,0.528049694247,0.02567701536305,-0.00131343451062,-0.0038740470615695006,-0.0016905296640000007,0.008834630200160001,-0.005793376982473,0.005815618275019998,0.01725051207965,5.856479644775,1.535607278345,2.9508835077300004,-0.1888596788049,2.364738821985,0.278813943267,2130780.5,1521536758.0,819870588.0,,,,,,1635368.5,1521536759.0,479859299.0,,0.03799991607674999,-1.6749999992550002,-0.8229995727535,-0.08300000056625,-0.1130000017585,-0.03849999886005,2.5,4.0,11.5,45.5,72.0,157.5,160.0,163.5,164.0,183.0,4.0,0.03500008583075001,-1.9249999932945,-0.1199989318839999,0.002500001341050009,-0.005500003695500008,0.035500002093599985,1.8666540354009187,0.14539687205590893,6.735291903040503,2.388596845313455,0.009793713389399262,0.01910405192078228
29,29,46.52458497439999,4650.5,1521536759.0,563313484.0,,2130435.5,1521536758.0,901809156.0,,0.7894271353955,-0.17621883376249994,-0.01509806553145,0.8489416771185001,0.527803521848,0.0268465646573,-0.0008501426792639999,0.012841015612495002,0.010243176233095,0.011708142088060002,0.009450397612295,-0.0375958855971,0.005906561006445,5.966982126235,1.7141547799099999,2.184013009075,-0.17274720966850002,2.394586920735,0.2853131592275,1486723.0,1521536758.0,891940384.0,,,,,,1635376.0,1521536759.0,554280912.0,,-0.7319998264315,-2.3499999702000003,-0.5630012512210001,-0.06149999797345,-0.117499999702,-0.06450000032780001,-2.5,-1.0,7.5,39.0,106.5,158.5,159.5,171.0,176.5,199.0,4.0,-0.76999974250825,-0.6749999709450001,0.2599983215324999,0.021500002592799997,-0.004499997943500006,-0.02600000146775001,2.5249344575081865,0.1474745731405606,6.581270023947133,2.4177038111050244,0.020171636831372526,0.03921285620537681
30,30,46.6271490769,4663.5,1521536759.0,689834475.0,,2130448.5,1521536759.0,31807461.0,,0.7907056432074999,-0.17560075647550002,-0.0138492490321,0.8486824083355,0.5281654257599999,0.02791701020775,-0.000269597391192,-0.004431299905885,-0.01041035150936,0.0074559211372150005,-0.0208126950684,0.0220458681682,-0.0017503867263800002,3.5860832929600006,1.3320971727349995,3.337963581085,0.004980988800549993,1.5080105066299998,0.2994707226755,2130801.5,1521536759.0,29886859.5,,,,,,1635389.5,1521536759.0,688769308.0,,-0.436999988556,0.269999974966,-0.367999649048,-0.07650000229475,-0.10800000280099999,-0.07200000062584999,-4.5,1.5,4.0,7.5,76.5,150.5,157.0,160.0,182.0,194.0,-1.0,0.2949998378755,2.619999945166,0.1950016021730001,-0.015000004321300003,0.009499996901000007,-0.007500000298049979,0.6318961292641663,0.15066602485708303,5.077053981425174,1.5374664913732872,0.013550003594416493,0.03036860933582147
31,31,46.729713179499996,4670.5,1521536759.0,759868502.0,,2130454.5,1521536759.0,91813054.5,,0.7905527131050001,-0.175230197868,-0.01366518311985,0.8486366641534999,0.5282308588355,0.028068710636,-0.0001866890682482,0.004146980157824999,0.00801313438364,0.0046983784143575,0.008220082744335,-0.0113297356495,0.012557600706841001,5.743417263035001,1.05134797096,2.548508048055,0.2485876753925,2.3456588983550004,0.3911719471215001,1486737.0,1521536759.0,94951141.5,,,,,,1635396.0,1521536759.0,754014873.0,,-1.04199976921,-1.2350000053599999,-0.388000106812,-0.0769999995828,-0.10599999874800001,-0.0710000023246,-7.0,-5.5,2.0,16.0,94.0,146.0,152.5,160.5,172.0,200.0,-1.0,-0.6049997806540001,-1.504999980326,-0.020000457764,-0.0004999972880500025,0.002000004053000007,0.0009999983012499852,1.66178597152552,0.1490167775803128,6.370798041405116,2.391009617714631,0.010172636177715605,0.018804946310046162
32,32,46.8322772821,4683.5,1521536759.0,889755487.0,,2130468.5,1521536759.0,231808261.5,,0.7912971666695,-0.17474910007849995,-0.0134361641703,0.8485056370115001,0.528407199862,0.0287049149015,8.502300337941e-05,0.00037984690142499935,0.0257779590224,-0.0009401952214875,0.016185488721749998,-0.002781406298895,0.013028923048297,5.727678775785002,1.4163141250600002,2.699237346645,-0.01810475811365,2.36791706085,0.326796129346,1486747.0,1521536759.0,223434408.5,,,,,,1635409.5,1521536759.0,888569923.0,,-0.277000141144,-2.54999998808,-0.6329990386965001,-0.09050000086425,-0.09050000086425,-0.038999998942,-8.0,-5.5,-4.5,2.5,68.0,149.0,152.0,172.5,177.5,203.0,-1.0,0.7649996280660001,-1.31499998272,-0.2449989318845001,-0.01350000128145,0.015499997883749991,0.032000003382600006,2.641953216919726,0.13379648810912229,6.488307338046309,2.390429814800339,0.02579789569099704,0.020963279847387287
33,33,46.9348413846,4694.5,1521536759.5,499785065.0,,2130476.5,1521536759.0,311815836.5,,0.7910476664665,-0.174311322087,-0.013636267547649999,0.848357404422,0.5286620473615,0.0283908471202,-0.00016648563476300002,-0.00205877267217,-0.0010322735992349986,0.001926098262605,-0.012155831340450002,0.0011334148796900002,0.016337876829899997,6.459609985349998,1.4888275861750002,2.689210534095,-0.02847029268755,2.518919944765,0.3417514413595,1486753.0,1521536759.0,313947598.0,,,,,,1635420.0,1521536759.0,994502568.0,,-0.8819999217990001,-0.30500001311299996,-0.088000869751,-0.0689999982715,-0.128999993205,-0.08900000154969999,-1.0,-1.0,4.0,8.0,36.5,195.0,197.0,198.0,250.5,268.0,-1.0,-0.604999780655,2.244999974967,0.5449981689455001,0.02150000259275001,-0.03849999234075,-0.05000000260769999,0.9373862721041443,0.17123959321431376,7.1536719271208264,2.542157015876856,0.00300233046424966,0.020395467245835592
34,34,47.037405487200004,4700.5,1521536760.0,59870004.5,,2130483.0,1521536759.0,376824396.0,,0.7925291735609999,-0.174729575124,-0.012605862421,0.8486058721340001,0.528194423819,0.029638150290599997,0.000551791855435,0.0214401598002,-0.0161635712501,0.00830631807839,-0.00307416282496,-0.0447273133419,-0.00890775430053,4.88733148575,1.51789653301,2.84574222565,-0.0683411359787,2.06079888344,0.316205650568,842678.0,1521536759.0,364000000.0,,,,,,1635426.0,1521536760.0,54002640.5,,-2.0220000267,-1.1150000005985001,-0.43800125122100003,-0.06549999862910001,-0.1165000014005,-0.058999998495,-6.5,-6.0,0.5,10.5,14.5,209.0,218.5,242.0,248.5,262.0,-1.0,-1.1400001049009996,-0.8099999874855,-0.35000038147,0.003499999642399984,0.012499991804499995,0.030000003054699995,2.3502242883139086,0.14609414762110975,5.855618477272448,2.086036567825584,0.028105807368488098,0.045709201727195836
35,35,47.1399695897,4712.5,1521536760.0,179784535.5,,2130495.0,1521536759.0,496815839.0,,0.7928696108419999,-0.173106210053,-0.012419993018499999,0.848260236918,0.528701435833,0.0304806408538,0.000541058885616,0.0248249515302,-0.00535795941134,0.011658229117299999,-0.00519691240264,-0.0489904712371,0.00931011577337,4.07851934433,1.47031962872,3.57371759415,-0.056803200393900015,1.5687333345399999,0.297980755568,1486764.5,1521536759.0,491958767.5,,,,,,1635438.0,1521536760.0,174463532.0,,0.888000059128,-1.1349999964200002,-0.7880016326899999,-0.05700000002980001,-0.122000001371,-0.0670000016689,-12.5,-11.5,-4.5,39.0,49.0,208.5,214.0,226.0,261.0,269.0,-1.0,2.9100000858279995,-0.01999999582150025,-0.3500003814689999,0.0084999985993,-0.005499999970500004,-0.008000003173899997,1.642472425950231,0.15040611876367865,5.618506678416481,1.5977932936274495,0.027944592566036954,0.05013733565186117
36,36,47.24253369229999,4722.5,1521536760.0,280599593.5,,2130505.0,1521536759.0,596826385.0,,0.793746917725,-0.17316656654800006,-0.0119741733598,0.847898070923,0.529247468078,0.0310447850633,0.00148329995959,-0.00465660849766,0.0032062541414099996,-0.00177853967928,-0.00941806212546,-0.0033800135360700003,0.033018645426,3.48929309845,0.9626026153560001,3.7073872089399997,0.229942917824,1.4525526762,0.345138728619,1486772.0,1521536759.0,596950826.5,,,,,,1635448.0,1521536760.0,274559237.0,,-0.5220000267029999,-0.1649999678135,-0.6480003356935,-0.07899999991060001,-0.122000001371,-0.0599999986589,-13.0,-9.5,-9.5,-6.0,75.0,132.5,140.5,144.0,151.5,153.5,-1.0,-1.4100000858309998,0.9700000286065,0.14000129699649988,-0.0219999998808,0.0,0.0070000030099999925,0.8483003314365009,0.15724185244223882,5.181359863876754,1.5105971549642006,0.005926826445118964,0.034501526509285806
37,37,47.3450977949,4735.5,1521536760.0,409832000.0,,2130517.5,1521536759.0,721813025.0,,0.7964572637105001,-0.17202411159650002,-0.009516068203895,0.8475322362315001,0.5296604618275,0.03380508241695,0.002405316803805,0.0225930303117,0.00816004112612,0.0179053621068,-0.0046434387934305,-0.050115712652900005,0.010374822326805,3.86642575264,0.9352974593629999,3.54679429531,0.23481069505199997,1.708009004595,0.35653793811799994,2130871.0,1521536759.0,724866045.5,,,,,,1635460.5,1521536760.0,400986938.0,,0.078000116348105,-0.2099999845029,-1.2429996490450002,-0.05949999950825001,-0.1255000010135,-0.0669999998063,-5.0,-4.0,0.0,5.0,77.0,113.5,117.0,117.5,120.0,120.5,-1.0,0.6000001430511049,-0.04500001668939999,-0.5949993133515001,0.019500000402350004,-0.0034999996425000013,-0.007000001147400001,1.263024995464274,0.15420603156139664,5.329519604186875,1.7605539252195148,0.029960528734002578,0.05138855044510546
38,38,47.447661897399996,4745.5,1521536760.0,509777068.5,,2130530.5,1521536759.0,851815026.0,,0.7972620757155,-0.17282558295249995,-0.008382007734035,0.8475938519225,0.5295357906170001,0.034161456649550004,0.00308077753559,0.009236663673,0.0009498206750410001,0.012753732987470002,-0.001554872402857,-0.02402759325545,0.01994019397545,5.012704610825001,1.205551207065,2.8962848186500003,0.1532167196275,2.004326820375,0.363822489977,2130883.5,1521536759.0,849906287.5,,,,,,1635470.5,1521536760.0,500780849.5,,-0.4519998550415,-0.9999999910605,-0.6429992675784999,-0.07000000029799999,-0.11749999970200001,-0.0614999998361,-6.5,-3.5,1.5,16.0,73.0,98.0,102.5,108.0,110.5,113.5,-1.0,-0.5299999713896051,-0.7900000065575999,0.6000003814665003,-0.010500000789749985,0.008000001311500013,0.005499999970200009,1.2719087660618682,0.1499616616056594,5.913461505665237,2.0428333682072637,0.015775798561040697,0.03126266465957573
39,39,47.550226,4753.5,1521536760.0,589811443.5,,2130538.0,1521536759.0,926815419.0,,0.7977549550480001,-0.17236767096,-0.00781592642937,0.8475270304379999,0.52959805154,0.0348182355459,0.0033951371301,0.0120189919534,-0.000568634987668,-0.00679733922746,0.00850954300008,-0.0280134588385,-0.0185632352523,4.9727678299,1.2682455778100001,2.27163863182,0.0790275931358,2.0272996425599996,0.34875985979999996,842700.0,1521536759.0,920000000.0,,,,,,1635479.0,1521536760.0,584565228.0,,-0.9720000743863499,-0.4350000083447501,-0.41800079345700003,-0.07799999788405,-0.1110000014305,-0.08750000223535001,-11.0,-9.5,-5.5,-2.0,52.0,104.0,104.5,116.0,121.0,134.5,-1.0,-0.5200002193448501,0.5649999827157499,0.22499847412149995,-0.007999997586050009,0.006499998271499996,-0.026000002399250016,1.1439990451034845,0.16143497260094872,5.612237415621333,2.0585972508017334,0.01381967198953219,0.03466640883043379
