,Unnamed: 0,.header.seq,.header.stamp.secs,.header.stamp.nsecs,.header.frame_id,.endpoint_state.header.seq,.endpoint_state.header.stamp.secs,.endpoint_state.header.stamp.nsecs,.endpoint_state.header.frame_id,.endpoint_state.pose.position.x,.endpoint_state.pose.position.y,.endpoint_state.pose.position.z,.endpoint_state.pose.orientation.x,.endpoint_state.pose.orientation.y,.endpoint_state.pose.orientation.z,.endpoint_state.pose.orientation.w,.endpoint_state.twist.linear.x,.endpoint_state.twist.linear.y,.endpoint_state.twist.linear.z,.endpoint_state.twist.angular.x,.endpoint_state.twist.angular.y,.endpoint_state.twist.angular.z,.endpoint_state.wrench.force.x,.endpoint_state.wrench.force.y,.endpoint_state.wrench.force.z,.endpoint_state.wrench.torque.x,.endpoint_state.wrench.torque.y,.endpoint_state.wrench.torque.z,.joint_state.header.seq,.joint_state.header.stamp.secs,.joint_state.header.stamp.nsecs,.joint_state.header.frame_id,.joint_state.name,.joint_state.position,.joint_state.velocity,.joint_state.effort,.wrench_stamped.header.seq,.wrench_stamped.header.stamp.secs,.wrench_stamped.header.stamp.nsecs,.wrench_stamped.header.frame_id,.wrench_stamped.wrench.force.x,.wrench_stamped.wrench.force.y,.wrench_stamped.wrench.force.z,.wrench_stamped.wrench.torque.x,.wrench_stamped.wrench.torque.y,.wrench_stamped.wrench.torque.z,.tactile_values.tactile_values_0,.tactile_values.tactile_values_1,.tactile_values.tactile_values_2,.tactile_values.tactile_values_3,.tactile_values.tactile_values_4,.tactile_values.tactile_values_5,.tactile_values.tactile_values_6,.tactile_values.tactile_values_7,.tactile_values.tactile_values_8,.tactile_values.tactile_values_9,.tag,.delta_wrench.force.x,.delta_wrench.force.y,.delta_wrench.force.z,.delta_wrench.torque.x,.delta_wrench.torque.y,.delta_wrench.torque.z
0,61.680130000000005,6165.5,1521546268.0,301170587.0,,3081281.0,1521546267.0,357293376.0,,0.6745682141630001,-0.2827105836095,0.152622947284,0.004226655356784999,0.9999541302689999,-0.006758985578394999,-0.005276399944310001,-0.01976387817136,-0.22482663829,0.026579302916250002,-0.012169788912399998,-0.003266653143799997,-0.079112122693,3.278735518455,1.368402063845,14.07039117815,0.0996543914082,1.6496939063050002,0.5031569898129999,3081634.0,1521546267.0,355379898.0,,,,,,2585253.5,1521546268.0,291950170.0,,-0.8730000257514999,-1.449999991434,9.975001525860002,-0.029000001028150004,-0.3790000081065,-0.08599999919535001,301.0,359.5,479.0,624.5,859.5,394.0,503.0,563.0,611.0,801.0,7.0,0.0,0.0,0.0,0.0,0.0,0.0
1,61.782694102600004,6177.5,1521546268.0,421289443.5,,3081293.0,1521546267.0,477290192.0,,0.6710104507419999,-0.30275348607,0.153820875445,0.00735839388137,0.99991040017,-0.00845113067343,-0.00732284517669,-0.0331992408301,-0.14384718382300002,-0.00290683144766,-0.0479312458905,0.0308460805072,-0.0186478100175,3.22735595703,1.74604821205,14.560647964500001,0.22631829977,1.4391978979100002,0.428883105516,2150229.5,1521546267.0,477182374.0,,,,,,2585266.0,1521546268.0,415875404.0,,-1.0830000639,-1.66499996521,9.809996795650001,0.103000000119,-0.34499999880800003,-0.103000000119,318.0,384.5,481.0,646.5,911.0,405.5,498.0,573.0,577.0,810.0,7.0,-0.2100000381485,-0.214999973776,-0.16500473021000062,0.13200000114715,0.034000009298499945,-0.01700000092364999
2,61.8852582051,6188.5,1521546268.0,531163453.5,,3081304.5,1521546267.0,592291767.5,,0.6673537316929999,-0.3137401764035,0.1535394469305,0.010116780098950002,0.999868502544,-0.0076658286253650015,-0.010071771551790001,-0.0248856924947,-0.07128651801915001,-0.00587341285471,0.07974523628305,0.033108567130849996,-0.07905886357035001,3.29847252369,2.9088858366,14.666816711400001,-0.41808107495350005,1.4786524772649998,0.459414571524,1218817.5,1521546267.0,588499968.0,,,,,,2585277.0,1521546268.0,525570285.0,,-0.28300011158000005,-0.745000008121,10.0299980164,-0.00899999961257,-0.31099998951,-0.0879999995232,354.0,381.0,482.0,634.0,841.0,417.0,525.0,557.5,561.5,811.0,7.0,0.7999999523199999,0.9199999570890001,0.2200012207499995,-0.11199999973157,0.03400000929800001,0.015000000595799992
3,61.98782230770001,6199.5,1521546268.0,641172408.5,,3081315.5,1521546267.0,702317597.5,,0.664964618503,-0.32099743854449997,0.1529209151505,0.0063631328451549994,0.9999021204774999,-0.004262565522035,-0.011693309884600002,-0.01186832463354,-0.0806125737018,-0.0037075669558900006,0.042690641588850005,0.00471846695625,0.140606266534,2.8641675710699994,1.9214930534349999,14.70376443865,-0.3669981211425,1.30455112457,0.427441805601,2150244.5,1521546267.0,688192075.5,,,,,,2585288.0,1521546268.0,635313519.0,,0.46699988842,1.46499997042,9.62999649048,-0.158000007272,-0.363999992609,-0.097999997437,311.0,366.5,492.0,624.0,861.5,389.5,514.0,572.0,576.0,813.5,7.0,0.75,2.209999978541,-0.4000015259200005,-0.14900000765943,-0.05300000309899999,-0.00999999791379999
4,62.0903864103,6208.5,1521546268.0,731180548.0,,3081322.5,1521546267.0,772303061.0,,0.6639231724279999,-0.326646503217,0.15275376456700002,0.00246858214499,0.999925420174,-0.0015578204088115002,-0.011827149231950001,-0.017495082646599998,-0.09437305216415,0.008643059948799998,0.096751690656,0.000929452250958,0.1171986918927,2.71707689762,-2.20019221306,15.7398281097,1.5772126913050002,1.26772558689,0.60307636857,2150249.0,1521546267.0,763697824.0,,,,,,2585296.5,1521546268.0,722734250.5,,0.447000145912,-0.5799999866635,11.0800010681,-0.02799999993295,-0.426499992609,-0.07750000059605,309.0,350.0,478.0,604.0,877.0,434.0,505.0,575.0,595.0,825.0,7.0,-0.019999742508000018,-2.0449999570835002,1.4500045776199997,0.13000000733905,-0.0625,0.020499996840949997
5,62.192950512799996,6216.5,1521546268.0,811153530.5,,3081330.0,1521546267.0,847307501.0,,0.6624292443325001,-0.33467059762699997,0.15275891620350002,-0.000549371529356,0.9999213760605,0.0028860999562450003,-0.0121177520801,-0.011237477278,-0.1266902110385,0.010595187409985,0.1049911697604,-0.0222108677457,0.09144262234919999,2.786731362345,-1.6315002441400002,14.961298465699999,0.6801934242250001,1.300541877745,0.583581984043,3081683.0,1521546267.0,845396208.0,,,,,,2585305.0,1521546268.0,806024933.0,,1.3869999647100002,0.474999990687,8.34000320435,-0.268000006676,-0.386000007391,-0.07400000095369999,275.0,334.0,474.0,584.5,824.0,410.0,490.0,585.0,617.0,847.5,7.0,0.9399998187980002,1.0549999773504999,-2.73999786375,-0.24000000674305,0.04049998521800002,0.00349999964235001
6,62.2955146154,6228.5,1521546268.0,931187033.0,,3081342.0,1521546267.0,967306714.0,,0.658576530638,-0.355532486961,0.152714572478,-0.00896860747394,0.999866575593,0.00392297284645,-0.0130769023786,-0.0377493867184,-0.224425548359,-0.00436453080472,-0.0722290451448,0.0258001634478,0.172490961667,3.0542349815400005,-5.37380838394,15.344957351700002,2.01107811928,1.6269005537,0.584349572659,2150263.0,1521546267.0,964201934.0,,,,,,2585317.0,1521546268.0,926031862.5,,-0.10800004005450003,0.18499999903099998,9.429999542245,-0.15299999713880005,-0.450499996543,-0.07699999958275,298.0,317.5,475.0,558.0,848.0,393.5,520.0,596.0,626.0,850.5,7.0,-1.4950000047645002,-0.289999991656,1.0899963378950002,0.11500000953719994,-0.064499989152,-0.0029999986290500102
7,62.3980787179,6240.5,1521546269.0,51266550.5,,3081354.0,1521546268.0,87304441.0,,0.653374431543,-0.385939193448,0.15323051185699998,-0.010763949834,0.999833215081,-0.00209928315169,-0.014603849311,-0.0319166124274,-0.272519504012,0.006543877352,-0.074084736887,-0.00858036285549,-0.0262890184518,3.4943211078600003,-1.40148842335,14.8905115128,1.21689069271,1.50328695774,0.5732420086860001,1218837.5,1521546268.0,92000000.0,,,,,,2585328.5,1521546269.0,43811927.5,,1.4420000314710002,-1.0849999818940002,10.39499969485,-0.038000000524345004,-0.409999996424,-0.08550000190734999,278.5,330.0,474.0,585.0,865.5,390.0,515.0,564.0,582.0,823.5,7.0,1.5500000715255002,-1.2699999809250002,0.9650001526050005,0.11499999661445505,0.04050000011900001,-0.008500002324599992
8,62.500642820500005,6250.5,1521546269.0,151156544.0,,3081363.5,1521546268.0,182307096.0,,0.647533904915,-0.409453278109,0.15410912549,-0.007555604089275,0.9998557843670001,-0.0007984772553645001,-0.01517066066315,-0.08246333610944999,-0.2740318298775,0.00382390537548,0.07352529172609999,0.029130686290305,-0.09320859999624999,1.287870019675,-1.051030635835,16.22314071655,0.8348576426509999,0.7697086930274999,0.489497542381,2150279.0,1521546268.0,188695430.0,,,,,,2585338.5,1521546269.0,143481567.5,,-0.513000011444,0.06499996446249989,9.43999786377,-0.012999999336900004,-0.4574999958275,-0.1094999983905,308.0,340.0,483.0,595.5,875.0,444.0,555.0,578.0,590.0,810.0,7.0,-1.955000042915,1.1499999463565,-0.9550018310800006,0.025000001187444998,-0.047499999403500026,-0.023999996483150002
9,62.603206923100004,6259.5,1521546269.0,241551517.5,,3081375.5,1521546268.0,302342290.0,,0.6382188309804999,-0.44354617274400004,0.1563398550185,-0.004774186017925,0.999886611073,0.0011044223457009998,-0.01423613623165,-0.08374630752949999,-0.31063183937350003,0.023427909556,-0.02027057222414,-0.027189009114,-0.01601426798735,2.835220456125,-3.3185843229299996,15.9234623909,1.457470953465,1.2992105484,0.49083289504050004,3081728.0,1521546268.0,295420780.5,,,,,,2585347.5,1521546269.0,232831262.0,,0.1219999790195,2.3250000443300003,9.60000152588,-0.22299999743700002,-0.388500005007,-0.12349999695999998,253.0,329.0,487.5,568.0,832.0,443.0,547.0,595.0,601.0,841.0,7.0,0.6349999904635,2.2600000798675004,0.16000366211000028,-0.20999999810010003,0.06899999082050001,-0.013999998569499988
10,62.7057710256,6267.5,1521546269.0,321152090.5,,3081383.5,1521546268.0,382377838.0,,0.6320265606759999,-0.4688623368330001,0.1584599080395,-0.0015867399481600002,0.9999106354200001,-0.002129282771415,-0.013088086340399999,-0.09245831712404998,-0.3365763875395,0.021694567268,-0.0949111505049,-0.013653170911435001,-0.10820866970349999,1.43179017305,-1.471140801908,15.434068202999999,0.9501673579225,0.8492182493210001,0.558978676796,2150292.0,1521546268.0,376235718.0,,,,,,2585355.5,1521546269.0,314068642.0,,0.462000012398,-0.310000005737,9.800002288810001,-0.0230000000447,-0.35199999809250004,-0.09149999916555,284.0,334.0,485.0,584.0,842.5,453.0,545.0,593.0,612.0,848.5,7.0,0.3400000333785,-2.635000050067,0.20000076293000113,0.1999999973923,0.03650000691449995,0.03199999779444998
11,62.8083351282,6280.5,1521546269.0,451253414.0,,3081396.5,1521546268.0,512380756.5,,0.621484262991,-0.5062369769495001,0.161889028988,0.005977305470705,0.9998669750895,-0.0077833401693549985,-0.01299555447735,-0.09266021981744998,-0.276846742465,0.02414933861315,-0.02563315804015,0.0283116256652,-0.12948714242,2.28013539314,1.7891628146149998,15.16617250445,0.6643470823765,0.9029094874845,0.5993133485319999,3081749.5,1521546268.0,510468087.5,,,,,,2585368.5,1521546269.0,444077457.5,,-0.6529999971375,-2.9299999508999997,9.76999969481,0.266500003636,-0.3505000025035,-0.09299999848005,314.0,362.5,470.0,620.0,830.0,436.5,544.5,546.5,572.5,847.0,7.0,-1.1150000095355,-2.619999945163,-0.030002594000000826,0.2895000036807,0.0014999955890000471,-0.0014999993144999973
12,62.9108992308,6288.5,1521546269.0,531250476.5,,3081404.5,1521546268.0,592373767.0,,0.6144563924449999,-0.524879707933,0.1638083577875,0.009012539790094998,0.999847088752,-0.00604203216578,-0.013702015532649998,-0.08538131794335001,-0.2296525874145,0.02392085121015,0.06677009446295,0.00425862387427,-0.056394985660849994,2.577823638915,-0.664765685796,15.9444322586,0.7444267869,1.0502085685704998,0.437899172306,3081756.0,1521546268.0,575453185.5,,,,,,2585376.5,1521546269.0,523289814.0,,0.25200009346,-1.0249999795115,10.9150001526,-0.010999999009050005,-0.362000003457,-0.10099999979145,330.0,365.0,505.0,614.0,873.0,439.0,535.0,547.5,568.5,870.0,7.0,0.9050000905975,1.9049999713884997,1.1450004577899993,-0.27750000264505004,-0.011500000953500011,-0.008000001311399996
13,63.0134633333,6300.5,1521546269.0,651252031.0,,3081415.5,1521546268.0,702373278.5,,0.607306445843,-0.548518328643,0.16778976614750002,0.01020070605533,0.999854324324,-0.003292074925455,-0.0132808920795,-0.05575352725275,-0.2258807641415,0.0453863184966,-0.0063259035861000035,-0.004135141401795,0.034459931055650005,4.63850712776,-0.028481200337000013,15.588888645150002,0.40549963712700005,1.69980663061,0.48041872680200004,3081769.0,1521546268.0,705474637.5,,,,,,2585388.5,1521546269.0,643172679.0,,0.11199998855600002,0.4600000049921,10.204997253405,-0.11900000274165,-0.3240000009535,-0.09899999946350001,306.0,350.0,522.0,584.0,862.0,439.0,555.5,565.0,608.5,882.0,7.0,-0.140000104904,1.4849999845036,-0.7100028991949987,-0.10800000373259999,0.0380000025035,0.0020000003279499884
14,63.1160274359,6309.5,1521546269.0,741187572.0,,3081424.0,1521546268.0,787561532.0,,0.603573158211,-0.567885747049,0.171754810006,0.007553382941000002,0.999881545215,-0.00374289278447,-0.012877604545499998,-0.044855055332300005,-0.240956798068,0.0434809262435,-0.010692550102600002,0.000462629184504,0.049054598798699986,4.439099311830001,0.297114133835,14.863262176500001,0.328478008509,1.38556838036,0.515870213509,2150320.0,1521546268.0,779217264.0,,,,,,2585397.5,1521546269.0,732572809.0,,-0.888000011443,-1.1349999938145,10.575,-0.05649999901655001,-0.2900000065565,-0.0909999981523,298.0,352.0,503.0,585.0,871.0,430.5,540.0,562.0,585.0,847.0,7.0,-0.999999999999,-1.5949999988066,0.37000274659499865,0.06250000372509999,0.03399999439700002,0.008000001311200003
15,63.21859153850001,6318.5,1521546269.0,831146001.5,,3081431.0,1521546268.0,857569437.5,,0.6021667014234999,-0.584313369104,0.173607611148,0.0034621265067050003,0.9999353473585001,-0.0025190548702000003,-0.01049102714642,-0.0192231831771,-0.2564652630915,0.027770954464699998,0.0404089330913,-0.09358015380575,0.1248541965765,1.74570506811,-3.924820065500001,14.338139534000002,1.984360933305,0.496260985732,0.5000106692315001,3081785.0,1521546268.0,865618467.0,,,,,,2585406.5,1521546269.0,824208188.0,,0.26700007915475,-0.2949999902398,9.130000305175,-0.04199999943375,-0.303999990225,-0.09299999848005,286.0,353.0,504.0,580.5,848.5,432.5,546.0,549.0,557.0,879.5,7.0,1.15500009059775,0.8400000035747,-1.4449996948249986,0.01449999958280001,-0.013999983668500027,-0.0020000003277499956
16,63.321155641000004,6331.5,1521546269.0,961176991.0,,3081445.0,1521546268.5,497566356.0,,0.5974549522585,-0.621971523291,0.17415458976349998,-0.0031171501925999997,0.9999814813875,0.001732538368095,-0.004882139071625,-0.053264042675050007,-0.3024968694355,-0.012562740496635,-0.0010793242556750005,-0.04966657896269999,0.10025123129555,1.62660342455,-4.6285313367850005,14.95849561695,1.683458209035,1.2443151474,0.589506804943,3081798.0,1521546268.0,995614212.0,,,,,,2585419.5,1521546269.0,954201687.0,,-2.6880000233650003,1.870000001415,9.24999923706,-0.304499998689,-0.5604999959470001,-0.0784999988973,278.0,320.0,500.0,548.5,865.0,424.0,532.0,571.0,603.5,872.0,7.0,-2.95500010251975,2.1649999916548,0.1199989318850001,-0.26249999925525,-0.25650000572200005,0.01449999958275
17,63.423719743599996,6342.5,1521546270.0,71196555.5,,3081455.5,1521546269.0,102562987.0,,0.5897273023880001,-0.6547250760225001,0.1728174326645,-0.006222367531815,0.999968061045,-0.001750174280315,-0.004693202848180001,-0.09837371983965,-0.3091245248515,-0.02058415652145,-0.0520127322753,0.0262466227983,0.05974423109445,-1.2467648983050001,-3.78596842289,15.81773471835,2.300836443905,0.03356026113035,0.7180149853229999,2150343.5,1521546269.0,109809470.0,,,,,,2585430.5,1521546270.0,63913641.0,,-0.7030000686644999,-1.51999998428,9.90000076292,0.02750000171365,-0.4885000139475,-0.0810000002384,305.0,330.0,498.0,569.0,841.5,442.0,490.0,603.0,627.0,871.5,7.0,1.9849999547005004,-3.389999985695,0.6500015258599987,0.33200000040265004,0.07199998199950008,-0.002500001341099997
18,63.5262838462,6351.5,1521546270.0,161190986.5,,3081464.5,1521546269.0,192562811.0,,0.5779669341525,-0.6811535672910001,0.171766651298,-0.00537711675023,0.9999528956235001,-0.0025572289203400003,-0.00765359290441,-0.137862727348,-0.2944199653565,-0.0024076982672465,-0.01109219796565,0.05698604743550001,-0.07338197987850001,-0.6955623328689999,-3.5752688646350004,15.2179389,2.063994288445,0.15041963756100002,0.6236798465255,3081818.0,1521546269.0,195623021.0,,,,,,2585439.5,1521546270.0,153280323.0,,-0.4079999923709999,-1.1200000081200001,10.7050010681,0.005000000353924998,-0.4505000114445,-0.07950000092389999,296.0,332.0,492.0,567.0,851.0,467.0,493.0,601.5,623.5,897.0,7.0,0.29500007629350006,0.39999997615999994,0.8050003051800001,-0.022500001359725002,0.03800000250299995,0.0014999993145000112
19,63.6288479487,6363.5,1521546270.0,281155943.5,,3081479.0,1521546269.0,337576621.0,,0.555475709382,-0.713137641522,0.16973577523449998,0.00120804732709,0.9998989024605,0.007698690431969998,-0.011862733643399999,-0.1653254837115,-0.217209545783,-0.0069590358850200006,0.1988419215985,0.033960284927600004,-0.049691365223324985,2.6254336833950003,-3.842083096505,15.291595935799998,1.0921083092685002,1.2378254532800002,0.581208795309,3081831.0,1521546269.0,325618566.0,,,,,,2585451.5,1521546270.0,273119600.5,,0.04199993610399999,1.609999981149,9.43999786379,-0.22899999469500004,-0.409500002861,-0.1450000032785,282.0,304.0,524.0,536.0,862.0,449.0,507.5,600.5,606.0,886.0,7.0,0.44999992847499987,2.7299999892690003,-1.2650032043100001,-0.23399999504892505,0.0410000085835,-0.0655000023546
20,63.7314120513,6371.5,1521546270.0,361214518.0,,3081487.0,1521546269.0,417560880.0,,0.5419183978859999,-0.729297135565,0.167335053895,0.00019453960198900005,0.999795923146,0.0130457233877,-0.015423466401500004,-0.17472259316,-0.251110323574,-0.0295895891185,0.0755508362703,0.0467751570813,-0.0233244461986,2.9058914184599995,-2.77012062073,15.2198286057,0.351524412632,1.32433068752,0.501480698586,2150364.5,1521546269.0,411306557.5,,,,,,2585459.5,1521546270.0,354450397.0,,-0.607999920845,2.814999934655,6.76000137329,-0.5394999980924999,-0.4465000033375001,-0.10399999842045,261.0,264.5,417.0,602.0,881.5,473.0,517.0,604.0,621.0,901.5,7.0,-0.649999856949,1.2049999535059999,-2.6799964904999998,-0.3105000033974999,-0.037000000476500094,0.041000004858049985
21,63.8339761538,6382.5,1521546270.0,471162080.0,,3081497.5,1521546269.0,522577215.5,,0.523526810229,-0.7492883348789999,0.1609818665335,0.0165647250875,0.99961032611,0.008895699758734998,-0.020585396166450002,-0.22580866196199997,-0.1859317063665,-0.07635452704485,-0.1519244042145,0.307125563504,-0.2498707628075,9.153762340545,0.7965079843999999,16.733100891099998,-0.1339695081115,3.6986129283899993,0.361068159342,2150372.5,1521546269.0,522310264.5,,,,,,2585470.5,1521546270.0,464475068.0,,-0.868000030518,-0.29999998547150003,11.96499938965,-0.0385000007227,-0.5995000004765,-0.12099999561899999,278.5,334.5,346.5,800.0,831.0,364.5,433.5,434.0,527.0,754.0,7.0,-0.260000109673,-3.1149999201265,5.20499801636,0.5009999973697999,-0.15299999713899987,-0.016999997198549985
22,63.9365402564,6390.5,1521546270.0,551517605.5,,3081505.5,1521546269.0,602561959.0,,0.5118617114824999,-0.7583369192564999,0.1578659522275,0.0271968244279,0.9992444362790001,0.0061346939105950005,-0.027073434795249998,-0.1126594224415,-0.10487811631819999,-0.01926758907635,-0.08232950565939999,0.1194092330955,-0.15060852448349998,5.858006238940001,-0.07615199685099994,16.87512683865,1.4964110851299999,1.2548846006399998,0.48002180457149995,3081858.5,1521546269.0,600621402.5,,,,,,2585478.5,1521546270.0,544622942.5,,-0.1529999971391,-0.8849999938170001,10.58999938965,0.23149999976149999,-0.3569999933245,-0.09049999713895003,269.0,379.0,416.0,825.0,888.0,226.0,312.5,396.0,492.5,647.0,7.0,0.7150000333789,-0.5850000083455,-1.375,0.2700000004842,0.24250000715199999,0.03049999848004996
23,64.03910435899999,6400.5,1521546270.0,651164531.0,,3081515.5,1521546269.0,702563788.5,,0.5082478600545001,-0.7600975557784999,0.1557075769475,0.031603512113600005,0.999078488486,0.00842432131049,-0.0277900764328,-0.0215187122623,0.028268911634,-0.0235112719371,0.10163261152435,0.015135412847850003,-0.05806154029825,9.23502111435,-0.6000359356405,17.0043382645,1.2295075655,2.978516936305,0.351671025157,2150385.0,1521546269.0,703313796.5,,,,,,2585488.5,1521546270.0,645289565.0,,0.291999936104,-2.029999974745,10.38999862675,0.234999999404,-0.1889999955895,-0.08249999955295,270.0,396.5,400.5,820.0,827.0,147.0,288.0,437.5,458.5,497.0,7.0,0.4449999332431,-1.1449999809279998,-0.20000076290000024,0.0034999996425000013,0.167999997735,0.007999997586000035
24,64.14166846149999,6413.5,1521546270.0,781162500.0,,3081526.0,1521546269.0,806987600.0,,0.5096105362785001,-0.7546104490395,0.15594617469599995,0.030856162545000006,0.999044213106,0.01376775098175,-0.0277162785312,0.0603332326129,0.05954803653915,0.012429485568435,0.06301237599435,-0.0664337163873,0.04897599753207,6.397382497790001,-0.640006825328,15.3790278435,0.6889010965825001,1.706244647505,0.523272037506,2150392.5,1521546269.0,814032427.5,,,,,,2585501.5,1521546270.0,773576271.0,,0.2669998407365,0.829999994859,10.4749977112,-0.05250000022355,-0.23749999701949998,-0.0625,309.0,314.5,409.0,548.0,634.0,117.5,170.0,174.0,247.0,519.0,7.0,-0.025000095367499975,2.859999969604,0.0849990844500006,-0.28749999962755,-0.04850000142999997,0.019999999552949996
25,64.2442325641,6421.5,1521546270.0,861164450.0,,3081534.5,1521546269.0,891994630.5,,0.516409792359,-0.749098327553,0.1558380809785,0.02748935432795,0.9991980212975,0.015832442064699997,-0.024402694195650002,0.1009665457185,0.073887993831,0.007193782337765,0.03333486446121,-0.0937947562307,0.11347196046579999,5.079583883284999,-0.8939423561120001,15.64626693725,0.820147395134,1.69359225035,0.5591995716095,3081888.0,1521546269.0,895063423.0,,,,,,2585509.5,1521546270.0,855430758.5,,-0.2330000400542,-0.485000017658,9.83999938965,-0.046000000089449995,-0.3895000070335,-0.09999999776465003,261.0,336.0,421.0,493.0,551.0,115.0,170.0,211.0,243.5,388.0,7.0,-0.4999998807907,-1.315000012517,-0.6349983215500004,0.006500000134100008,-0.15200001001400004,-0.03749999776465003
26,64.3467966667,6435.5,1521546270.5,501394509.5,,3081548.5,1521546270.0,31988037.0,,0.529452742455,-0.7381904140285,0.156942173475,0.01570676568225,0.9995140707054999,0.016350052214450003,-0.0213339346125,0.10732898140349999,0.1019860851338,0.014869996208745002,0.018561993504189998,-0.0393045804846,0.21755364747900002,1.860911726955,-0.63261282444,15.296317577349999,0.6744417548180001,0.5328678786755,0.5561998486515,2150407.5,1521546270.0,25035241.5,,,,,,2585523.5,1521546270.0,995044775.0,,-0.643000006676,-0.355000014974,5.490000915525,-0.06499999854724,-0.328500002623,-0.09950000047675,134.0,166.5,177.5,195.0,216.0,-55.5,-45.5,-42.5,-22.5,89.5,7.0,-0.4099999666218,0.13000000268399997,-4.349998474125,-0.01899999845779001,0.06100000441050002,0.0004999972879000253
27,64.4493607692,6445.5,1521546271.0,101174592.5,,3081558.0,1521546270.0,126991387.0,,0.540410247203,-0.731311494706,0.163041796681,0.00689493876193,0.999733878336,0.0140157599633,-0.0169761832734,0.13655732343000002,0.0613223660209,0.0797121000612,-0.0985183102632,-0.167076547081,0.17747540236900006,-0.154342293739,0.6201044321060001,8.74148750305,0.182716101408,-0.142579108477,0.55636715889,2150415.0,1521546270.0,131038746.0,,,,,,2585533.5,1521546271.0,94477040.0,,0.07199990749355001,-1.355000022425,0.4299995422365001,-0.0495000015944,-0.1730000004175,-0.08049999922515,111.0,120.0,137.0,153.0,158.0,-124.0,-113.5,-106.0,-104.5,-91.0,7.0,0.71499991416955,-1.000000007451,-5.0600013732885,0.015499996952840003,0.1555000022055,0.019000001251600007
28,64.5519248718,6456.5,1521546271.0,211202978.5,,3081569.0,1521546270.0,236994847.0,,0.554222539115,-0.7263216052420001,0.175405526364,-0.00245223842611,0.999940751241,0.00674770989921,-0.0081822334746,0.122364595032,0.0474466729666,0.117844797641,-0.131860356377,-0.167264574237,0.178330386021,-3.56551861763,0.411186218262,5.7692465782200015,0.406936734915,-1.5977922678,0.581933498383,2150422.5,1521546270.0,236023171.0,,,,,,2585544.5,1521546271.0,205271527.5,,0.716999888418,-1.51499998905,0.620000076294,-0.0559999998659,-0.11000000312945,-0.0965000018478,117.5,122.0,136.5,140.0,151.0,-127.0,-124.0,-120.5,-115.0,-99.0,7.0,0.64499998092445,-0.15999996662500005,0.1900005340574999,-0.006499998271499996,0.06299999728804999,-0.01600000262265
29,64.6544889744,6465.5,1521546271.0,301163434.5,,3081580.5,1521546270.0,351997237.5,,0.5654891134619999,-0.7192481194405,0.184807188251,-0.00742873890002,0.9999520433904999,0.006278484767814999,0.0011187816900305,0.0673912756706,0.07545089659365001,0.05665647420435,0.10071800182905,-0.13366908005449998,-0.0034058854846145,-3.743005514145,-0.09156538546049996,4.723552703855001,0.504718601704,-1.5605321526550002,0.6006419956685001,3081933.5,1521546270.0,350048772.5,,,,,,2585553.5,1521546271.0,294638492.0,,0.1519999504092,-0.6949999962000001,-0.470000076294,-0.052499998360850016,-0.161000005901,-0.07400000095364999,127.5,132.5,136.0,148.5,154.0,-123.0,-116.0,-111.0,-109.0,-84.0,7.0,-0.5649999380088,0.81999999285,-1.0900001525879999,0.0035000015050499836,-0.05100000277154999,0.02250000089415001
30,64.7570530769,6472.5,1521546271.0,371165394.5,,3081587.0,1521546270.0,416991468.0,,0.5675499176550001,-0.71765720957,0.186988635559,-0.008659674309530001,0.999939205071,0.00611749045333,0.0030286156243400004,0.0333852699433,0.0154039442203,0.0365767120071,-0.0359059892386,-0.0503603479762,0.0556992179109,-1.89493632317,-1.13144266605,5.484879493709999,0.4947667717930001,-0.530248165131,0.571574807167,2150435.0,1521546270.0,422537748.5,,,,,,2585560.5,1521546271.0,365777565.5,,0.02199995517750003,-0.2600000236185,0.16000099182125,-0.037500000558800005,-0.18400000035750003,-0.10550000146050001,128.0,128.0,133.5,145.0,156.0,-132.0,-122.0,-116.0,-110.0,-95.0,7.0,-0.12999999523169997,0.4349999725815001,0.6300010681152499,0.01499999780205001,-0.022999994456500028,-0.03150000050685002
31,64.85961717949999,6485.5,1521546271.0,501149534.5,,3081600.0,1521546270.0,546993311.0,,0.5651873280955,-0.719846477252,0.18551524037050002,-0.009341005984685,0.999945626121,0.00457726501866,0.0005610078555665,-0.03379376159815,-0.025844755156650003,-0.022485983728150003,-0.01070515937322,0.04383615284445,-0.03351954683135,-2.2045245766650003,0.541842699051,6.926292419435001,0.08964453637575001,-0.791013747454,0.5290011763575,2150444.0,1521546270.0,552030791.5,,,,,,2585573.5,1521546271.0,495888268.0,,1.271999955175,-1.0200000438824999,-0.16499977111800002,-0.06700000166895001,-0.16149999946350002,-0.07550000026819999,95.0,103.5,115.5,123.5,132.0,-127.5,-124.5,-115.0,-105.0,-92.0,-1.0,1.2499999999975,-0.7600000202639998,-0.32500076293925,-0.029500001110150005,0.022500000894000005,0.03000000119230002
32,64.9621812821,6494.5,1521546271.0,591150045.0,,3081609.0,1521546270.0,636987891.5,,0.5624028146370001,-0.7214368260924999,0.18384926760650003,-0.007755975029425001,0.9999572568345,0.00483518829021,-0.001319051295425,-0.02753601637935,-0.0226379565746,-0.02323198217055,0.01544337725375,0.018963771744455,-0.0596956515544,-2.4994237422950003,1.76140832901,8.56386709213,-0.450301915407,-0.963529288769,0.469694420695,3081962.0,1521546270.0,635074423.0,,,,,,2585582.5,1521546271.0,585287684.0,,1.17200005054,-0.0799999866635,0.125001144409,-0.07300000265239999,-0.1335000023245,-0.08750000223519999,80.0,91.0,100.0,106.5,119.0,-128.0,-118.0,-111.0,-105.0,-95.0,-1.0,-0.09999990463500019,0.9400000572189999,0.290000915527,-0.0060000009834499796,0.027999997139000032,-0.012000001967000004
33,65.0647453846,6506.5,1521546271.0,711148977.0,,3081620.5,1521546270.0,751995599.5,,0.559878638262,-0.7247202756119999,0.1834779719915,-0.005368022673015001,0.999974953149,0.0042210645591600005,-0.0015871028212300002,-0.012776111172530002,-0.030184338618200007,0.002007511333048,-0.00746347969955,-0.02526060722805,-0.0589905352689,-1.90295654535,1.8796788454099997,7.403235197065,-0.5121534764765,-0.7072927057739999,0.445281997323,3081974.0,1521546270.0,755046023.0,,,,,,2585594.5,1521546271.0,705147180.5,,-0.40799999237049994,-0.27500000931324997,-0.429999160767,-0.0744999982417,-0.140500001609,-0.08899999782445,82.0,88.0,112.5,116.5,125.0,-120.5,-115.0,-113.0,-101.5,-94.0,-1.0,-1.5800000429105,-0.19500002264974997,-0.555000305176,-0.0014999955893000155,-0.006999999284500014,-0.0014999955892500139
34,65.1673094872,6514.5,1521546271.0,791148543.0,,3081628.0,1521546270.0,827310002.0,,0.5581800177340001,-0.727255419356,0.184035713769,-0.00340847647737,0.99998748197,0.00337891877462,-0.00141460213922,-0.0277032429945,-0.027996679210200003,0.00476100360975,-0.0141609684091,0.013163840277499998,-0.0530605214031,-1.24456274509,1.08319544792,6.79870128632,-0.217556416988,-0.461100906134,0.439910054207,3081980.0,1521546270.0,815375735.0,,,,,,2585602.5,1521546271.0,784364248.5,,0.5370000600814999,0.199999999627305,-0.38000183105499996,-0.06650000065565,-0.1474999934435,-0.09600000083465,92.5,95.5,104.5,113.5,129.0,-126.0,-122.0,-103.0,-96.0,-88.5,-1.0,0.9450000524519999,0.47500000894055494,0.04999732971200005,0.007999997586050009,-0.006999991834500008,-0.007000003010199998
35,65.2698735897,6527.5,1521546271.0,921154021.5,,3081637.0,1521546270.0,917338230.0,,0.556449629406,-0.728852629901,0.183696541057,-0.00212568370537,0.999990790349,0.0028717508436500003,-0.00237775787838,-0.023337208531,-0.034811135384400005,0.008414468642430001,-0.037739712537,0.0100857318664,-0.040330451293300006,-1.09378445148,1.25927150249,6.9877243042,-0.271394461393,-0.39449185133,0.440445959568,2150473.0,1521546270.0,964226599.0,,,,,,2585615.5,1521546271.0,914321118.5,,0.07200002670290001,-0.9950000081200001,-0.2149990081785,-0.061000000685449994,-0.1284999996425,-0.09850000217575,86.0,87.5,100.0,119.0,137.0,-117.5,-115.0,-110.0,-106.5,-91.5,-1.0,-0.4650000333785999,-1.195000007747305,0.16500282287649995,0.005499999970200002,0.01899999380100001,-0.002500001341099997
36,65.3724376923,6535.5,1521546271.5,501150965.0,,3081648.5,1521546271.0,32313947.5,,0.5543240226939999,-0.7303955470365,0.18293507044799998,-0.0009315069858035,0.999988954142,0.0023735487475700003,-0.003943057712550001,-0.006068866490785,-0.008524266934814999,-0.007746685120244999,0.0024555547483185,0.0014434901939295,-0.019818530624995,-1.560372114185,1.0458106398559999,7.253210544585,-0.12313767522565,-0.5994787216190001,0.460089325905,2150478.0,1521546271.0,35685784.0,,,,,,2585623.5,1521546271.5,495507614.0,,0.056999921799000014,-0.07499999143199998,-0.345000076294,-0.061000000685449994,-0.1485000029205,-0.10249999910575,104.0,107.5,118.5,127.0,136.0,-121.0,-117.0,-103.0,-98.0,-94.0,-1.0,-0.015000104903899997,0.9200000166880001,-0.13000106811549997,0.0,-0.020000003278,-0.003999996929999999
37,65.4750017949,6548.5,1521546272.0,131152987.0,,3081662.0,1521546271.0,167320673.0,,0.553382146796,-0.731402869215,0.182361090674,-9.5110294264e-05,0.999988290014,0.00258259352309,-0.00409157672212,-0.00946776600577,-0.00520798028316,-0.0149873756039,-0.0031617083452800004,0.015911077660399998,0.00456177310223,-1.65177798271,1.38644468784,6.895841598510001,-0.333365142345,-0.5764011740680001,0.4023680388930001,3082015.0,1521546271.0,165416588.0,,,,,,2585636.5,1521546272.0,125529935.0,,-1.0279999971375,-0.8600000176565001,-0.25000076293935003,-0.066499998793,-0.13800000399350001,-0.082499999553,86.0,89.0,100.5,103.0,134.0,-125.0,-124.5,-123.0,-102.0,-100.0,-1.0,-1.0849999189365,-0.7850000262245002,0.09499931335464995,-0.0054999981075500096,0.010499998926999987,0.019999999552750003
38,65.57756589739999,6556.5,1521546272.0,211158990.5,,3081670.0,1521546271.0,247308995.5,,0.552438064474,-0.7315266215984999,0.1814011803715,0.00027463820968895,0.999982160098,0.00269382490317,-0.00531036747462,-0.009275794926565,-0.00342154313654,-0.013030245129249999,0.020247525007099997,0.0005483828251450005,-0.02425468617306,-0.966495513914,0.63715672493,7.0847578048700015,-0.003933236002899999,-0.3626975268125,0.4216297864915,2150492.5,1521546271.0,250711692.5,,,,,,2585644.5,1521546272.0,206818678.0,,-0.6280000209805,-1.02499997951,-0.569998550415,-0.06499999761580001,-0.152000002563,-0.08650000020865001,91.5,94.5,98.5,105.0,131.0,-116.0,-110.0,-104.0,-98.5,-89.5,-1.0,0.399999976157,-0.16499996185349985,-0.31999778747565,0.0015000011771999916,-0.013999998569499988,-0.00400000065565001
39,65.68013,6564.5,1521546272.0,291149973.0,,3081680.0,1521546271.0,347314896.0,,0.55223794423,-0.7304564499289999,0.180245427297,-0.000374961748627,0.999974982907,0.00365060984248,-0.006046983677470001,-0.0202034904731,-0.0104510278149,-0.00587636793222,0.00999941900427,0.0197172199316,-0.033827503048,-1.14328444004,1.08437395096,6.64177560806,-0.219159975648,-0.485863626003,0.412357866764,1218966.0,1521546271.0,340000000.0,,,,,,2585652.5,1521546272.0,286043097.0,,-0.338000059128,-0.11999997831875,-0.4650009155275,-0.06850000098345,-0.14450000226499998,-0.0975000001489,87.5,89.5,101.5,110.0,121.5,-97.5,-95.0,-94.0,-87.0,-83.0,-1.0,0.2899999618525,0.90500000119125,0.10499763488750002,-0.0035000033676499814,0.00750000029800002,-0.01099999994025
