,Unnamed: 0,.header.seq,.header.stamp.secs,.header.stamp.nsecs,.header.frame_id,.endpoint_state.header.seq,.endpoint_state.header.stamp.secs,.endpoint_state.header.stamp.nsecs,.endpoint_state.header.frame_id,.endpoint_state.pose.position.x,.endpoint_state.pose.position.y,.endpoint_state.pose.position.z,.endpoint_state.pose.orientation.x,.endpoint_state.pose.orientation.y,.endpoint_state.pose.orientation.z,.endpoint_state.pose.orientation.w,.endpoint_state.twist.linear.x,.endpoint_state.twist.linear.y,.endpoint_state.twist.linear.z,.endpoint_state.twist.angular.x,.endpoint_state.twist.angular.y,.endpoint_state.twist.angular.z,.endpoint_state.wrench.force.x,.endpoint_state.wrench.force.y,.endpoint_state.wrench.force.z,.endpoint_state.wrench.torque.x,.endpoint_state.wrench.torque.y,.endpoint_state.wrench.torque.z,.joint_state.header.seq,.joint_state.header.stamp.secs,.joint_state.header.stamp.nsecs,.joint_state.header.frame_id,.joint_state.name,.joint_state.position,.joint_state.velocity,.joint_state.effort,.wrench_stamped.header.seq,.wrench_stamped.header.stamp.secs,.wrench_stamped.header.stamp.nsecs,.wrench_stamped.header.frame_id,.wrench_stamped.wrench.force.x,.wrench_stamped.wrench.force.y,.wrench_stamped.wrench.force.z,.wrench_stamped.wrench.torque.x,.wrench_stamped.wrench.torque.y,.wrench_stamped.wrench.torque.z,.tactile_values.tactile_values_0,.tactile_values.tactile_values_1,.tactile_values.tactile_values_2,.tactile_values.tactile_values_3,.tactile_values.tactile_values_4,.tactile_values.tactile_values_5,.tactile_values.tactile_values_6,.tactile_values.tactile_values_7,.tactile_values.tactile_values_8,.tactile_values.tactile_values_9,.tag,.delta_wrench.force.x,.delta_wrench.force.y,.delta_wrench.force.z,.delta_wrench.torque.x,.delta_wrench.torque.y,.delta_wrench.torque.z
0,42.07,4207.5,1521537104.0,503788113.5,,2164928.5,1521537103.0,832516040.5,,0.732273640913,-0.126904238941,0.0813988878537,-0.07262314607959999,0.9971620970695,-0.017720037498900002,0.008911673124085001,0.005384689436400999,0.008683135083514999,-0.013718885241499999,0.02701766494725,-0.0009730790627499996,-0.005183937063271,1.0559734068799,0.6889842152600001,6.165164470675,0.491786301136,0.42654945701350006,0.3843943178655,2165281.5,1521537103.0,830585186.0,,,,,,1669831.0,1521537104.0,498048051.0,,-0.2610000610355,-2.0920000225299997,0.40700035095200005,-0.07100000046195,-0.1585000008345,-0.0645000003278,26.0,30.0,33.5,62.0,66.0,-108.0,-105.5,-96.0,-93.0,-91.0,4.0,0.0,0.0,0.0,0.0,0.0,0.0
1,42.1725641026,4215.5,1521537104.0,583672523.0,,2164936.5,1521537103.0,912514033.0,,0.734908683477,-0.12598537488949998,0.08006283061355,-0.0699783874098,0.9973568551395,-0.01568034130275,0.01166686772775,0.02651033932135,0.008989287211739999,-0.0277328155431,0.04922792680955,-0.05397004708845,-0.081336305885,5.34192204475,1.9443070888499998,2.8751732111000003,-0.2193883359435,2.24735271931,0.2814847230915,1510799.0,1521537103.0,910792672.0,,,,,,1669839.0,1521537104.0,578532877.0,,0.37899980545,-2.30199998617,0.446999359131,-0.0500000007451,-0.135000005364,-0.0640000030398,31.5,32.0,38.0,41.5,46.0,-113.0,-107.0,-98.0,-92.0,-91.0,4.0,0.6399998664855,-0.20999996364000006,0.03999900817899993,0.02099999971685,0.023499995470499996,0.0004999972880000009
2,42.2751282051,4228.5,1521537104.0,713638543.5,,2164947.5,1521537104.0,21818452.5,,0.7362862924094999,-0.125414534694,0.07614029967580001,-0.069951166559,0.9973605826340001,-0.014538701777249996,0.01293310806585,0.015810159245575002,-0.00605499355948,-0.049892358560900005,0.03200428058905,-0.0320615460978,-0.001042807331099998,3.47167479992,1.6579875350000002,2.89385521412,-0.069390937686,1.410196632146,0.2810505330565,2165301.0,1521537104.0,24918561.0,,,,,,1669851.5,1521537104.0,705636632.5,,-0.7309998512264999,-2.4169999957100003,-0.4430000305175,-0.07300000078975001,-0.10750000178825,-0.0525000002235,23.0,27.0,27.0,42.0,55.0,-102.0,-100.0,-98.0,-96.0,-85.0,4.0,-1.1099996566765,-0.11500000954000056,-0.8899993896484999,-0.023000000044650012,0.02750000357575,0.011500002816299995
3,42.3776923077,4236.5,1521537104.0,793616532.5,,2164955.0,1521537104.0,96814689.0,,0.7367128614475,-0.124053961644,0.07159565534145,-0.07087848936044999,0.997298256666,-0.013205351573399998,0.0140683849318,-0.0028785330579859996,0.016683305625805,-0.06698275974069999,0.02040202320065,-0.009064466236259998,0.03211121420784,1.333346784115,1.3509264588349998,4.87846267223,-0.190105810761,0.5594734996559999,0.21979309618450002,2165308.0,1521537104.0,94904819.5,,,,,,1669859.5,1521537104.0,787578569.5,,-1.26599993706,-1.4470000118050002,-2.34299964905,-0.035499999183245,-0.048000000417250006,-0.0600000023842,23.0,28.0,40.0,51.0,54.0,-104.0,-101.5,-98.5,-97.5,-93.0,4.0,-0.5350000858335,0.9699999839050002,-1.8999996185324999,0.03750000160650501,0.059500001371,-0.007500002160700001
4,42.4802564103,4246.5,1521537104.0,894583940.0,,2164965.0,1521537104.0,196815783.5,,0.7372267426515,-0.122291270816,0.06576331804454999,-0.0695066346655,0.9973996380955,-0.01178918781195,0.01495377123545,0.003806994297480001,0.012649611158700004,-0.060174369514200014,0.0307383605397,0.009160271482509998,-0.017267558378794998,1.378311306238,1.2812622189549998,5.4608721733099985,-0.41433328390150004,0.5551520287989999,0.14352777600299998,2165318.0,1521537104.0,194906289.5,,,,,,1669870.0,1521537104.0,889262185.0,,-0.9609998703,-0.902000010014,-0.373000335693,-0.0680000036955,-0.104000002146,-0.07400000095369999,28.0,29.5,37.0,72.0,85.0,-114.0,-114.0,-102.0,-96.0,-93.0,4.0,0.3050000667599999,0.5450000017910002,1.9699993133569997,-0.032500004512254994,-0.05600000172874999,-0.013999998569499988
5,42.582820512800005,4256.5,1521537104.0,993618011.0,,2164975.0,1521537104.0,296812178.0,,0.7367843290260001,-0.121837001752,0.0587010728314,-0.070134994723,0.997387530503,-0.011341952331,0.0130597331694,-0.00210382389758,0.0137335760144,-0.0820832311857,0.0127410636404,0.0210243620697,0.0370165694949,1.4330055713699998,1.38161492348,3.85686993599,-0.522001028061,0.592507123947,0.08980519324539997,1510825.5,1521537104.0,297435924.0,,,,,,1669879.5,1521537104.0,985619841.5,,-1.3560000896450002,-1.64700001478,-0.8280002593995001,-0.0625,-0.09400000050645,-0.08450000360610001,24.0,27.0,31.5,56.0,82.0,-96.5,-95.5,-94.0,-93.0,-88.0,4.0,-0.3950002193450002,-0.7450000047659999,-0.45499992370650005,0.005500003695499994,0.010000001639550005,-0.010500002652400017
6,42.6853846154,4269.5,1521537105.0,123610019.5,,2164988.0,1521537104.0,426810678.0,,0.7363091955159999,-0.123191218935,0.0464188772231,-0.070810721684,0.99736341492,-0.0125627377475,0.00970762045285,-0.0107506448887,-0.0269147304021,-0.110517089738,-0.0461325887153,0.0736600524718,-0.0103524655968,2.43138337135,0.8758577704430001,4.723320961000001,-0.20565508306,1.00107145309,0.143386811018,2165341.0,1521537104.0,424883661.0,,,,,,1669892.5,1521537105.0,115397787.5,,-1.0110000610349998,-1.732000014745,-0.37300033569349994,-0.061499997973450016,-0.1260000020265,-0.05649999901655001,23.5,25.0,26.0,48.0,65.0,-101.5,-98.0,-95.5,-92.0,-85.5,4.0,0.34500002861000034,-0.08499999996500018,0.4549999237060001,0.0010000020265499843,-0.03200000152005,0.02800000458955
7,42.7879487179,4276.5,1521537105.0,193634509.5,,2164995.0,1521537104.0,496811407.0,,0.735071650357,-0.123463353202,0.0389584081381,-0.071659941761,0.997318854682,-0.012752096268,0.00757224433133,-0.0226909805865,-0.000427611458495,-0.115958991576,0.011428894053200002,0.0431672930975,0.036494053781199985,1.8817299604400004,1.0501660108600002,8.74737644196,-0.310408771038,0.8440266251559999,0.13242328167,1510839.5,1521537104.0,498461776.0,,,,,,1669900.0,1521537105.0,189316788.0,,-0.951000118256,-1.24200004339,0.356999206543,-0.0529999993742,-0.137999996543,-0.07199999690060001,23.0,25.5,30.5,39.0,52.0,-101.5,-99.0,-98.0,-91.5,-85.0,4.0,0.05999994277899989,0.48999997135500006,0.7299995422365,0.008499998599250012,-0.011999994516499995,-0.015499997884050001
8,42.8905128205,4289.5,1521537105.0,323639988.5,,2165010.5,1521537104.0,651826496.0,,0.7347354158505001,-0.1241687825425,0.028249081169050002,-0.07124287529859999,0.9973664672825,-0.0126573651958,0.00491438983772,0.006504381189844999,-0.01964945541956,-0.06543276380379999,-0.0327831389537,0.02482061821895,-0.020981565134035,1.999698877335,1.374319314955,4.6080875396700005,-0.40879163146049996,0.8014340400695001,0.140078924596,2165362.0,1521537104.0,634907134.0,,,,,,1669912.5,1521537105.0,315603072.0,,-2.015999937055,-0.972000002861,-1.912999343875,-0.07750000059605,-0.07699999958275,-0.0479999985546,18.0,20.5,27.0,39.0,55.0,-105.5,-104.5,-102.0,-95.0,-88.0,4.0,-1.0649998187990002,0.27000004052900006,-2.269998550418,-0.024500001221849997,0.06099999696024999,0.023999998346000008
9,42.993076923100006,4297.5,1521537105.0,403710961.0,,2165018.5,1521537104.0,731814834.5,,0.7361519938240001,-0.124282715563,0.023978810092900003,-0.07028347445975,0.9974412754045001,-0.01219915261825,0.0047176414652600005,0.0258080996211,-0.0033643295328999994,-0.054710964846350005,0.01666669056845,0.003519643829045,-0.0291497388545,4.731866121295,1.9751496315000001,4.8860764503450005,-0.55993694067,1.7765391469049998,0.16327846795349998,2165371.5,1521537104.0,729901945.5,,,,,,1669921.0,1521537105.0,399748396.0,,-0.610999965668,-2.09200000763,-0.992999267578,-0.06499999761580001,-0.107000000775,-0.0599999986589,13.5,16.0,19.0,27.0,39.0,-119.0,-111.0,-104.0,-97.0,-93.0,4.0,1.4049999713870003,-1.120000004769,0.9200000762969999,0.012500002980249988,-0.030000001192250006,-0.012000000104300003
10,43.0956410256,4309.5,1521537105.0,523698568.0,,2165030.5,1521537104.0,851818456.0,,0.7418708837495,-0.125862339667,0.019351269581349997,-0.06755377245555,0.997615038245,-0.012999247830700002,0.0056224031007050005,0.06853702364059999,-0.00420782767402,-0.035527172887650005,0.016119009336625002,-0.03916009496875,-0.07351283873219999,3.01498103142,1.048013150693,4.948302984234999,-0.053353559225785004,1.18473982811,0.28660199046150003,2165382.0,1521537104.0,834895530.0,,,,,,1669932.5,1521537105.0,516499032.0,,-1.485999965665,-1.1420000195550002,-0.797999572754,-0.0529999993742,-0.107500001788,-0.06350000202655001,13.0,20.0,28.0,32.0,59.0,-113.0,-109.0,-104.0,-102.5,-95.0,4.0,-0.8749999999970001,0.9499999880749996,0.19499969482400004,0.011999998241600009,-0.0005000010129999899,-0.003500003367650009
11,43.198205128199994,4318.5,1521537105.0,613759994.0,,2165039.5,1521537104.0,941818011.0,,0.748605980368,-0.12518968508199999,0.0158550182342,-0.0667004089381,0.997672528148,-0.0117815951669,0.007845812526100001,0.09747186465405,0.004958768631230001,-0.043355212426399996,0.012829510776515,-0.0951495160991,0.12425022425245,5.2842798232999995,1.7951203584650002,3.3127417564400004,-0.629283994436,1.95065951347,0.2404070049525,2165392.0,1521537104.0,934871516.0,,,,,,1669941.5,1521537105.0,605656791.0,,-1.9860000848800001,-1.1019999980925,-1.0229999542255,-0.0430000014603,-0.0959999971093,-0.0784999988973,14.0,16.0,17.5,28.0,30.5,-117.0,-106.5,-104.5,-99.0,-93.5,4.0,-0.5000001192150001,0.04000002146250026,-0.22500038147149992,0.009999997913900001,0.011500004678699993,-0.014999996870749988
12,43.3007692308,4330.5,1521537105.0,734772085.5,,2165049.5,1521537105.0,41915566.5,,0.7580214706935,-0.124876599439,0.011971314013149999,-0.06768338138060001,0.997555165003,-0.010767370364350002,0.01365473050975,0.0883636051726,-0.007409900041000002,-0.0413723581279,0.02568274077045,-0.1210469666577,-0.06023324764365001,4.16529560089,1.233675956725,3.97670125961,-0.1714242547752,1.7684708237650002,0.3361614197495,2165402.0,1521537105.0,34970820.0,,,,,,1669954.0,1521537105.0,730455534.0,,-1.0359999179835,-1.532000005245,0.26199989318850003,-0.057000000029800005,-0.1219999976455,-0.050000000745050004,27.0,28.0,28.5,29.0,42.5,-107.0,-105.0,-98.0,-96.0,-91.0,4.0,0.9500001668965001,-0.4300000071525001,1.2849998474139999,-0.013999998569500002,-0.026000000536199996,0.028499998152249996
13,43.4033333333,4340.5,1521537105.0,833630084.5,,2165059.0,1521537105.0,136931879.5,,0.761306938389,-0.1265687526215,0.009706500546235002,-0.0668185776117,0.9976071602734999,-0.011437640859600001,0.0135714976923,0.0002953717667535,-0.027488103200400002,-0.02833913432885,-0.038536411321299986,0.08066339252425,0.008570167807500001,3.4607726335500004,2.046418547635,4.366375446319999,-0.8301612436770001,1.4707272648790002,0.220142558217,2165411.0,1521537105.0,125009926.0,,,,,,1669963.5,1521537105.0,824926570.5,,-0.551000022888,-0.49200001358972,-1.1230003356945,-0.08150000125170001,-0.1359999999405,-0.05949999950825,24.0,26.5,31.5,53.0,57.0,-104.0,-101.0,-97.0,-93.0,-87.0,4.0,0.4849998950955,1.03999999165528,-1.385000228883,-0.024500001221900006,-0.014000002294999994,-0.009499998763199999
14,43.5058974359,4350.5,1521537105.0,933802008.0,,2165069.0,1521537105.0,236920474.0,,0.7624184420129999,-0.12642102954,0.00730908247276,-0.0653140211322,0.9977362916,-0.010539610075100002,0.0120535342431,0.035981280982699995,0.001015023159,-0.00364206821043,0.0153626709133,-0.0350872006951,-0.0312783268849,4.17714071274,1.65944123268,1.61679828167,-0.994681537151,1.53370928764,0.193251103163,1510892.0,1521537105.0,238503373.0,,,,,,1669973.5,1521537105.0,926092042.0,,0.08899984359700003,0.6329999566094999,-6.208001327515,-0.3584999889135,0.08449999988074999,-0.11149999871850001,28.5,32.0,33.0,42.5,59.0,-102.0,-101.0,-99.0,-95.0,-92.0,4.0,0.639999866485,1.12499997019922,-5.0850009918205,-0.2769999876618,0.22049999982125,-0.05199999921025001
15,43.6084615385,4361.5,1521537106.0,43652415.0,,2165080.0,1521537105.0,346919413.0,,0.7653427690865,-0.1253883231965,0.007396773367160002,-0.06591706319175,0.9976632085535,-0.01210588030385,0.0132812421019,0.057242074253149984,0.01584339079887,0.008169343513800002,-0.0026301110948500003,-0.11187002860015,0.03512326406475,8.88570213318,2.791320562365,-3.808391213415,-1.1364082694050002,2.7323119640350004,0.2083649039265,2165433.0,1521537105.0,345018337.0,,,,,,1669984.5,1521537106.0,35423297.5,,0.3139999866485,-0.28700000047685,-7.0630008697500015,-0.4169999957085,0.3115000128745,-0.10500000044695,62.0,63.0,67.5,72.5,85.0,-104.0,-102.0,-99.5,-97.5,-89.5,4.0,0.22500014305149996,-0.91999995708635,-0.8549995422350012,-0.058500006795000004,0.22700001299375003,0.0064999982715500115
16,43.711025641000006,4369.5,1521537106.0,123667955.0,,2165088.0,1521537105.0,426922518.0,,0.770079741011,-0.123696222698,0.006995541317390001,-0.0671783488484,0.997500128004,-0.0122434360939,0.0181841235921,0.0776515115256,0.046060606918400006,-0.038478461977199986,0.013892771599,-0.18799961055,0.0908664149768,7.12137413025,1.82689547539,0.147221982479,-0.6939526796340001,2.84173607826,0.216438531876,1510904.5,1521537105.0,424509796.5,,,,,,1669993.0,1521537106.0,119149393.0,,-1.1610001564,1.06799989939,-3.77299804688,-0.303999990225,0.0750000029802,-0.0879999995232,93.0,98.0,106.0,108.0,125.0,-109.0,-98.0,-96.0,-90.0,-89.0,4.0,-1.4750001430485,1.35499989986685,3.2900028228700013,0.11300000548349998,-0.23650000989430003,0.017000000923749994
17,43.8135897436,4380.5,1521537106.0,233863949.5,,2165099.0,1521537105.0,536917987.0,,0.775127528803,-0.120858194925,0.00548988875986,-0.0678271528657,0.997427983075,-0.0103313704277,0.0207402675465,0.0524166819519,0.0522431666376,0.0139741811499,0.0829938850225,-0.047072523858900005,0.0162136534393,5.44926643372,1.76690030098,-3.88564968109,-1.15918827057,1.25160682201,0.174059823155,2165452.0,1521537105.0,535015922.0,,,,,,1670003.5,1521537106.0,227840987.5,,0.7739997863765,4.1380000710500005,-10.6280014038,-0.75799998641,0.4375,-0.148000001907,139.0,146.0,150.0,161.5,170.0,-99.5,-89.5,-87.0,-82.5,-80.0,4.0,1.9349999427765001,3.0700001716600003,-6.855003356920001,-0.453999996185,0.3624999970198,-0.06000000238379999
18,43.9161538462,4388.5,1521537106.0,313952445.5,,2165109.5,1521537105.0,641917454.0,,0.7811400978475,-0.11688985389350001,0.005076159084425,-0.06961343220204999,0.997265016595,-0.00891946093094,0.02316882003715,0.0702280021995,0.059506567121,-0.0023984836386725,0.054334972141800005,-0.05343235330934999,0.057510909901,6.472700119015,1.5282056927649998,-7.835077047345001,-0.9997290074815,1.065603613855,0.13153258711100002,856377.0,1521537105.0,636999936.0,,,,,,1670011.5,1521537106.0,307772698.0,,1.4389999866499998,3.5530000329,-12.913001251199999,-0.909500002861,0.6534999907015,-0.1564999967815,149.5,160.5,172.5,179.0,189.0,-59.5,-58.0,-57.0,-49.5,-43.5,4.0,0.6650002002734998,-0.5850000381500005,-2.284999847399998,-0.15150001645099997,0.2159999907015,-0.008499994874500011
19,44.0187179487,4401.5,1521537106.0,443842530.0,,2165122.5,1521537105.0,771920597.0,,0.793191314232,-0.107112351219,0.0041689850098800005,-0.06873064475325,0.9971142502325,-0.0022716897814,0.032145226274900005,0.106819662116,0.0933213466478,-0.0130691136396,0.10624889064995,-0.18473214938700003,0.021855797086650003,4.021225333215,0.540382891893,-6.411258697509999,-1.4967169165600003,0.5915568619964999,0.1921579912305,2165475.5,1521537105.0,770009991.5,,,,,,1670024.5,1521537106.0,437638443.5,,1.4890001773800001,6.4480002522449995,-14.108000946049998,-1.29599994421,0.638000011444,-0.08049999922515,99.5,105.5,123.0,139.0,145.0,54.5,58.0,63.0,80.0,93.0,4.0,0.05000019073000028,2.8950002193449995,-1.194999694849999,-0.3864999413490001,-0.015499979257500018,0.07599999755635001
20,44.1212820513,4411.5,1521537106.0,543731450.5,,2165132.5,1521537105.0,871935079.5,,0.8070368352214999,-0.096006809419,0.002055019796235,-0.0725583922452,0.9963004123125,0.0034263932005700005,0.045913478151949995,0.180668384375,0.118549854546,-0.0362075176122,0.146278795557,-0.382429648522,0.09000071039810001,7.2144374847399995,1.1270772814749999,-8.32445049286,-1.5888193845749998,2.17523300648,0.266897842288,1510935.5,1521537105.0,870997046.5,,,,,,1670034.5,1521537106.0,536261285.0,,-1.025999927522,4.81799989939,-11.3830005646,-1.094500005245,0.0845000036062,0.01299999980254,90.5,108.0,109.0,117.0,124.0,56.0,62.0,65.0,69.0,91.5,4.0,-2.515000104902,-1.6300003528549993,2.7250003814499983,0.20149993896500007,-0.5535000078378,0.09349999902769
21,44.223846153800004,4423.5,1521537106.0,663795471.0,,2165144.5,1521537105.0,991950136.0,,0.8134989583999999,-0.08703589694604999,-0.0007346324126849999,-0.07640009866740001,0.9955055879125001,0.006889226246335,0.0555344649104,-0.07940493583674997,0.041835703258949995,-0.007263471432045002,0.005527991946249998,0.1637906147375,0.036455253836985,6.9565770626050005,-0.1161881238225,1.0648975372335001,-0.24399306625145,3.486561656,0.580248475075,856391.0,1521537105.0,990000128.0,,,,,,1670046.5,1521537106.0,659106394.0,,-2.861000084875,-0.6570000052445002,-2.6879989624049996,-0.376999989152,-0.23949999362200006,-0.010000000474994998,189.5,199.5,238.0,262.0,262.5,-50.0,-48.0,-46.5,-39.5,-30.0,4.0,-1.8350001573530001,-5.4749999046345,8.695001602195,0.7175000160930001,-0.32399999722820005,-0.023000000277534998
22,44.3264102564,4429.5,1521537106.0,725852489.0,,2165148.0,1521537106.0,26968891.5,,0.809955702324,-0.08727276639599997,-0.0005669536495589999,-0.07737290221724999,0.9956618040905,0.005416134049615,0.0513845643934,-0.0938374660349,-0.0117034351243,0.01070243336655,-0.1054597178175,0.2103607248625,0.03649086058815,12.393260955799999,1.196676909925,-0.9106370806675,-0.5616306066515,5.134773015975,0.6030368208885,2165501.0,1521537106.0,25053233.0,,,,,,1670053.0,1521537106.0,723185578.5,,-1.941000127795,2.272999823095,-4.893000793455,-0.5419999957085,-0.1620000004765,-0.01749999960885,196.0,213.5,245.0,257.0,263.5,-64.0,-62.0,-57.0,-52.0,-37.0,4.0,0.9199999570800002,2.9299998283395006,-2.2050018310500006,-0.1650000065565,0.07749999314550005,-0.007499999133855002
23,44.428974358999994,4443.5,1521537106.0,864117502.5,,2165162.0,1521537106.0,167001278.0,,0.8010117675524999,-0.09060250838375,0.001012554335579,-0.07618022978160001,0.9963122827299998,0.0017979680670449996,0.0394343727551,0.0019521750992999992,0.00581019311206,-0.016140887718925,0.0385451287531,-0.023710450469449997,-0.0073114620357449985,11.97189998625,1.342677831649,-3.2207278013250003,-0.264328196645,4.4311466217049995,0.5481840372089999,1510955.5,1521537106.0,162536577.0,,,,,,1670066.5,1521537106.0,857808028.0,,-0.7610000610375001,1.0029999613775,-4.76299972534,-0.5115000009535,-0.030000001192099997,-0.032500000670550006,190.0,194.0,215.0,235.0,240.0,-76.0,-75.0,-74.5,-73.5,-71.0,4.0,1.1800000667575,-1.2699998617175001,0.1300010681149999,0.03049999475499998,0.1319999992844,-0.015000001061700005
24,44.5315384615,4450.5,1521537106.0,935133456.5,,2165168.5,1521537106.0,232015364.0,,0.802884622326,-0.08988979359799999,0.00045746169645,-0.07486757976644999,0.9963176428895,0.00413281786435,0.0415659974372,0.04126038425145,0.01548700619309,-0.008478806653091498,0.07688621697004999,-0.0950967221625,-0.014761514243999999,9.049342155455001,1.132551908495,-1.807051360605,-0.5135082900525,3.5542937517150004,0.543784528971,2165521.0,1521537106.0,225114986.0,,,,,,1670074.0,1521537106.0,934005396.0,,-1.38099994659,0.898000061512,-4.90299911499,-0.612999975681,-0.07000000029799999,-0.0260000005364,137.0,147.0,157.0,175.5,188.0,-79.0,-78.0,-75.0,-75.0,-60.0,4.0,-0.6199998855525,-0.10499989986550007,-0.1399993896499998,-0.10149997472749994,-0.03999999910589999,0.006500000134150006
25,44.6341025641,4461.5,1521537107.0,43814539.5,,2165178.5,1521537106.0,332001009.5,,0.8079633720135,-0.09020067768440003,0.00011080282226749998,-0.0751524271879,0.996012175863,0.004715223575314999,0.0478487765713,0.03734412912425,0.0013273816089800006,-0.003223473729845,0.0135201114486,-0.0954501876822,0.00716057263432,8.367391109465,0.9595818519589999,-0.4473840892315,-0.272402435541,3.950762867925,0.537376046181,2165533.0,1521537106.0,345053997.5,,,,,,1670084.5,1521537107.0,37138724.0,,-2.05099990368,-0.06700009107550009,-3.49800033569,-0.341999992728,-0.24499998986699997,-0.022499999962749997,112.5,117.5,122.0,140.0,142.5,-77.5,-75.0,-75.0,-71.0,-69.0,4.0,-0.6699999570900002,-0.9650001525875,1.4049987793,0.27099998295299993,-0.17499998956899998,0.003500000573650002
26,44.7366666667,4474.5,1521537107.0,175361990.5,,2165193.0,1521537106.0,476997263.0,,0.806859617631,-0.0920785297642,0.000773009282885,-0.0735696194774,0.99621536589,0.00450891445978,0.0460665338879,-0.00456269297011,-0.030152473058500006,-0.0101746006384,-0.0258336164093,0.0210578292224,-0.0297192414281,8.150005340580003,0.505311727524,-1.57315516472,0.115204483271,3.39790344238,0.6079879999159999,1510977.5,1521537106.0,475026601.0,,,,,,1670097.5,1521537107.0,167643035.5,,-2.161000037195,1.1479999423004998,-4.16300125122,-0.3779999911785,-0.167499996722,-0.06050000153485,84.0,87.0,89.0,96.5,115.0,-89.0,-88.0,-80.0,-79.0,-77.0,4.0,-0.11000013351499982,1.215000033376,-0.6650009155299998,-0.035999998450500004,0.07749999314499997,-0.038000001572100005
27,44.8392307692,4482.5,1521537107.0,253748059.0,,2165200.5,1521537106.0,551997208.0,,0.807247359117,-0.0929404789791,-0.00010156382651388499,-0.07282627303705,0.9962649352605,0.0046335356561,0.04616214589885,0.014338724153715,-0.0238967805198,-0.004860007533569999,0.00011928681474000019,-0.021007859725299997,-0.013184754888,7.63893055916,0.9075562953945,-1.0601567327965,-0.1593118682505,3.2663874626200005,0.514465451241,2165553.5,1521537106.0,550056044.5,,,,,,1670105.5,1521537107.0,246600743.5,,-0.28599991798400004,-0.41699999570825,-0.693000030518,-0.2014999985695,-0.0384999997914,-0.0905000008643,76.5,77.5,90.0,95.5,115.0,-85.0,-83.0,-82.0,-76.5,-67.0,4.0,1.875000119211,-1.5649999380087498,3.4700012207019997,0.17649999260900004,0.1289999969306,-0.02999999932945
28,44.941794871800006,4493.5,1521537107.0,363755464.0,,2165214.5,1521537106.0,691998497.5,,0.7977115575920001,-0.0991516507828,-0.0031449606826950004,-0.07313079246965,0.996721340147,-0.00039020388742305013,0.03461508641945,-0.09630179055894998,-0.04820655726115,-0.02751621643535,-0.1025239062145,0.2026504721325,0.014714552306935,9.658278942110002,1.5888774991049999,0.09229824133238497,-0.052998065948535,3.37736904621,0.45806211233149996,1510993.0,1521537106.0,691027179.0,,,,,,1670116.5,1521537107.0,358725507.0,,-1.815999889375,-1.2820000089685,-0.5279991149905,-0.209499999881,-0.0815000012517,-0.0669999998063,77.0,81.0,86.5,91.0,99.0,-79.0,-77.0,-75.5,-70.5,-66.0,4.0,-1.529999971391,-0.86500001326025,0.16500091552749996,-0.008000001311499999,-0.043000001460299996,0.023500001058
29,45.0443589744,4505.5,1521537107.0,484285473.0,,2165226.5,1521537106.0,812003777.5,,0.7948028652455,-0.100992779538,-0.005717150645670001,-0.07278447180530001,0.9968298343305001,-0.0003611563029455,0.032126862735749995,-0.021058778719950003,-0.019736750662,-0.021456942337250002,-0.01722073924785,0.0504406237426,-0.011041884757395001,9.035038948055,1.6396700739849999,1.4531043171899998,-0.2926277443765,3.5227191448250004,0.427401691675,856423.0,1521537106.0,796999936.0,,,,,,1670128.5,1521537107.0,478953925.5,,-0.01599993705749997,-0.9920000135905,-1.4480010986299998,-0.1689999997615,-0.0815000012517,-0.09899999946375003,63.5,69.5,76.5,85.5,90.0,-78.0,-75.5,-74.0,-72.0,-70.0,4.0,1.7999999523175,0.2899999953779999,-0.9200019836394998,0.040500000119499974,0.0,-0.031999999657450026
30,45.146923076899995,4515.5,1521537107.0,583612561.0,,2165236.5,1521537106.0,912005703.0,,0.7944732163154999,-0.101764850463,-0.006049846239435,-0.0727529700222,0.996841784971,-0.000825285811671,0.03182339402745,-5.748627383999998e-05,-0.0107722201041645,0.006834661779515001,-0.01903764886965,0.00213938863786,-0.0007663477652000011,9.659435749055001,1.7333903908700001,1.251679956915,-0.29336126148700004,3.6768554449049997,0.435891494155,856427.0,1521537106.0,897999872.0,,,,,,1670138.5,1521537107.0,577004770.5,,-0.6760000228884999,-0.967000007629,-0.3829986572265,-0.2060000002385,-0.099999997765,-0.07099999859930001,69.0,71.5,75.0,81.5,88.0,-83.0,-82.0,-78.5,-73.0,-64.5,-1.0,-0.660000085831,0.025000005961500094,1.0650024414034998,-0.03700000047699997,-0.018499996513300004,0.028000000864450023
31,45.2494871795,4525.5,1521537107.0,684790014.5,,2165244.5,1521537106.0,992005547.0,,0.7947439281124999,-0.10164773553850001,-0.005496773514495,-0.07319413830839999,0.9967993771795,-0.0010236446599694998,0.0321310599641,0.01543307170705,0.008732322888795,0.01359621225215,0.006116051246435001,-0.04251887090965,0.011106300105879999,8.219106674195,1.441406309605,1.0141009390365001,-0.07843998819589999,3.257080793385,0.453294828534,856431.0,1521537106.0,999000064.0,,,,,,1670148.5,1521537107.0,676787529.5,,-0.3709999561311,0.2479999661445,-0.8079998016359999,-0.10399999842049999,-0.07000000029805001,-0.09950000047675,51.5,57.0,59.0,66.0,83.0,-79.5,-76.0,-76.0,-74.0,-56.0,-1.0,0.30500006675739993,1.2149999737735,-0.42500114440949993,0.102000001818,0.029999997466949993,-0.02850000187745
32,45.3520512821,4536.5,1521537107.0,793713926.5,,2165255.0,1521537107.0,97093714.0,,0.794679534911,-0.102000722364,-0.006002243276590001,-0.07284207054530001,0.996827328719,-0.000585347553643,0.0320775130901,0.00246351680439,-0.0136700986534,0.0130260544555,-0.0160528246761,-0.0017174106124500002,-0.0141828791118,8.42385578156,1.00430619717,1.47766542435,0.0391417294741,3.44911551476,0.480055570602,2165608.5,1521537107.0,100149606.0,,,,,,1670159.5,1521537107.0,789068592.5,,0.328999853134,0.05299997329710999,-0.07300109863295,-0.2004999965425,-0.1330000050365,-0.08750000223515,50.5,56.5,66.0,72.0,80.0,-84.5,-80.5,-76.5,-74.0,-73.0,-1.0,0.6999998092651,-0.19499999284739003,0.7349987030030499,-0.09649999812200001,-0.06300000473845,0.011999998241600002
33,45.454615384600004,4544.5,1521537107.0,873783945.5,,2165263.0,1521537107.0,177105468.0,,0.7952542008305,-0.1026966485615,-0.005296948920405001,-0.07252635699415,0.9968367453575,-0.0009890113454035,0.0324865645995,0.0013171547486299994,-0.0011179755880499976,-0.0013096740308095,-0.006402141183770001,-0.003900577544770001,-0.007977319757699997,8.719325542450001,1.1868838071799999,1.070498764515,0.012135438621045002,3.41000699997,0.4891541153195,2165616.0,1521537107.0,175169797.0,,,,,,1670167.5,1521537107.0,868533479.0,,-0.17600002288849995,-0.982000023127,-0.4480010986325,-0.164499998093,-0.08499999716880001,-0.0785000026226,61.5,70.5,74.0,80.0,85.0,-79.5,-78.0,-77.0,-75.0,-70.0,-1.0,-0.5049998760225,-1.03499999642411,-0.37499999999954997,0.0359999984495,0.04800000786769999,0.008999999612550005
34,45.5571794872,4554.5,1521537107.0,973642587.0,,2165273.0,1521537107.0,277101150.5,,0.7955713341335,-0.1027666799325,-0.005310193528635,-0.07225465329070002,0.9968454235335,-0.00065889094099,0.032825056357000004,-0.0025736055535900003,0.0032734508783040005,-0.0002089109379399996,-0.0033968726782000014,0.00422190679496,0.0045840696776995,8.42722415924,1.0403691530249999,1.269737839695,0.03294517472385,3.3822314739249997,0.48241607844850004,1511033.5,1521537107.0,279588653.5,,,,,,1670177.5,1521537107.0,968475061.5,,0.09399995803814999,-0.6770000457765,-0.17299957275404998,-0.159500002861,-0.103000000119,-0.08799999952314999,41.5,43.0,48.5,56.0,70.0,-80.0,-79.0,-74.5,-72.5,-68.5,-1.0,0.26999998092664995,0.3049999773505,0.27500152587845,0.00499999523200001,-0.01800000295019999,-0.009499996900549992
35,45.6597435897,4565.5,1521537108.0,83627462.0,,2165284.0,1521537107.0,387115294.0,,0.795349081803,-0.101883091922,-0.00531430531874,-0.0725151330238,0.99682982713,-0.000239088664055,0.0327382660255,-0.008165753308979999,-0.013649989288299998,-0.00214988981764,-0.017915454423900003,0.0184447870068,-0.00260344660246,7.47863912582,0.901851415634,1.98152017593,0.00174982845783,2.981954813,0.465200275183,2165637.0,1521537107.0,385186477.5,,,,,,1670188.5,1521537108.0,78585264.5,,-1.0909999847399998,-1.9570000078549998,-0.278001022339,-0.14000000059599998,-0.0929999984801,-0.07750000059605,41.0,44.5,53.0,56.0,82.0,-85.5,-83.0,-79.5,-77.5,-74.5,-1.0,-1.18499994277815,-1.2799999620784999,-0.10500144958495,0.01950000226500001,0.010000001638899997,0.01049999892709999
36,45.7623076923,4575.5,1521537108.0,183738470.0,,2165294.0,1521537107.0,487105610.0,,0.795663170397,-0.103297290767,-0.0051889136684700006,-0.0719041713252,0.996870357307,-0.000978197214308,0.0328378439991,-0.00906617181208,0.007955153173149999,0.00575083252278,-0.00143152987492,0.0127369282727,0.0141264070031,7.423843860630001,1.07466852665,1.5460054874399998,-0.0335458964109,2.9150066375700003,0.465496361256,1511048.5,1521537107.0,491095601.5,,,,,,1670198.5,1521537108.0,178686021.0,,-1.62599995136,-0.762000054121,-0.217999649048,-0.127499997616,-0.0765000022948,-0.08149999752645,56.5,60.0,65.0,70.0,71.5,-82.0,-81.5,-80.0,-77.5,-66.0,-1.0,-0.5349999666200003,1.194999953734,0.06000137329099997,0.01250000297999998,0.0164999961853,-0.003999996930399999
37,45.8648717949,4587.5,1521537108.0,303653478.0,,2165308.5,1521537107.0,632093027.0,,0.7957622663799999,-0.10369664525250001,-0.0049124013265,-0.07155952696074999,0.9968926979445,-0.001067807128964,0.0329056608281,-0.0030933385194750005,-0.02380636542935,-0.0013253104722835002,-0.01987374135525,0.00923453893497,-0.010240018162285,7.99253988266,1.1993117332449998,1.718249976635,-0.0912363305686,3.109739899635,0.443282842636,1511058.5,1521537107.0,621088259.5,,,,,,1670210.5,1521537108.0,298893321.0,,-0.340999984741,0.752999961376,0.36699943542499996,-0.150499999523,-0.09549999982115,-0.11950000002999998,45.5,48.0,53.5,54.0,78.0,-86.5,-84.0,-77.0,-76.0,-75.0,-1.0,1.284999966619,1.515000015497,0.584999084473,-0.023000001906999995,-0.018999997526349996,-0.038000002503549984
38,45.967435897399994,4597.5,1521537108.0,403668999.0,,2165318.5,1521537107.0,732108219.5,,0.7961797225660001,-0.1037685825825,-0.004905875741985,-0.07149730438535001,0.996886372892,-0.0010881707649185,0.03323238345375,-0.0033930214525999987,0.00685439863995,-0.00208373089631,0.0059053341316850005,0.005326779657199996,0.00714091829614,7.970465421680001,1.171703338625,1.76930987835,-0.03492471575735,3.16468346119,0.4574838876725,1511065.5,1521537107.0,722076092.5,,,,,,1670220.5,1521537108.0,399250198.5,,-0.4360000133515,-1.64200001769,-0.3679992675780001,-0.1215000003575,-0.0785000026226,-0.07099999859930001,46.0,47.5,48.0,48.0,58.0,-82.5,-82.0,-79.0,-78.0,-77.5,-1.0,-0.0950000286105,-2.394999979066,-0.7349987030030001,0.0289999991655,0.01699999719855,0.04850000143069998
39,46.07,4607.5,1521537108.0,503630518.5,,2165328.5,1521537107.0,832104003.5,,0.7966652922499999,-0.103478375179,-0.00479067710609,-0.0715824931161,0.996861846834,-0.0006409854396515,0.03378468791755,0.0015137577351200006,-0.002739506014150001,0.000301465552645,-0.009155637116045,-0.0035603260261649994,-0.00030786661263985,7.5735867023450005,1.057410895825,1.83918273449,0.0013942271471000002,2.9892598390550003,0.462180122733,1511072.5,1521537107.0,822575030.5,,,,,,1670230.5,1521537108.0,498948184.5,,0.39900002479549995,-0.17199999094,0.7120006561280001,-0.142000004649,-0.09300000220535,-0.09849999845014999,44.0,44.0,47.0,49.5,63.5,-83.0,-82.0,-80.5,-78.5,-76.5,-1.0,0.835000038147,1.47000002675,1.0799999237060003,-0.020500004291500007,-0.01449999958275,-0.027499999850849985
