,Unnamed: 0,.header.seq,.header.stamp.secs,.header.stamp.nsecs,.header.frame_id,.endpoint_state.header.seq,.endpoint_state.header.stamp.secs,.endpoint_state.header.stamp.nsecs,.endpoint_state.header.frame_id,.endpoint_state.pose.position.x,.endpoint_state.pose.position.y,.endpoint_state.pose.position.z,.endpoint_state.pose.orientation.x,.endpoint_state.pose.orientation.y,.endpoint_state.pose.orientation.z,.endpoint_state.pose.orientation.w,.endpoint_state.twist.linear.x,.endpoint_state.twist.linear.y,.endpoint_state.twist.linear.z,.endpoint_state.twist.angular.x,.endpoint_state.twist.angular.y,.endpoint_state.twist.angular.z,.endpoint_state.wrench.force.x,.endpoint_state.wrench.force.y,.endpoint_state.wrench.force.z,.endpoint_state.wrench.torque.x,.endpoint_state.wrench.torque.y,.endpoint_state.wrench.torque.z,.joint_state.header.seq,.joint_state.header.stamp.secs,.joint_state.header.stamp.nsecs,.joint_state.header.frame_id,.joint_state.name,.joint_state.position,.joint_state.velocity,.joint_state.effort,.wrench_stamped.header.seq,.wrench_stamped.header.stamp.secs,.wrench_stamped.header.stamp.nsecs,.wrench_stamped.header.frame_id,.wrench_stamped.wrench.force.x,.wrench_stamped.wrench.force.y,.wrench_stamped.wrench.force.z,.wrench_stamped.wrench.torque.x,.wrench_stamped.wrench.torque.y,.wrench_stamped.wrench.torque.z,.tactile_values.tactile_values_0,.tactile_values.tactile_values_1,.tactile_values.tactile_values_2,.tactile_values.tactile_values_3,.tactile_values.tactile_values_4,.tactile_values.tactile_values_5,.tactile_values.tactile_values_6,.tactile_values.tactile_values_7,.tactile_values.tactile_values_8,.tactile_values.tactile_values_9,.tag,.delta_wrench.force.x,.delta_wrench.force.y,.delta_wrench.force.z,.delta_wrench.torque.x,.delta_wrench.torque.y,.delta_wrench.torque.z
0,72.240516,7223.5,1521543917.0,308133482.5,,2846186.5,1521543916.0,412438930.5,,0.7144033743414999,-0.3657567507645,0.1160842015305,0.003365720139775001,0.9998270134,-0.008697604019735,-0.016091104877899998,-0.03469248324705,-0.20183848427200002,0.046287458356599996,-0.007667620068245001,0.004174089674145,-0.02546969507455001,-0.7952465116990001,-2.9615486860250004,15.75846862795,2.715083003045,-0.09526114910829996,0.6899995803829999,1986167.0,1521543916.0,410269897.5,,,,,,2350402.5,1521543917.0,300526522.5,,-0.944999969004,-2.6450000226499997,10.200999450660001,0.11600000038735,-0.4485000073909999,-0.1000000014899,249.0,260.0,354.0,678.0,783.0,395.0,469.0,478.5,571.0,694.0,7.0,0.0,0.0,0.0,0.0,0.0,0.0
1,72.3430801026,7235.5,1521543917.0,428292035.5,,2846198.0,1521543916.0,527442063.5,,0.7130403239395,-0.38367000877999996,0.1197075888275,0.008667522470000001,0.9998521822615,-0.005475815313949999,-0.0138014680077,-0.03019690373015,-0.1346230402685,0.012125156888725001,0.0456343342676,0.00986035295095,-0.08016937314035,5.623758077625,0.6396613121029999,14.5425477028,0.1798736527565,2.5548721551849995,0.463645488024,1986175.5,1521543916.0,535774906.5,,,,,,2350414.5,1521543917.0,421309119.5,,-0.190000033379,-1.220000010725,11.06100006105,-0.0819999985397,-0.4839999973775,-0.07400000095369999,265.5,278.5,361.0,653.5,733.5,405.5,476.0,484.0,563.5,714.0,7.0,0.7549999356249999,1.4250000119249997,0.8600006103899993,-0.19799999892705,-0.03549998998650011,0.02600000053620001
2,72.4456442051,7244.5,1521543917.0,518076061.5,,2846209.5,1521543916.0,642438662.0,,0.7113041125114999,-0.39441079084,0.1209099622155,0.0099067677341,0.999834404516,-0.005780712351215,-0.01412676337125,-0.019721205019,-0.08722752498945,0.0035882034721099985,0.0286557126989,0.0249981022986,-0.04755513597255,6.870584249495,2.545830130575,13.39739370345,0.06044295430176,2.733541846275,0.5088490843769999,1986183.0,1521543916.0,641242056.0,,,,,,2350423.5,1521543917.0,510768643.0,,-0.05000004768400002,-3.724999946355,9.29099960327,0.1765000000595,-0.40500000119199997,-0.08100000023840001,259.5,296.0,351.0,648.0,752.0,416.0,491.0,509.5,554.0,662.0,7.0,0.139999985695,-2.50499993563,-1.7700004577800001,0.25849999859920003,0.07899999618550002,-0.00699999928470002
3,72.54820830770001,7252.5,1521543917.0,598025083.0,,2846217.5,1521543916.0,722438489.0,,0.7093457022340001,-0.4000436079895,0.121079973309,0.007795081093029999,0.9998542852500001,-0.0033307052831799996,-0.01481580242185,-0.02652148029765,-0.053084371590400005,0.005711425753005,0.0669156664553,0.0129195662879,0.126366142785,5.55976939201,1.3109646737549998,15.84877872465,0.10144336521650002,2.444809556005,0.5690495967865,2846570.0,1521543916.0,715543722.0,,,,,,2350431.5,1521543917.0,590343639.0,,0.445000076296,-0.8200000047675,9.220999908445,-0.10449999570855001,-0.451000005007,-0.05099999904635,268.0,317.0,356.0,636.0,734.0,416.0,484.0,523.0,564.5,694.5,7.0,0.49500012398000004,2.9049999415875,-0.06999969482500035,-0.28099999576805,-0.04600000381500002,0.030000001192050013
4,72.6507724103,7265.5,1521543917.0,728127956.0,,2846230.5,1521543916.0,852444002.5,,0.7062835920805,-0.41023404472499997,0.1236393402225,0.002332277004655,0.9998999008814999,0.00392619696695,-0.0133701692412,-0.04023450725305,-0.127262711021,0.0236077058441,0.09725816374810001,-0.019225950180175,0.07984427878434999,4.145740985870002,-2.867477059365,16.3741645813,1.488711476325,1.77899038792,0.7635598778725,2846583.5,1521543916.0,850542627.0,,,,,,2350444.5,1521543917.0,721448033.5,,0.7450000286105001,-0.6700000286084999,10.3609992981,-0.11449999734774999,-0.4319999963045,-0.0625,280.0,298.0,362.5,613.0,717.5,418.0,492.0,524.0,598.0,718.0,7.0,0.29999995231450005,0.14999997615900007,1.1399993896549994,-0.010000001639199979,0.019000008702500015,-0.011500000953650003
5,72.7533365128,7273.5,1521543917.0,807996988.0,,2846238.5,1521543916.0,932434268.0,,0.7032799611114999,-0.4222908062055,0.12597425241100002,-0.0014339307863249998,0.9999103624615,0.00610757415086,-0.011827610207699998,-0.050013291412899986,-0.19550049709150003,0.034993726358,0.00420110464973,-0.0407934604956,0.08567021510839999,1.2490249276199998,-4.551383733750002,15.88198804855,1.6433299183849999,0.7713209688664999,0.705035328865,1986202.5,1521543916.0,928261221.0,,,,,,2350452.5,1521543917.0,801646169.5,,0.8599999189390001,2.8399999916550005,8.0810005188,-0.41200000047650004,-0.35199999809250004,-0.0599999986589,280.0,295.0,363.0,611.0,659.0,423.0,476.0,519.5,608.0,777.0,7.0,0.1149998903285,3.5100000202635004,-2.2799987792999996,-0.29750000312875,0.07999999821199993,0.002500001341099997
6,72.8559006154,7285.5,1521543917.0,928063988.0,,2846249.5,1521543917.0,42540158.0,,0.695802950659,-0.446493134782,0.129548911261,-0.00644185720783,0.9999158640105,0.000982643446932,-0.011187230558549999,-0.07089060548845,-0.26335809150600004,0.03038609155475,-0.1317475558655,-0.024184566409150003,0.05206765223535,0.9724903106695,-4.77416944504,15.9460129738,2.540063381195,0.7156664133070001,0.7479443848130001,1986210.5,1521543917.0,38806271.5,,,,,,2350464.5,1521543917.0,920557475.0,,-1.220000064373,-0.8300000250339999,9.630999755860001,-0.01249999972062,-0.43450000882150003,-0.0840000025928,264.0,276.0,365.5,616.0,717.5,418.5,482.0,537.5,597.0,718.5,7.0,-2.079999983312,-3.6700000166890003,1.5499992370600015,0.39950000075588005,-0.08250001072899998,-0.02400000393389999
7,72.9584647179,7295.5,1521543918.0,28602480.5,,2846259.0,1521543917.0,137535190.5,,0.6886414778259999,-0.4693191241285,0.1333838156705,-0.00409739724268,0.999923123849,-0.00482804627652,-0.010649623060999999,-0.0850578780586,-0.2405969550115,0.03910651775095,-0.112216648034,-0.0007721623194099992,-0.042093052307350005,5.05273938179,-1.152969241144,14.8592605591,1.2554205059999999,2.074210882185,0.5937703847885001,2846611.0,1521543917.0,125590928.5,,,,,,2350474.5,1521543918.0,21313745.5,,-0.8549999952309999,-1.4700000107300002,10.22099990845,-0.020500001031885,-0.411499992013,-0.08300000056625,277.5,280.0,367.0,628.0,712.5,425.0,492.0,546.0,589.0,677.5,7.0,0.3650000691420001,-0.6399999856960003,0.5900001525899992,-0.008000001311264998,0.0230000168085,0.0010000020265499981
8,73.0610288205,7302.5,1521543918.0,98028540.0,,2846265.5,1521543917.0,202544311.0,,0.6834280119925,-0.4831550792655,0.13573062091850002,-0.0014854482289349998,0.999930366548,-0.0056465627131450005,-0.010244791013145,-0.08311397058855,-0.220096008042,0.04253936554190001,-0.0024685173218000032,-0.0273106940498,-0.09420420701585,-1.4455036521,-3.174489974975,15.653042793250004,2.4469548463799997,-0.3594232946635,0.6964370608329999,1986222.0,1521543917.0,206295745.5,,,,,,2350481.5,1521543918.0,91286829.5,,0.06999995708447003,-2.444999974965,11.331000518800002,0.03899999894205,-0.403500005603,-0.07050000131129999,250.5,268.0,361.5,619.0,719.0,425.0,536.0,553.5,577.0,647.5,7.0,0.9249999523154699,-0.9749999642349998,1.110000610350001,0.059499999973935,0.007999986410000048,0.012499999254950003
9,73.1635929231,7314.5,1521543918.0,218645095.0,,2846278.0,1521543917.0,327542788.0,,0.673050195289,-0.5065754436175001,0.138775677261,0.00772833654722,0.999922737906,-0.0029302154301450003,-0.009217300313645,-0.075306197144,-0.180775421542,0.0228190770898,0.014996581743585,-0.021951008854768504,-0.16725793439800002,5.997168779375,2.87166917324,14.049754619599998,-0.964759051799,2.54929995537,0.4450420439245,2846630.0,1521543917.0,315592719.0,,,,,,2350493.5,1521543918.0,212037281.5,,-1.13499996662,0.04999998509859999,8.926001739505,-0.18900000304000006,-0.36549998819799995,-0.0515000000596,284.0,295.5,356.5,619.0,696.5,435.5,497.5,559.0,563.0,683.5,7.0,-1.20499992370447,2.4949999600636,-2.404998779295001,-0.22800000198205006,0.03800001740500003,0.01900000125169999
10,73.26615702560001,7324.5,1521543918.0,317960500.0,,2846287.0,1521543917.0,417539703.0,,0.665244189313,-0.521003643464,0.139959637433,0.010409265336799998,0.999869674327,-0.004916315147319999,-0.0113186307269,-0.0823585260333,-0.15577652340099998,0.00939977369165,-0.035916670750000004,0.0381116881928,-0.064364417487,5.77558946609,1.17475533485,15.417498588599999,0.615886211395,2.29468607903,0.5955445766449999,2846640.0,1521543917.0,415587589.0,,,,,,2350503.5,1521543918.0,312208068.5,,-0.11999998092650002,-2.0550000488799998,11.0459968567,0.00700000021605,-0.4169999957085,-0.061499999836100015,274.5,282.0,359.0,636.0,694.5,434.0,504.0,551.0,557.0,647.0,7.0,1.0149999856935,-2.1050000339786,2.119995117195,0.19600000325605005,-0.051500007510500045,-0.009999999776500013
11,73.3687211282,7337.5,1521543918.0,448110580.0,,2846301.5,1521543917.0,562538497.5,,0.6542018371189999,-0.5401096287525,0.14218337196050002,0.0072577887636800014,0.9998787108585,-0.0025581800112950003,-0.0135395139144,-0.06938470001055,-0.11399996230699999,0.020036232417799997,0.0749261294503,0.0280580891959,0.07852527014874999,3.0070178508749996,-0.5077138990165,14.99265909195,0.76316177845,1.259263277055,0.584170460701,1986247.0,1521543917.0,563298532.0,,,,,,2350516.5,1521543918.0,441272275.5,,0.135000014305,-0.730000001192,10.40600128175,-0.08249999955300001,-0.5025000125169999,-0.05800000019375001,254.0,280.5,356.0,637.5,723.0,448.0,485.0,563.0,581.0,667.0,7.0,0.2549999952315,1.3250000476879997,-0.6399955749500013,-0.08949999976905001,-0.08550001680849995,0.003499999642350003
12,73.47128523079999,7345.5,1521543918.0,528584003.0,,2846311.0,1521543917.0,657540104.0,,0.646875128176,-0.55141784253,0.144651648926,0.0008367539420710001,0.999864601311,0.000428623672916,-0.016428486525299997,-0.089892873036,-0.136590613248,0.0289795804803,0.080598220699,0.0667086714205,0.15799232814,3.56874227524,-2.93061423302,17.1199893951,1.78317523003,1.41201972961,0.580237388611,2846663.5,1521543917.0,650595817.0,,,,,,2350524.5,1521543918.0,521684615.0,,-0.450000023842,-2.939999979735,10.78100128175,-0.0404999991879,-0.47249999642350005,-0.06250000186265,269.5,282.5,357.0,625.5,726.5,443.5,482.0,559.0,593.0,696.5,7.0,-0.585000038147,-2.2099999785430002,0.375,0.04200000036510001,0.030000016093499893,-0.004500001668899994
13,73.5738493333,7358.5,1521543918.0,658302068.0,,2846323.5,1521543917.0,782533636.0,,0.6377603630969999,-0.5700409601055,0.1499777303755,-0.004437512219555,0.999804034892,0.008446754172965,-0.017329119887150003,-0.07187422590185001,-0.17915923827449998,0.051167657448099986,0.12971694438349998,-0.02406811794525,0.0694805017272,4.92385101318,-7.088402509685,15.75635290145,2.249272704125,1.7944635748900002,0.602839410305,1986262.5,1521543917.0,779804674.5,,,,,,2350537.5,1521543918.0,651349498.0,,-0.2599999666215,0.429999995232,8.415999603274999,-0.271499991417,-0.3304999917745,-0.061000000685449994,298.0,319.0,368.0,586.0,674.0,450.0,482.0,587.5,589.5,701.0,7.0,0.1900000572205,3.369999974967,-2.365001678475,-0.23099999222909998,0.14200000464900003,0.0015000011772000124
14,73.6764134359,7368.5,1521543918.0,757976054.5,,2846333.5,1521543917.0,882539261.0,,0.632570740839,-0.5926588730105,0.154694210611,-0.00952590163157,0.99983126603,0.005867118370905,-0.01454933967265,-0.030059497810150004,-0.2593539459545,0.050835765611699994,-0.1283493704335,-0.106149142534,0.0694112193388,4.235837101935,-6.582943439485001,15.05025053025,2.69175064564,1.64622890949,0.5784024894235,1986269.5,1521543917.0,880296079.0,,,,,,2350547.5,1521543918.0,752818323.0,,-0.18000004291500002,-0.9849999964215,8.980998229979997,-0.14250000193714998,-0.307000011206,-0.0534999985248,279.0,291.5,365.0,598.5,656.0,454.5,481.0,576.0,597.0,709.0,7.0,0.07999992370649997,-1.4149999916535,0.5649986267049982,0.12899998947985,0.0234999805685,0.007500002160649992
15,73.7789775385,7378.5,1521543918.0,857986568.5,,2846343.5,1521543917.0,982536574.0,,0.6286701194505,-0.6194241392535,0.15928337680049998,-0.00958911965415,0.9999029047750001,-0.00202195163308,-0.009892193995879999,-0.052785418573750006,-0.2737150382695,0.0446593329861,-0.115663345471,-0.08569868838979999,0.002600932201025001,0.42449265718699997,-4.912081956865,15.290066242200004,2.7064087390900005,0.4347467720505,0.6578619480135,1986276.5,1521543917.0,980802949.0,,,,,,2350557.5,1521543918.0,853138221.0,,1.395000004768,-3.2150000751050003,10.46599884035,0.04299999843354,-0.41700001060950004,-0.047500001266599985,291.0,299.0,363.0,621.5,718.0,461.0,511.0,558.0,597.0,658.0,7.0,1.575000047683,-2.2300000786835,1.4850006103700029,0.18550000037068998,-0.10999999940350003,0.005999997258200017
16,73.881541641,7386.5,1521543918.0,938055992.0,,2846350.0,1521543918.0,47568883.0,,0.625348022412,-0.63674813038,0.161802576699,-0.00826958974606,0.999944465128,-0.0032246029208000005,-0.00568176748744,-0.0530887365575,-0.258739858002,0.0485512833203,-0.024223080572200004,-0.141231513781,-0.0367108490609,0.559678792953,-3.4747281074500003,15.060874939000001,1.79898011684,0.917799592018,0.553795874119,1986281.0,1521543918.0,49797829.5,,,,,,2350565.5,1521543918.0,931521038.0,,-0.8099999785439999,-1.7200000107299998,10.3609992981,-0.010000000242135,-0.5355000197885,-0.09149999916555,277.0,298.5,357.5,604.5,732.0,455.5,505.5,549.5,618.0,655.0,7.0,-2.2049999833119998,1.4950000643750005,-0.10499954225000074,-0.052999998675675,-0.118500009179,-0.04399999789895002
17,73.9841057436,7398.5,1521543919.0,58068513.0,,2846361.0,1521543918.0,157531693.0,,0.614198218894,-0.663194565263,0.164691900363,-0.0014975427473399995,0.9999816985200002,-0.004458836933270001,-0.00380509701663,-0.109109405351,-0.23188934194,0.0295143944759,-0.032484534073,-0.0213831355635,-0.114829833118,1.09715878963,-2.70039176941,15.421338081400002,1.7347533702900002,1.16366839409,0.60894459486,1986289.0,1521543918.0,166295877.0,,,,,,2350577.5,1521543919.0,51944572.5,,-1.3450000643750002,-2.8349999606600003,9.126002502445,0.020000000484249998,-0.5430000126365,-0.09450000151995,267.0,268.0,355.0,592.5,712.0,447.0,510.0,549.0,630.0,669.5,7.0,-0.5350000858310003,-1.1149999499300005,-1.2349967956549985,0.030000000726385,-0.007499992847999959,-0.003000002354399997
18,74.0866698462,7409.5,1521543919.0,167983054.5,,2846372.0,1521543918.0,267538280.0,,0.599095457361,-0.6829837371134999,0.16547323647349998,0.00338516510564,0.999960816681,-0.0009138134946385002,-0.008121184601245,-0.1625591668365,-0.152884481707,-0.0020986750644215,0.17190321692450003,0.1034665614285,-0.09226714605555,4.403993606565001,-0.1872441172599999,14.6432771683,0.45709733665,1.942089498045,0.4856217205525,1986297.0,1521543918.0,276807925.0,,,,,,2350588.5,1521543919.0,161634236.0,,-0.24000004530099994,-1.5549999594685,8.965998840329998,-0.1264999993144,-0.40250000357649995,-0.0819999985397,291.5,333.5,364.5,622.0,723.0,459.0,499.0,580.0,629.0,654.0,7.0,1.1050000190740001,1.2800000011915003,-0.1600036621150025,-0.14649999979865,0.14050000906000004,0.012500002980250002
19,74.1892339487,7418.5,1521543919.0,257952451.0,,2846381.0,1521543918.0,357539069.5,,0.5852240630515,-0.6967492354595,0.1650904747405,0.00301767557026,0.9999089058005001,0.00519434006078,-0.012048035295500002,-0.1640647293775,-0.15729741612499998,-0.006104899648095,0.14041951233650002,0.08507045563860001,0.032322118049895,3.9290400743449996,-5.10665988922,16.3515729904,1.9957985878,1.573008656505,0.513869345188,1986303.0,1521543918.0,367300250.5,,,,,,2350597.5,1521543919.0,252184215.5,,0.5850000619889999,0.5499999701964999,7.7660018920899985,-0.3844999969005,-0.3585000038145,-0.0980000011621,316.0,321.0,378.0,562.0,715.0,462.0,495.0,602.0,616.0,662.0,7.0,0.8250001072899998,2.104999929665,-1.19999694824,-0.25799999758610004,0.043999999761999975,-0.016000002622400006
20,74.2917980513,7430.5,1521543919.0,378196477.5,,2846393.0,1521543918.0,477537277.0,,0.567431232464,-0.713809196628,0.1642969046465,0.0010283979902095,0.999792743915,0.0123157393979,-0.016167818682100002,-0.1337494392075,-0.138734428207,-0.006453906678795,0.061040566603550006,0.055940448271399996,0.0371147718347,3.8993371725099997,-4.9607443809500005,16.1903886795,1.3329834938025,1.603810966015,0.463538765907,2846746.0,1521543918.0,475601554.0,,,,,,2350609.5,1521543919.0,373112792.5,,-0.4000000119195001,2.510000008345,8.54100341797,-0.532499998808,-0.40700000524499996,-0.08300000056625,342.0,371.0,402.0,593.0,612.0,437.5,464.0,610.0,652.0,663.5,7.0,-0.9850000739085,1.9600000381485,0.7750015258800014,-0.1480000019075,-0.048500001430499984,0.015000000595850008
21,74.3943621538,7438.5,1521543919.0,458482980.5,,2846403.0,1521543918.0,577532744.0,,0.557004495759,-0.725830189041,0.161910658804,0.0141643347061,0.999678409177,0.0112530432161,-0.017771293341400003,-0.118883042972,-0.119315245221,-0.035951523020300004,-0.0445127704226,0.119885787059,-0.427628446046,8.78241539001,-0.496519804001,15.0692214966,0.233955800533,3.4501681327800005,0.426997482777,1986318.5,1521543918.0,583798786.5,,,,,,2350617.5,1521543919.0,453282849.0,,1.135000014307,-0.6149999916555,8.960997772214998,-0.19799999892700001,-0.5429999828334999,-0.07750000059605,336.0,387.0,429.5,567.5,599.0,429.5,445.0,554.5,562.0,643.0,7.0,1.5350000262265002,-3.1250000000005,0.41999435424499865,0.334499999881,-0.13599997758849997,0.005499999970199995
22,74.4969262564,7446.5,1521543919.0,542348503.5,,2846411.5,1521543918.0,662550578.5,,0.550225409437,-0.733092123674,0.1594933031845,0.0237638242062,0.999453753114,0.008702654545645,-0.0212499708242,-0.04003849836975,-0.03947564492175,-0.031474366987099996,-0.02070801279957,0.0615313875636,-0.0485089853017,6.50402832031,-0.527847379446,15.2758450508,0.9146697819235,2.27817082405,0.37841488420950004,1986324.0,1521543918.0,662794687.0,,,,,,2350626.0,1521543919.0,537488215.0,,1.3200000762925002,-2.419999998805,10.061000061015001,-0.09750000014910001,-0.4865000098945,-0.0500000007451,335.5,440.5,447.5,524.0,538.0,421.5,468.5,484.5,519.0,629.5,7.0,0.18500006198550012,-1.8050000071494998,1.1000022888000025,0.1004999987779,0.05649997293899994,0.027499999850950002
23,74.599490359,7460.5,1521543919.0,678151011.0,,2846425.5,1521543918.0,802540821.0,,0.548025601733,-0.7325313657970001,0.155702910168,0.0249087526913,0.999345482792,0.010843921868899998,-0.0238857213974,0.0178887342138,0.03046608666925,-0.010063560049485,0.0492634347384,-0.012143201664045,0.02871989936785,7.460095643994999,-2.9871062040350003,16.969964981049998,1.76290565729,2.5443713665,0.4144725501535,1125888.5,1521543918.0,798499968.0,,,,,,2350639.5,1521543919.0,671529049.0,,2.4349999666199995,-2.9800000607999997,12.34599990845,0.0065000000759,-0.37000000476850003,-0.056500000879150004,332.0,374.0,459.5,516.5,587.5,410.0,411.5,503.0,528.0,642.5,7.0,1.1149998903274994,-0.5600000619949999,2.2849998474349995,0.10400000022500001,0.11650000512599995,-0.006500000134050006
24,74.7020544615,7467.5,1521543919.0,747977018.0,,2846432.0,1521543918.0,867533086.0,,0.549923350714,-0.730303312195,0.155860175143,0.02405680365435,0.9993718144410001,0.01239807117475,-0.0228730418957,0.047012914024599985,0.04981341763375,0.0004759823477799999,0.05641999381060001,-0.04086713984115,0.05280203375435,6.67153143883,-2.8893138170249997,15.7066016197,1.60483497381,2.2428649663900004,0.5014577060934999,1986338.0,1521543918.0,870796875.0,,,,,,2350646.5,1521543919.0,743220977.0,,1.6949999570849998,-2.9849999368199995,9.700999450685,-0.05049999989569999,-0.33599999547,-0.0415000002831,330.0,386.5,465.5,521.0,551.5,413.0,419.5,483.0,540.0,678.5,7.0,-0.7400000095349997,-0.004999876019999849,-2.6450004577650006,-0.05699999997159999,0.034000009298500056,0.015000000596050007
25,74.8046185641,7478.5,1521543919.0,857990026.0,,2846443.5,1521543918.0,982532583.0,,0.5557078189210001,-0.726178029867,0.1561741675765,0.0197534279767,0.9995130816895,0.012245488678549998,-0.020815087896849997,0.044679343946450005,0.035548751520800004,0.008312428550618998,-0.0099517328718615,-0.0142761036552,0.07351867200215001,4.845604658125,-2.435090065,15.8100342751,1.6581869125350002,1.862183272835,0.5625584721565,2846796.5,1521543918.0,980592244.0,,,,,,2350657.5,1521543919.0,853084106.5,,1.0899999380105,-2.92999998927,11.06600112915,0.014500000514099998,-0.5285000205039999,-0.06599999964240001,325.0,411.0,454.0,504.0,538.0,404.5,413.0,465.5,536.5,702.0,7.0,-0.6050000190744997,0.05499994754999937,1.3650016784649992,0.06500000040979999,-0.19250002503399993,-0.024499999359300015
26,74.9071826667,7489.5,1521543919.0,969743490.0,,2846452.5,1521543919.0,72664067.0,,0.5599572947904999,-0.721658206406,0.1561188076925,0.015345132573,0.9995916405435,0.012490417932200001,-0.0205850567884,0.0474698245752,0.045995202828,0.00517170941465,-0.0034391875546500032,-0.00923186439516,0.09067306743669999,3.3548332452749996,-2.51331341267,15.6107811928,1.7647323608400003,1.23359823227,0.5993781983855,1986352.5,1521543919.0,76877720.5,,,,,,2350669.0,1521543919.0,967513349.0,,-0.414999938011,-1.71999995112,11.0510017395,0.0109999999404,-0.469999998808,-0.09000000357629999,349.0,432.5,457.5,552.0,561.0,369.0,421.0,452.0,521.0,700.5,7.0,-1.5049998760215,1.2100000381500002,-0.014999389649998918,-0.003500000573699997,0.05850002169599994,-0.024000003933899977
27,75.0097467692,7501.5,1521543920.0,90118050.0,,2846464.0,1521543919.0,187657838.0,,0.564577954818,-0.715595500829,0.155884483474,0.00966325606325,0.999646771045,0.0133361104305,-0.02085911742,0.0403836930251,0.0419871338677,0.00190420692418,0.0083075274635,-0.015431110744,0.0918129151758,4.37582492828,-3.55622673035,15.949865341199999,1.984333992,1.65525662899,0.5892766714100001,1125904.0,1521543919.0,190000128.0,,,,,,2350680.5,1521543920.0,84245923.5,,-1.385000026225,-1.454999965425,9.910998535135,-0.0289999991655,-0.4145000129935,-0.08100000023840001,342.0,393.0,445.5,523.5,560.5,373.5,422.5,461.5,530.5,725.0,7.0,-0.970000088214,0.26499998569499983,-1.1400032043649997,-0.039999999105900005,0.0554999858145,0.009000003337899978
28,75.1123108718,7512.5,1521543920.0,197994947.0,,2846475.0,1521543919.0,297659695.0,,0.569596599307,-0.7101767717409999,0.156430358347,0.005007184905359999,0.99969267767,0.0137448910417,-0.0200139022558,0.0360857041864,0.0320333010756,0.00097623225275,0.00117425374389,-0.0206722961485,0.0845138466083,1.88841843605,-3.5784165859199994,16.2740249634,2.25364208221,0.517513096333,0.67592215538,1986368.0,1521543919.0,292862658.5,,,,,,2350692.0,1521543920.0,198769112.0,,0.785000109671,-1.81499997973,10.09099884035,0.07649999856945,-0.4299999922515,-0.09950000047669999,336.0,392.0,449.5,513.0,551.0,310.0,415.5,448.0,529.5,711.5,7.0,2.170000135896,-0.36000001430499995,0.18000030521499966,0.10549999773495,-0.015499979258000007,-0.01850000023829998
29,75.21487497439999,7520.5,1521543920.0,278120040.0,,2846483.0,1521543919.0,377659398.0,,0.571336471426,-0.7070515350550001,0.156018616137,0.00255123795556,0.999689804289,0.0149193242556,-0.0197787803023,0.0260074629532,0.0443560988491,0.0146699559935,0.0416519861595,-0.0215570446432,0.074246898526,1.40867459774,-2.94729351997,15.6110639572,1.67963266373,0.4777027964590001,0.605572938919,1986373.5,1521543919.0,372861427.0,,,,,,2350699.5,1521543920.0,275080627.5,,0.115000033379,-2.84500007033,8.771002960205,0.009500000160175,-0.417499989271,-0.0685000009835,332.0,430.0,447.0,540.0,579.0,332.0,420.5,437.0,526.0,741.0,7.0,-0.670000076292,-1.0300000905999998,-1.319995880145001,-0.06699999840927501,0.012500002980499969,0.030999999493199995
30,75.3174390769,7532.5,1521543920.0,397988557.5,,2846495.0,1521543919.0,497682136.5,,0.5732585781639999,-0.7032465542945,0.156322301459,0.0007589876788489999,0.999675395723,0.017635974939299998,-0.0183695904929,0.005117117316059999,0.017692403498134997,-0.00368911907363,0.031916751345500004,-0.007280416200495,-0.00045166753270000146,2.353204071525,-3.2328981161150003,15.47285556795,1.82185423374,0.958194494248,0.643448293209,1986382.5,1521543919.0,498875844.5,,,,,,2350711.5,1521543920.0,393079488.5,,-0.25500009059900003,-1.7500000417200001,10.1060020447,-0.04749999940394999,-0.495999991894,-0.0815000012517,340.0,443.5,466.5,531.5,545.5,354.0,440.0,445.0,537.5,771.5,7.0,-0.37000012397800003,1.0950000286099997,1.334999084495001,-0.05699999956412499,-0.078500002623,-0.013000000268200002
31,75.4200031795,7540.5,1521543920.0,477970480.5,,2846505.5,1521543919.0,602676753.5,,0.573045639184,-0.7031581907015001,0.1562309014435,0.0004454703837565,0.9996768388045,0.0174101422721,-0.018513056977299998,-0.011266212765025,-0.010679064839000002,-0.0038364527735520004,-0.04215690181965,0.02980942953795,0.0298795053566,2.8752915859200003,-3.725829124455,16.04467582705,2.0101593732799996,1.153145879509,0.6332314014435,1125920.0,1521543919.0,592999936.0,,,,,,2350719.5,1521543920.0,474543678.0,,-0.36499998569495,-2.3850000321900002,8.590998840334999,0.0005000000237499999,-0.459499999881,-0.0765000022948,345.0,437.0,444.0,515.0,555.0,330.5,438.0,450.0,541.0,765.5,-1.0,-0.10999989509594998,-0.6349999904700001,-1.5150032043650015,0.047999999427699995,0.03649999201300003,0.004999998956899995
32,75.5225672821,7549.5,1521543920.0,567990541.0,,2846514.0,1521543919.0,687664931.0,,0.571597499752,-0.703602402896,0.155065501464,0.000301344205509,0.99965157896,0.016969997979600002,-0.0202150697182,-0.0153874225175,-0.004535790348890001,-0.00788392890897,-0.00742534666076,0.032646991596,-0.0040938095255,3.1264669895200004,-3.71866679192,16.1290836334,2.09704017639,1.11336326599,0.632859766483,1986396.0,1521543919.0,694376703.0,,,,,,2350728.5,1521543920.0,563161871.0,,0.24500002861000006,-1.5150000274200002,10.59599990845,-0.0140000004321,-0.420000001788,-0.09449999779464999,351.5,405.0,437.0,533.5,557.5,330.0,419.5,449.0,535.0,767.5,-1.0,0.6100000143049501,0.8700000047700001,2.0050010681150017,-0.01450000045585,0.03949999809299998,-0.017999995499849986
33,75.6251313846,7563.5,1521543920.0,707978486.5,,2846528.5,1521543919.0,832666779.0,,0.5705091166905001,-0.7053705956980001,0.155456888337,0.0013008372487650001,0.9996627391175,0.016091362259700003,-0.0203396935675,-0.007469436882749999,0.0014884228369749994,-0.00998771262325,0.01677952789566,0.011451120623484998,-0.002769651428400005,3.2899187803250003,-2.5437655448900003,15.5971684456,1.6063916087149999,1.195338129995,0.56905323267,1986405.5,1521543919.0,834858467.5,,,,,,2350742.5,1521543920.0,703120639.0,,1.504999899865,-0.39500002265,10.54099960325,0.013000000268235001,-0.4529999941585,-0.09600000083444997,332.0,424.0,436.0,521.5,539.5,344.0,416.0,436.5,561.5,786.0,-1.0,1.259999871255,1.12000000477,-0.0550003052000001,0.027000000700335,-0.0329999923705,-0.0015000030397999825
34,75.72769548720001,7573.5,1521543920.0,807992100.5,,2846538.5,1521543919.0,932667020.0,,0.5704635492865,-0.7052466892285,0.15565627137350002,0.0012086434455965,0.999661182523,0.01636226588745,-0.0202043086542,0.0036402032085199993,0.0010831626772505,0.0009712681820499992,-0.009807800572749995,0.00025517683515000056,0.0194813635633,2.4467936754200004,-2.692321777345,15.724207401300001,1.7200955152500002,0.8817956447599999,0.5805578827855,1986412.5,1521543919.0,935356600.0,,,,,,2350752.5,1521543920.0,803006738.5,,1.6800000906,-1.890000027415,10.075999450675,0.00350000016624,-0.465499997139,-0.07899999991060001,334.5,424.5,440.5,502.0,600.0,323.0,409.0,420.0,552.5,797.0,-1.0,0.17500019073500006,-1.495000004765,-0.4650001525749996,-0.009500000101995,-0.012500002980499969,0.017000000923849956
35,75.8302595897,7583.5,1521543920.0,907966017.0,,2846547.5,1521543920.0,22255822.0,,0.5695552338025001,-0.7052570254389999,0.1552394835865,0.0016903668880750005,0.9996414165305001,0.01690279042415,-0.020699328089450002,-0.0180496869997,-0.006024307956880501,-0.009011812213965,0.009003024506395,0.02198996168,-0.02713849025155,3.196467757225,-3.12768483162,15.8283910751,1.81858807802,1.1658513546,0.5667991936205,1986418.0,1521543920.0,15867400.5,,,,,,2350762.5,1521543920.0,904890837.0,,2.129999899865,-1.7150000155,10.40600128175,0.00550000020303,-0.4425000101325,-0.07200000062584999,334.0,441.0,449.5,521.5,576.0,331.0,418.0,419.5,553.5,804.5,-1.0,0.44999980926499994,0.17500001191499992,0.33000183107499836,0.0020000000367899995,0.022999987006499967,0.006999999284750022
36,75.93282369229999,7590.5,1521543920.0,977954983.5,,2846553.0,1521543920.0,77257350.0,,0.569797613099,-0.705866517465,0.1555792526,0.00175249316728,0.999655695891,0.016210112194100002,-0.0205584703671,-0.00948324853087,-0.01225970955,-0.00359429381539,0.00607982468959,0.00143444504684,-0.013484802191,3.19325971603,-2.93579912186,15.7382106781,1.76547813416,1.12991833687,0.581116855145,1986423.0,1521543920.0,85673517.5,,,,,,2350769.5,1521543920.0,974476290.5,,-0.7899999380105001,-1.295000058415,9.30599899292,-0.011999999638635,-0.4000000059605,-0.08700000122189999,342.5,443.0,473.5,534.0,554.5,356.0,410.0,424.0,554.5,801.0,-1.0,-2.9199998378755003,0.41999995708499993,-1.1000022888299998,-0.017499999841665,0.042500004172000005,-0.01500000059605
37,76.0353877949,7602.5,1521543921.0,97964048.0,,2846565.0,1521543920.0,197245795.0,,0.569790544834,-0.706137092689,0.155438882272,0.00142167119336,0.999662958411,0.0157970030558,-0.0205524481619,0.0007815852930379999,-0.0049437020947600005,0.00418721467214,-0.0144911124007,-0.00300123429317,-0.000500458874739,2.71179413795,-2.54925489426,15.686213493299999,1.66703820229,0.963759660721,0.5778465271000001,1986431.5,1521543920.0,201170324.0,,,,,,2350781.5,1521543921.0,94781930.0,,0.8049999713895001,-1.130000036955,9.14100189209,0.0220000008121,-0.4760000109675,-0.08049999922515,335.5,406.5,447.0,522.0,559.0,358.0,420.0,421.0,572.0,805.0,-1.0,1.5949999094000002,0.16500002146000003,-0.16499710082999997,0.034000000450735,-0.076000005007,0.006500001996749993
38,76.1379518974,7614.5,1521543921.0,217977523.5,,2846577.0,1521543920.0,317244009.0,,0.569665675542,-0.705590426636,0.15518182954600002,0.0008109113392749999,0.999647266605,0.016673918853500003,-0.0206558762182,-0.00552945967254,-0.00226807523551,-0.00448290532082,-0.005351452237600001,0.016497004851,-0.00789082548119,2.78427934647,-2.84594154358,15.776639938399999,1.74788999557,0.986841976643,0.634453415871,1986440.0,1521543920.0,327151189.5,,,,,,2350793.5,1521543921.0,215006090.5,,0.8600000381474999,-0.9500000298035,8.915999603269999,0.01000000024214,-0.4684999883175001,-0.0785000026226,344.5,443.0,450.0,477.0,561.0,295.0,417.5,420.5,585.0,822.0,-1.0,0.055000066757999844,0.1800000071515001,-0.22500228882000073,-0.012000000569960001,0.007500022649999882,0.00199999660255
39,76.240516,7625.5,1521543921.0,327979445.0,,2846588.5,1521543920.0,432251386.0,,0.5699574865164999,-0.7054208432415,0.1551484758705,0.0008276631880845,0.999650766571,0.01671064784675,-0.02045436584275,-0.002480532683319999,0.005184611046455,-0.010349658033104999,0.0055968889290500005,0.015993806079249998,0.01344484402304,2.585940003395,-2.912734627725,15.74591827395,1.7737781405450002,0.8837391436099999,0.6222307384015,1986447.5,1521543920.0,437176167.0,,,,,,2350804.5,1521543921.0,324898060.5,,0.005000019073500006,-1.859999936815,8.536002349855,0.01099999994039,-0.440999999642,-0.06450000032780001,344.0,432.0,441.0,500.5,538.0,318.0,411.0,413.5,563.0,853.0,-1.0,-0.8550000190739999,-0.9099999070115,-0.3799972534149987,0.000999999698250001,0.02749998867550013,0.014000002294799987
