,Unnamed: 0,Unnamed: 0.1,.header.seq,.header.stamp.secs,.header.stamp.nsecs,.header.frame_id,.endpoint_state.header.seq,.endpoint_state.header.stamp.secs,.endpoint_state.header.stamp.nsecs,.endpoint_state.header.frame_id,.endpoint_state.pose.position.x,.endpoint_state.pose.position.y,.endpoint_state.pose.position.z,.endpoint_state.pose.orientation.x,.endpoint_state.pose.orientation.y,.endpoint_state.pose.orientation.z,.endpoint_state.pose.orientation.w,.endpoint_state.twist.linear.x,.endpoint_state.twist.linear.y,.endpoint_state.twist.linear.z,.endpoint_state.twist.angular.x,.endpoint_state.twist.angular.y,.endpoint_state.twist.angular.z,.endpoint_state.wrench.force.x,.endpoint_state.wrench.force.y,.endpoint_state.wrench.force.z,.endpoint_state.wrench.torque.x,.endpoint_state.wrench.torque.y,.endpoint_state.wrench.torque.z,.joint_state.header.seq,.joint_state.header.stamp.secs,.joint_state.header.stamp.nsecs,.joint_state.header.frame_id,.joint_state.name,.joint_state.position,.joint_state.velocity,.joint_state.effort,.wrench_stamped.header.seq,.wrench_stamped.header.stamp.secs,.wrench_stamped.header.stamp.nsecs,.wrench_stamped.header.frame_id,.wrench_stamped.wrench.force.x,.wrench_stamped.wrench.force.y,.wrench_stamped.wrench.force.z,.wrench_stamped.wrench.torque.x,.wrench_stamped.wrench.torque.y,.wrench_stamped.wrench.torque.z,.tactile_values.tactile_values_0,.tactile_values.tactile_values_1,.tactile_values.tactile_values_2,.tactile_values.tactile_values_3,.tactile_values.tactile_values_4,.tactile_values.tactile_values_5,.tactile_values.tactile_values_6,.tactile_values.tactile_values_7,.tactile_values.tactile_values_8,.tactile_values.tactile_values_9,.tag,.delta_wrench.force.x,.delta_wrench.force.y,.delta_wrench.force.z,.delta_wrench.torque.x,.delta_wrench.torque.y,.delta_wrench.torque.z,.wrench_stamped.wrench.force.magnitude,.wrench_stamped.wrench.torque.magnitude,.endpoint_state.wrench.force.magnitude,.endpoint_state.wrench.torque.magnitude,.endpoint_state.twist.linear.magnitude,.endpoint_state.twist.angular.magnitude
0,0,42.718438,4272.5,1521541464.0,673324942.0,,2600932.5,1521541463.0,872277152.0,,0.7339123896874999,-0.1076940304895,0.13335909150800002,-0.3250188419615,0.9447009578135,0.00917466377483,0.0426441302846,-0.027118166483700003,-0.06581322067369999,0.133865561258,-0.0937306288633,-0.1033598725223,0.00704271378271,1.5394187569600002,-0.3795239180325,6.260195016865,1.4502793550500002,0.955156117677,0.872690349817,1815029.0,1521541463.0,873179700.5,,,,,,2105394.0,1521541464.0,669743639.0,,-1.0160000085835,3.0199999749650006,-3.239000320435,-0.07100000232455,-0.08550000190734999,-0.0525000002235,23.0,23.5,27.5,32.5,76.5,327.5,328.5,333.5,374.5,406.5,4.0,0.0,0.0,0.0,0.0,0.0,0.0,4.543542554220034,0.12291257331823485,6.457854919616914,1.943507618581353,0.15161386301985105,0.13970788758105596
1,1,42.821002102600005,4280.5,1521541464.0,755135536.0,,2600941.0,1521541463.0,957276510.0,,0.7324570712874999,-0.11170597747,0.14346021442700002,-0.32269826598850004,0.9453169235225,0.008142302273649999,0.04663877092245,-0.016779513641465002,-0.032280398594650005,0.118162732921,0.0479057041431,-0.09239922603725,-0.08742856649245,0.8965488821275001,-0.6889729797840001,5.638619184494997,1.279036819935,0.7086132168770001,0.8181793689725001,1815035.5,1521541463.0,956664404.5,,,,,,2105402.0,1521541464.0,751900662.5,,-1.4910000324250001,0.7450000137105001,-1.3740005493149998,-0.07949999719860001,-0.10649999976145,-0.01900000032035,13.5,14.5,22.0,26.5,54.0,313.0,326.5,337.5,395.5,411.5,4.0,-0.4750000238415,-2.2749999612545007,1.8649997711200004,-0.00849999487405001,-0.020999997854100002,0.03349999990315,2.1600888006371215,0.1342516276100203,5.75087036653336,1.6755552386282127,0.12363659516030508,0.13592765612874297
2,2,42.9235662051,4293.5,1521541464.0,882915973.0,,2600953.5,1521541464.0,82276210.5,,0.7325414345615,-0.115533571379,0.15513449628599998,-0.31928398596950003,0.946182027945,0.007119947030425002,0.052405978755350004,0.0418689396097,-0.0504420675801,0.0822263358026,-0.05115110728055,-0.15087164036800002,-0.022217609636025,7.36398434639,3.55161678791,1.6541743278499998,-0.3693763017655,2.60294294357,0.7366762161255,1815043.5,1521541464.0,79185831.5,,,,,,2105414.5,1521541464.0,875052878.5,,-0.35599992275250003,1.79499998838,-1.3389987945550001,-0.09500000253325,-0.11799999699000001,-0.03399999905375,28.5,34.5,43.5,53.5,117.0,390.0,395.5,402.5,548.0,590.0,4.0,1.1350001096724998,1.0499999746695,0.035001754759999885,-0.015500005334649987,-0.011499997228549995,-0.0149999987334,2.2675269954520343,0.1552578490982421,8.34137518452198,2.730282525159585,0.10515978597029388,0.16084871718884258
3,3,43.02613030770001,4300.5,1521541464.0,954311489.5,,2600961.0,1521541464.0,157280772.0,,0.7353783893800001,-0.117189548911,0.158148251734,-0.319561346673,0.945826797705,0.00407200422425,0.0572331480552,0.0382061014042,-0.0371277310117,0.0272153021728,-0.0209427720752,-0.14040532666799999,-0.0289464202108,0.5232136249539999,0.318009346724,3.8549001216900014,0.977408528328,1.06155312061,0.886257112026,2601314.0,1521541464.0,155373647.0,,,,,,2105422.0,1521541464.0,950706519.0,,0.33400013446800003,1.23000001311,-1.51900100708,-0.10599999874800001,-0.10800000280099999,-0.032999999821200006,32.5,35.0,38.5,59.5,74.5,241.5,249.5,268.5,355.0,393.0,4.0,0.6900000572205001,-0.5649999752700001,-0.18000221252500004,-0.010999996214749994,0.009999994188999994,0.0009999992325499946,1.982881787093042,0.15488382849023072,3.903221411878516,1.6934208359831298,0.0598234675268993,0.14487978016949699
4,4,43.1286944103,4312.5,1521541465.0,72870969.0,,2600972.5,1521541464.0,272277874.0,,0.7286780660340001,-0.115716063701,0.1556604647805,-0.320353734565,0.945752966625,0.004019522906875,0.053929209138400006,-0.08625972026564999,0.014141055720056002,-0.04182404867585,-0.02076704367545,0.0938440671582,-0.06269931145005,-0.19556640088550006,2.29311287403,5.846945285795,0.00844514369965,0.3622420430185001,0.5453316271305,2601325.5,1521541464.0,270356289.5,,,,,,2105433.0,1521541465.0,59207343.0,,-0.4759999275207501,2.58000000715,-2.229000091555,-0.08599999919535,-0.08650000020860002,-0.048000002279900006,34.5,39.0,44.0,47.5,101.5,88.5,89.5,101.5,103.5,109.5,4.0,-0.8100000619887502,1.3499999940400005,-0.7099990844750002,0.019999999552650003,0.02150000259239998,-0.0150000024587,3.4425887608086385,0.13108108222225817,6.28358035241675,0.6547344513091725,0.09690180516804517,0.11475705947836573
5,5,43.2312585128,4321.5,1521541465.0,162929057.5,,2600981.5,1521541464.0,362275307.5,,0.7214338478440001,-0.113296695143,0.15196214087499998,-0.320598887135,0.9459074524850001,0.005163463249680001,0.0494833964827,-0.07769043154055,0.0525676303764,-0.047691340829800005,0.012042235874185,0.08876066922669999,0.1037008526562,1.4519031345860005,1.0967048406600002,5.338892698285001,0.411590129137,0.7028993666169999,0.611544430256,2601334.5,1521541464.0,360354627.5,,,,,,2105442.5,1521541465.0,155149342.5,,-0.05099985599500001,0.5349999904630001,-1.7390003204349995,-0.0729999989271,-0.07649999856949999,-0.01250000018625,36.5,40.0,46.0,63.0,109.0,61.0,63.5,68.5,70.0,70.5,4.0,0.4250000715257501,-2.045000016687,0.4899997711200006,0.013000000268249991,0.010000001639100031,0.035500002093650014,1.8201505678322196,0.10647769545377263,5.640439651618358,1.018558071084181,0.10523128292713553,0.13703042978858404
6,6,43.3338226154,4334.5,1521541465.0,292868494.5,,2600992.0,1521541464.0,467319287.0,,0.7157040806415,-0.110270815561,0.1477348273465,-0.322035383407,0.945572993826,0.0067570413579000005,0.046248326102,-0.03348790987965,0.018302641277505,-0.03056995202475,0.01862330426499,0.0330892242361,-0.0260214588942,1.1636658310895,1.482631385325,6.68749642372,0.15750744193785002,0.683410465717,0.5571771860120001,2601345.0,1521541464.0,465408144.0,,,,,,2105455.5,1521541465.0,284537381.5,,0.24399998188000002,0.8050000086425001,-3.329000473025,-0.08750000223530001,-0.08799999952314999,-0.003999999724349999,30.5,31.5,33.5,39.0,60.0,28.0,30.5,35.0,36.0,44.0,4.0,0.294999837875,0.27000001817950003,-1.5900001525900007,-0.014500003308200003,-0.011500000953650004,0.008500000461900001,3.4336285696726923,0.12416219354153947,6.9480157173443216,0.8957147288783315,0.048897328686095996,0.04603086513716468
7,7,43.4363867179,4344.5,1521541465.0,392964601.0,,2601002.0,1521541464.0,567350754.5,,0.7130519245960001,-0.109330958901,0.1452038067495,-0.3242549858955,0.944847837075,0.0070945483432999995,0.04550595631570002,-0.01101801384257,-0.0026200513239500005,-0.02499904855605,0.01251068018275,-0.012388091182000006,0.033337400134640004,-0.02552022039900004,-1.259238779545,6.464000701905,1.397714078425,0.3394174426795,0.8420961201189999,2601355.0,1521541464.0,565416085.0,,,,,,2105465.5,1521541465.0,386337404.0,,-0.7059999465939999,0.4399999916549999,-1.7189998626700005,-0.0815000012517,-0.0765000022948,-0.0240000002086,32.5,33.5,34.5,38.0,55.5,18.0,18.0,20.0,23.0,46.5,4.0,-0.949999928474,-0.3650000169875002,1.610000610355,0.0060000009836000115,0.011499997228349991,-0.02000000048425,1.909711089433847,0.11432628991244449,6.585562896198588,1.6667137489509143,0.027444739508381964,0.037700983667613965
8,8,43.5389508205,4352.5,1521541465.0,472944498.0,,2601010.0,1521541464.0,647324553.0,,0.712745517839,-0.109749377612,0.143545515836,-0.32420761446699997,0.944815302178,0.008096999339010001,0.046345507816000005,0.004152465308280001,0.0192709779861,-0.00614597412284,0.037736802599900005,-0.039717999760400004,0.012466222866799999,4.1796746254000015,-2.3222677707700004,4.15677881241,1.7941185236000001,1.83575487137,1.00369286537,1028804.0,1521541464.0,654000128.0,,,,,,2105473.5,1521541465.0,466311946.5,,-0.1960000753401,1.0600000113245,-2.2239990234400002,-0.08499999716875001,-0.07750000059605,-0.01899999938905,29.5,30.0,39.5,50.5,80.0,23.5,26.5,28.5,32.0,36.0,4.0,0.5099998712538999,0.6200000196695001,-0.5049991607699995,-0.003499995917050011,-0.0009999983012499991,0.005000000819549997,2.4714748046062174,0.11658580354339529,6.335725504523566,2.7561307284811383,0.020649129729744996,0.056187120303461735
9,9,43.641514923100004,4365.5,1521541465.0,602872490.5,,2601023.0,1521541464.0,777335468.5,,0.7140159750534999,-0.11030083545050001,0.141323548055,-0.323777477433,0.94489643066,0.008792080449504998,0.0475527050984,0.02548561278495,0.016500497486649997,-0.03065282522995,0.06686519102489999,-0.05574460938775,0.005513269560165,4.87260723114,-0.6366375982769998,3.225243330005,1.2516205906855,1.8840661048900005,0.8898697197434999,1815092.5,1521541464.0,783188781.0,,,,,,2105486.5,1521541465.0,596014163.0,,-0.1559998750685,0.6249999940395,-2.293998718265,-0.0784999988973,-0.057499999180449984,-0.023500000126650003,33.5,34.5,38.5,40.0,44.5,15.5,17.5,27.5,39.0,51.0,4.0,0.040000200271600006,-0.435000017285,-0.06999969482500035,0.006499998271450008,0.02000000141560001,-0.004500000737600002,2.382727653965561,0.10010369492970976,5.8779080630985945,2.430663964586564,0.043143696769159794,0.08722850100644991
10,10,43.7440790256,4372.5,1521541465.0,672860026.0,,2601030.0,1521541464.0,847322574.0,,0.7161655704709999,-0.108592724672,0.1398994721335,-0.324077819467,0.9446053179045,0.010536162211635001,0.050822088772550005,0.0321027250027,0.005760996741900001,-0.0211767022096,0.0602336171096,-0.055892766291200005,-0.011270028179199995,1.6978908181185002,-0.36521299183358,5.7932815551750005,0.638222694397,0.7450390756130001,0.640218347311,1028812.0,1521541464.0,856999936.0,,,,,,2105493.5,1521541465.0,664907265.0,,0.5139999628065001,2.2650000095400005,-2.274000167845,-0.09149999916555,-0.07450000196695,-0.0300000011921,22.5,24.0,27.0,34.0,53.0,18.5,21.5,25.0,26.0,42.5,4.0,0.6699998378750001,1.6400000155005006,0.019998550419999983,-0.013000000268250005,-0.017000002786500008,-0.0065000010654499936,3.2504611624107085,0.12174769078671352,6.048001730917909,1.171448233626765,0.03888735980409624,0.08294036103700395
11,11,43.8466431282,4382.5,1521541465.0,772871493.5,,2601042.5,1521541464.0,972322175.0,,0.7201778236345,-0.109946856855,0.13514681655299998,-0.327097176446,0.94332056709,0.00737931807736,0.05566608613715,0.023117448962550004,-0.017298433468975,-0.050817901189750006,-0.08380365880389999,-0.10689405799024998,0.132962983123,3.3423519134500004,2.037437975405,2.93267381191,-0.265979990363,1.355299949645,0.5244056284430001,2601395.5,1521541464.0,970399693.0,,,,,,2105503.5,1521541465.0,764777718.0,,1.289000058174,1.254999999515,-2.12899971008,-0.09699999913585,-0.07550000026824999,-0.02099999971685,27.5,33.0,40.0,60.0,96.5,9.0,12.5,13.5,17.5,20.5,4.0,0.7750000953674999,-1.0100000100250004,0.14500045776500015,-0.005499999970299999,-0.000999998301299987,0.00900000147525,2.7873259433148374,0.12470064098058338,4.8911190441480805,1.4773572932516827,0.0584475091714596,0.19007511079441883
12,12,43.9492072308,4396.5,1521541465.0,912855505.0,,2601056.5,1521541465.0,112320855.5,,0.7194438223255,-0.10996085507799999,0.127948790857,-0.326280835812,0.943674343476,0.006464333672814999,0.054567125047,-0.0182460125285,0.03230975856615,-0.05843434167964999,0.047597017911900005,0.04054256433675,0.012445026213415002,1.3626183271400003,1.5166953206049998,4.652373075485,-0.26184527576,0.6236979365349999,0.2487968951465,1815116.0,1521541465.0,113206313.0,,,,,,2105517.5,1521541465.0,904804126.5,,-0.015999770163999973,0.8000000059615,-3.388999938965,-0.08500000089404999,-0.06050000153485,-0.035000000149,51.5,53.0,55.0,57.0,68.5,40.0,46.5,51.5,55.0,61.0,4.0,-1.304999828338,-0.4549999935535001,-1.260000228885,0.011999998241800008,0.014999998733399987,-0.014000000432149998,3.4821798615936648,0.11004658262815503,5.079534293072612,0.7207370945846937,0.06922000981888952,0.06374993580042124
13,13,44.051771333299996,4405.5,1521541465.5,502851009.0,,2601065.5,1521541465.0,202318500.0,,0.7182364322370001,-0.107848179029,0.121877429792,-0.3253591412985,0.9441258293725,0.00870363231718,0.05188120417775,-0.006876782424815001,0.02369485547435,-0.08816682329325001,-0.006582469690109999,0.06825151546875001,-0.010145316210425002,1.179428160195,1.62512457371,4.39740395546,-0.35505047440500004,0.330899581313,0.1859414577485,1028825.5,1521541465.0,204000000.0,,,,,,2105526.5,1521541465.0,994884945.5,,0.8089998006820001,3.0500000059599994,-1.90900039673,-0.10049999877814998,-0.08349999785425,-0.0559999998659,31.0,37.0,41.0,49.0,61.0,94.0,99.5,106.5,113.5,122.0,4.0,0.8249995708460001,2.2499999999984994,1.4799995422350003,-0.015499997884100003,-0.022999996319399998,-0.020999999716900003,3.6879890494109127,0.14215660160910115,4.834174408586468,0.519739933041489,0.09155394607602531,0.06931468612070425
14,14,44.1543354359,4416.5,1521541466.0,112857937.5,,2601076.5,1521541465.0,312320730.5,,0.717903375228,-0.104734089109,0.112178618676,-0.325196475594,0.9443170852835,0.010914309189200002,0.048920701785150005,-0.0074260847285499984,0.03188233560834998,-0.077751478953,0.01537060206655,0.0786856595245,-0.02134463308645,-0.7386417090895,0.2621165812017,6.71616578102,0.08963879942910001,-0.15156683698285,0.256803974509,2601429.5,1521541465.0,310397608.0,,,,,,2105537.5,1521541466.0,106521918.5,,-0.42599997520450006,0.3750000238419999,-3.81899833679,-0.09600000083425,-0.049999998882400004,-0.013999999966489998,37.5,42.0,48.0,55.0,61.5,332.0,351.0,359.0,460.0,483.5,4.0,-1.2349997758865,-2.6749999821179995,-1.90999794006,0.004499997943899992,0.03349999897185,0.04199999989941,3.8609389134199628,0.10914210941464217,6.761743819067054,0.3113774265416415,0.08436185475449118,0.08296554576623326
15,15,44.2568995385,4424.5,1521541466.0,196313500.0,,2601083.5,1521541465.0,382354093.5,,0.7155898465105001,-0.1033233829985,0.1052408838715,-0.3258273437025,0.9442833867589999,0.0124888779771,0.0448256092854,-0.010464916182555,0.01713791342425,-0.08560416866055001,0.022423593715750003,0.0736094415394,-0.0011778996357499974,3.65010344982,1.8412092924099999,4.1454190015800005,-0.2979246601465,1.2979362010950002,0.3644362092015,2601436.0,1521541465.0,375451086.0,,,,,,2105546.0,1521541466.0,191002600.5,,0.7140000104895,1.4999999940400002,-3.229000091555,-0.08650000020865001,-0.059000002220249995,-0.016999999992550002,37.5,39.5,48.0,50.5,81.5,262.5,263.0,291.5,359.5,416.5,4.0,1.139999985694,1.1249999701980002,0.5899982452349999,0.009500000625599995,-0.009000003337850004,-0.003000000026060004,3.631285941420918,0.10607662465327909,5.822182198411977,1.3806560888988566,0.08792778991484367,0.0769581372333249
16,16,44.359463641000005,4434.5,1521541466.0,294115542.5,,2601091.5,1521541465.0,462359210.5,,0.7148175363150001,-0.1031397416155,0.09923505834460003,-0.32721526565049996,0.94392559688,0.01185338203565,0.042356838128050016,-0.0018758069857850003,0.015517569700499997,-0.07469970410844999,-0.041802368273850005,0.03946765345615,0.04370658918885,3.8224726915350002,1.29687231779,4.449812650685,-0.012832131236799993,1.2337388694305,0.4028933495285,2601445.0,1521541465.0,465450987.0,,,,,,2105555.5,1521541466.0,285769472.0,,0.8789999723439998,1.8750000089449999,-2.4839992523200003,-0.107499998063,-0.07849999889735003,-0.0320000015199,36.5,39.0,40.0,61.0,115.0,278.5,282.0,282.5,349.0,392.0,4.0,0.16499996185449986,0.3750000149049999,0.7450008392349998,-0.020999997854349986,-0.019499996677100027,-0.015000001527349998,3.2339632450680114,0.1369032487112799,6.007828885077961,1.2979211503901233,0.0763174908860857,0.07221772359442126
17,17,44.4620277436,4446.5,1521541466.0,412853002.5,,2601104.0,1521541465.0,587355844.5,,0.7168625015074999,-0.1011181592465,0.09063478346005,-0.3261807467465,0.9442465092505,0.01200917154565,0.043131190123399984,0.0219527124486,0.0024795061773899996,-0.06471756505284999,-0.006213538338209999,-0.00583509434878,-0.0423484661687,-1.2007911205285,-0.1932437717915,6.572414159775,0.3365686424075,-0.5662816017865,0.23800714314,1815149.0,1521541465.0,593226755.5,,,,,,2105567.5,1521541466.0,406661718.5,,0.513999962807,0.409999990463,-9.013999938969999,0.3144999966025,0.09450000152005,0.0154999997467,62.5,63.0,74.5,77.0,88.5,202.0,205.0,216.0,231.0,259.0,4.0,-0.3650000095369999,-1.465000018482,-6.5300006866499976,0.4219999946655,0.17300000041740005,0.0475000012666,9.03794726991126,0.32875636593442514,6.684001074063888,0.7004289426912456,0.0683844482401116,0.04319778896634755
18,18,44.564591846199995,4455.5,1521541466.0,502869009.5,,2601113.0,1521541465.0,677357186.5,,0.7219558778210001,-0.1025358166765,0.09036001393455,-0.32852015112,0.9433465133745,0.00683830850448,0.046093078188050016,0.08290422333775,0.015647195114709998,0.0021156446406100007,0.03552479575184999,-0.1561521853195,-0.007156049268399999,5.53087377548,1.6050860285749995,1.64007508755,0.25592301040870497,2.20538187027,0.5191009938715,2601466.0,1521541465.0,675448610.0,,,,,,2105576.5,1521541466.0,496514256.0,,0.4589998960495,2.1950000166900003,-3.9939994812,-0.0859999991953,-0.06099999882285,-0.0064999999012800005,153.0,159.5,189.0,210.5,221.0,192.0,207.0,211.0,237.0,250.5,4.0,-0.055000066757499966,1.7850000262270005,5.020000457769999,-0.4004999957978,-0.15550000034289999,-0.02199999964798,4.580473538147385,0.1056373500079207,5.988047442382299,2.280059565627757,0.0843944365135444,0.16030198106822605
19,19,44.6671559487,4465.5,1521541466.0,602923035.5,,2601123.0,1521541465.0,777355792.0,,0.7281682749505,-0.100832263533,0.08862748981564998,-0.3255905978215,0.944196996115,0.00850456047402,0.0490951192153,0.062043785638049985,0.02003313020375,-0.03611552549469,0.036738697460300014,-0.0191768332295,-0.032110206633900004,2.68362498283,1.4955734014500002,2.137412548065,-0.13328203558899998,0.9199851453325001,0.25527381896949997,2601476.0,1521541465.0,775429724.5,,,,,,2105586.5,1521541466.0,596428893.0,,1.1240000963195,0.23000001311350005,-3.6240005493150003,0.03099999995905,-0.124500002712,-0.0620000008494,151.5,154.5,157.0,177.0,195.0,178.0,184.5,188.0,213.0,226.5,4.0,0.66500020027,-1.9650000035765005,0.3699989318850001,0.11699999915435001,-0.06350000388915,-0.05550000094812,3.8012703408194843,0.1424964939150248,3.742608081033834,0.9640028481775776,0.07453246825255623,0.052426598152686445
20,20,44.7697200513,4474.5,1521541466.0,695761561.0,,2601132.0,1521541465.0,867359481.0,,0.734661108526,-0.0987397342301,0.08480677287900001,-0.322621027334,0.945101607693,0.010570411803500001,0.0508614810311,0.0602810344196,0.0304695863853,-0.056831034879599986,0.0486712447377,0.0046242456302,-0.0437500263541,3.14116311073,1.1146903038,3.5764994621300006,0.032934918999700004,1.27088844776,0.45760923624,1815169.0,1521541465.0,872725692.5,,,,,,2105596.0,1521541466.0,691121680.0,,-0.53599998951,1.4200000032799998,-2.73899841309,-0.101999998093,-0.0750000029802,-0.0480000004172,116.0,127.0,133.5,145.0,155.5,177.0,192.0,198.0,199.0,225.0,4.0,-1.6600000858294999,1.1899999901664997,0.8850021362249998,-0.13299999805205,0.049499999731800005,0.014000000432200005,3.131422728565956,0.13539940951884988,4.888843274662514,1.3511655592974146,0.08827210958550027,0.06560745779215926
21,21,44.8722841538,4486.5,1521541466.0,815096020.0,,2601147.0,1521541466.0,17357626.0,,0.737685423224,-0.09667056978250001,0.0762396841278,-0.32215324998399997,0.945229766352,0.012650023612600002,0.050970081709000005,-0.0650729008363,-0.017005116453799998,-0.0382016333779,-0.0152185777743,0.197034837245,-0.052370471343400005,0.6978855133059999,-0.256402254105,9.897200584410001,0.431628674269,1.12228894234,0.614954531193,2601499.0,1521541466.0,5444312.0,,,,,,2105608.0,1521541466.0,811638405.0,,-0.50600001812,2.7499999940400004,0.0310020446777,-0.0610000006855,-0.158999994397,-0.0179999992251,96.0,101.0,125.0,132.0,147.0,172.5,181.0,204.5,222.0,234.0,4.0,0.029999971390000105,1.3299999907600006,2.7700004577676998,0.040999997407499995,-0.08399999141680001,0.0300000011921,2.796336373244757,0.17124835261683724,9.925087692994866,1.3505572398031314,0.07734999160696604,0.20444314238038397
22,22,44.9748482564,4494.5,1521541466.0,893258571.5,,2601153.5,1521541466.0,82357633.5,,0.7316689531064999,-0.0996200010831,0.07481734987625,-0.323079567577,0.9453049208185,0.011146580096600002,0.043518383745550004,-0.06797867946835001,-0.047907769855000004,-0.0178967817849,-0.09862818411285,0.09888548712605,0.0308473970409,9.240501880664999,2.8399442434299997,5.353222846985,-0.33725012093749995,3.58604466915,0.5345936119560001,2601506.0,1521541466.0,75435456.0,,,,,,2105615.5,1521541466.0,886256566.0,,0.09399988651265002,0.040000015497500034,-0.789001464844,-0.02150000073015,-0.35149998962900003,-0.164999999106,106.0,113.0,121.0,138.0,151.0,142.0,166.5,173.0,181.0,206.0,4.0,0.5999999046326501,-2.7099999785425,-0.8200035095217,0.039499999955349994,-0.19249999523200004,-0.14699999988089998,0.7955873876766582,0.38889522039434166,11.050301043946575,3.6413245314247473,0.08506791447424021,0.14302943812290309
23,23,45.07741235899999,4507.5,1521541467.0,22840976.0,,2601167.0,1521541466.0,217352031.5,,0.733870161926,-0.09867688214575,0.07647570071514999,-0.32237890366,0.9454139275025,0.0115258439417,0.04616764060885,0.011226911839449998,0.005058137823935,0.01200225477983,0.016900783836099997,-0.009970740390305,-0.009881971843895002,0.6439449191090001,0.7925846874715,3.8440018892300003,0.198582008481,0.5508329868315001,0.4546335041520001,1815192.5,1521541466.0,212207117.0,,,,,,2105628.5,1521541467.0,17225437.5,,-1.575999951365,0.964999975263,-3.87899971008,-0.09349999949355,-0.0515000000596,-0.0154999997467,104.0,104.5,109.5,132.5,149.0,157.0,164.5,171.5,175.0,184.0,4.0,-1.6699998378776502,0.9249999597655,-3.089998245236,-0.07199999876339999,0.29999998956940005,0.1494999993593,4.29670100772218,0.10786449788313275,3.977336554789449,0.7413119563123114,0.017195418793872295,0.021970560432746634
24,24,45.1799764615,4519.5,1521541467.0,143281578.5,,2601179.5,1521541466.0,342445426.5,,0.7324173348630001,-0.09896731521235,0.07553247938659999,-0.3232526295815,0.9451753910445,0.0111930581502,0.045009256554700006,0.02394029960435,0.014696167308100003,0.0026864034186599994,0.03413539398975,-0.06301026566845,-0.0026770888199800003,4.237533807755,1.37860655785,5.035469293595,0.116897616535595,2.03486633301,0.5188819617029999,1815201.0,1521541466.0,331250238.5,,,,,,2105640.5,1521541467.0,136634993.5,,-0.02599999904599997,-0.2450000107284999,-0.5439987182620001,-0.01199999963867,-0.1955000013115,-0.08900000154975,83.5,85.0,91.0,99.0,108.0,124.5,133.5,154.5,162.5,169.0,4.0,1.549999952319,-1.2099999859914998,3.335000991818,0.08149999985488,-0.1440000012519,-0.07350000180305001,0.5971897610291522,0.21514007246438327,6.724076131332225,2.1032319263814014,0.02821935580450936,0.07171251987619855
25,25,45.282540564099996,4526.5,1521541467.0,212856411.5,,2601184.0,1521541466.0,387439300.0,,0.732714268613,-0.0993433647398,0.07536004811119999,-0.32304261984099997,0.94524323611,0.010940310049299998,0.045155287291900006,0.00200274062586,-0.006375251460010001,0.0009757522902650001,0.00724491370218,0.00538997813858,-0.0207846847146,1.1626367569,0.9250083565710001,4.56969928741,0.168391659856,0.793630421162,0.445481836796,2601537.0,1521541466.0,385499151.0,,,,,,2105647.5,1521541467.0,206409548.5,,-1.0010000228885,0.7650000095370001,-2.2439994812,-0.0774999968708,-0.1030000001195,-0.01150000002234,75.0,78.0,83.0,89.5,102.5,148.0,154.0,159.0,163.0,167.0,4.0,-0.9750000238425,1.0100000202655,-1.7000007629379998,-0.06549999723212999,0.092500001192,0.07750000152741,2.573472310330977,0.12941213057555628,4.805155176014256,0.925558784420509,0.00675328762343106,0.02266150386827257
26,26,45.3851046667,4538.5,1521541467.0,333034992.0,,2601196.0,1521541466.0,507444943.0,,0.7322021082624999,-0.09939831602665,0.07571599359060001,-0.32293856120200004,0.9452955463835,0.01102359905515,0.0447804425517,-0.005378813403595,0.003767063404255,-0.0017040377747650002,0.006685368278590001,0.001446805268530001,0.009636016535445002,1.89869493246,0.6149982512000001,6.151501655580001,0.300861492753,1.0582852065539998,0.4477773308755,1028877.0,1521541466.0,512000000.0,,,,,,2105659.5,1521541467.0,326709832.0,,-1.01100001335,0.37499999403949996,-0.824001312256,-0.049000000581149984,-0.1939999982715,-0.07550000026824999,73.0,76.5,82.5,86.5,97.0,134.5,139.0,153.5,156.0,160.0,4.0,-0.00999999046150002,-0.3900000154975001,1.4199981689439998,0.02849999628965002,-0.090999998152,-0.06400000024590999,1.3571013908779752,0.21386268825300137,6.467166142456201,1.187850897326172,0.006784257148737549,0.011816945848094298
27,27,45.4876687692,4547.5,1521541467.0,423062920.0,,2601205.0,1521541466.0,597454672.0,,0.7320256080930001,-0.09904625215530001,0.0767374442668,-0.323072444384,0.945237980475,0.010624807401399998,0.04512725801530002,0.0155274005721,-0.004617491218460001,0.0151247630421,0.0179319689355,-0.0398089325699,-0.0411474261466,-0.27962654829,-0.159726470709,6.7419047355699995,0.602324068546,0.241083294153,0.450598180294,2601558.0,1521541466.0,595534761.5,,,,,,2105668.5,1521541467.0,417209793.0,,0.20900013446850002,1.2750000074505,-2.41899871826,-0.07899999991060001,-0.07699999958275,-0.032500000670550006,59.5,59.5,64.0,72.0,82.0,133.5,138.0,140.5,142.5,152.0,4.0,1.2200001478185,0.9000000134109999,-1.5949974060039995,-0.029999999329450033,0.11699999868875001,0.042999999597699984,2.7424187999191787,0.11500543450291406,6.7495913221064665,0.789907689767439,0.022162577710155486,0.059995143976395986
28,28,45.590232871800005,4560.5,1521541467.0,552824020.0,,2601218.0,1521541466.0,727441181.0,,0.7331608857955,-0.10007056908235,0.07929084877850001,-0.3230987227765,0.9451647407845,0.0093639346182,0.04672308243915,0.00207071998978,-0.007348769945585002,0.02497456361515,-0.01284445932254,-0.016834592042811004,-0.0093097535172,0.7764807790514999,0.09564436972149998,5.956563949585,0.620114862919,0.5017523169515,0.482151404023,1815228.0,1521541466.0,722745162.5,,,,,,2105681.5,1521541467.0,547712342.5,,0.1189999818804,1.764999994635,-2.30900001526,-0.07799999788405,-0.09850000217580004,-0.030499999411400008,46.5,54.0,61.5,73.0,100.0,129.0,135.0,140.5,142.5,147.0,4.0,-0.0900001525881,0.4899999871845,0.1099987029999996,0.0010000020265500118,-0.02150000259305003,0.002000001259149998,2.9087569591184077,0.12929230473094608,6.007722058417109,0.9320771465820835,0.026115534242216493,0.023131258830579846
29,29,45.6927969744,4568.5,1521541467.0,633113026.0,,2601225.5,1521541466.0,802436746.0,,0.73389295788,-0.1002623709273,0.08069729888919999,-0.3225317615005,0.945301239058,0.009287084878345002,0.047879342573150005,0.012456052812305,0.012556390238665,0.015721662393754998,0.022758783251000003,-0.03854650932265,0.004240806008995001,1.70256346464,0.165266081691,5.676191806795,0.6742367148399999,0.8943018317210001,0.5676831603050001,1815233.0,1521541466.0,800755784.5,,,,,,2105689.5,1521541467.0,627109081.0,,-0.3660001516345,0.439999991655,-2.4739990234400002,-0.05450000055135002,-0.09850000217555,-0.00300000014249,44.0,51.0,51.5,59.5,79.5,129.0,138.0,147.0,156.0,167.0,4.0,-0.48500013351490007,-1.32500000298,-0.16499900817999968,0.023499997332699987,2.500361029333931e-13,0.02749999926891001,2.539335990300408,0.11261216847896788,5.928337765040985,1.255641304016256,0.02366404141121679,0.0449642083398904
30,30,45.795361076899994,4577.5,1521541467.0,722839951.0,,2601235.0,1521541466.0,897440537.5,,0.7340019480569999,-0.1008366596245,0.0818043175682,-0.322607954559,0.945266548714,0.00886404198997,0.048130139070300004,0.0053468548443900005,-0.0033862965558650003,0.008636681639006001,-0.00376203126122,-0.013340566261,0.008474752765250004,0.3003797233105,0.1598481461405,6.327959537509999,0.8537622094155,0.4463738650085,0.6169267892835,1815240.5,1521541466.0,893769496.5,,,,,,2105698.5,1521541467.0,717750000.0,,0.6340000867845,0.2100000321865,-1.6689987182600001,-0.08250000327825,-0.08949999883769999,-0.0180000001565,35.5,38.5,43.0,62.5,67.0,130.5,134.0,150.0,158.0,160.0,4.0,1.000000238419,-0.22999995946850002,0.8050003051799999,-0.02800000272689998,0.009000003337850004,-0.01500000001401,1.7976687250755095,0.12304674046269393,6.337101176118653,1.1440097031600347,0.010707386741160672,0.01624638488423319
31,31,45.8979251795,4589.5,1521541467.0,844940066.0,,2601249.5,1521541467.0,42438326.5,,0.7342600000345001,-0.1007240571105,0.08265624547629999,-0.322611260922,0.9452403777845,0.008582456078019999,0.04866790103395,-0.011031291613205,-0.006543869863095001,-0.0013943431265300002,-0.00646114358721,0.015129420729364997,0.005372503765645,0.41899216175049997,-0.023228630424000002,6.12687420845,0.889876246452,0.415148794651,0.6269903182985,2601602.0,1521541467.0,35492462.0,,,,,,2105711.0,1521541467.0,842031084.0,,-0.8459999322890001,2.6499999702,-1.7589988708500002,-0.09399999678130001,-0.06599999964240001,-0.04500000178809999,38.0,45.5,60.0,70.5,83.0,129.0,140.0,147.5,151.5,158.0,-1.0,-1.4800000190735,2.4399999380135,-0.09000015259000027,-0.011499993503050004,0.023499999195299975,-0.027000001631599987,3.2912448640513774,0.12335720290526295,6.141228017835647,1.1650515503357495,0.012901775854322978,0.017306344061428856
32,32,46.0004892821,4597.5,1521541467.0,922851920.0,,2601257.0,1521541467.0,117441171.0,,0.7344495462334999,-0.1020220344335,0.08229286903494999,-0.3217244970645,0.9455416348000001,0.008552221882815,0.04869492896835,-0.012180986814695,-0.0006471450912985,-0.01105027573469,0.003596770339035,0.016900765780545002,0.007905286336555,-0.36123823374499997,-0.1999594569206,6.43841147423,0.8769895732399999,0.24290883541085,0.6190978884695,2601610.5,1521541467.0,120537875.0,,,,,,2105718.5,1521541467.0,919416293.5,,-0.780999994278,0.8350000023840001,-2.2840003967299998,-0.08949999883774999,-0.0485000014305,-0.0214999997988,47.0,49.5,51.0,56.0,57.5,133.0,136.0,147.0,152.0,164.0,-1.0,0.06499993801100001,-1.814999967816,-0.52500152588,0.004499997943550008,0.017499998211900014,0.023500001989299985,2.554181631620256,0.10404205842861891,6.4516369362687875,1.1006350936617122,0.016459156429223333,0.019001741838671687
33,33,46.1030533846,4610.5,1521541468.0,52888989.0,,2601270.5,1521541467.0,251930421.0,,0.7323987956189999,-0.10174018092499999,0.0811128432907,-0.322638507239,0.9453192443189999,0.00892252817351,0.04686174457105,-0.013770600658545,-0.0095595325314,-0.01011212993317,0.0009731997542300006,0.03534902238045,-0.032335725932950005,0.03474420309049997,-0.276826739311,6.393533706665,0.9658742547035,0.21813508495704997,0.6059224605560001,2601622.0,1521541467.0,234974646.0,,,,,,2105731.5,1521541468.0,48280994.0,,-0.150999999046,2.235000008345,-1.9640007019049999,-0.08650000020859999,-0.07699999958279999,-0.02900000009685,49.5,53.0,56.0,57.0,60.0,125.0,126.0,152.0,162.0,177.5,-1.0,0.629999995232,1.400000005961,0.3199996948250001,0.00299999862915,-0.028499998152299987,-0.0075000002980499985,2.979148333684876,0.11938278760967302,6.39961822779355,1.160878124263912,0.0195772642752078,0.04791763425531402
34,34,46.2056174872,4617.5,1521541468.0,122846960.5,,2601277.5,1521541467.0,321925553.0,,0.7319307790189999,-0.101731980967,0.08097609700655001,-0.3223270555015,0.945446484306,0.008974569280874999,0.0464229094024,-0.002634447035279999,8.095380930000021e-05,-0.0006544476438800004,0.001618777961799999,0.016426126114765002,-0.017950071080805,0.5634918063875001,-0.09700545668605,6.599589586255,0.8564653098585001,0.4603508263825,0.6023009121415,1815270.0,1521541467.0,324007500.0,,,,,,2105738.5,1521541468.0,117995100.5,,-1.300999975206,0.7950000107290001,-1.934000015255,-0.07349999994039999,-0.105499997735,-0.02800000086425,50.0,55.5,59.0,85.0,106.5,140.5,145.5,148.0,148.5,155.0,-1.0,-1.14999997616,-1.4399999976159998,0.03000068665,0.013000000268200002,-0.0284999981522,0.0009999992325999997,2.462718419054737,0.13159217135423296,6.624312476136535,1.143775370913603,0.0027157257629436445,0.024385305268413725
35,35,46.30818158970001,4631.5,1521541468.0,262854456.0,,2601289.0,1521541467.0,436916737.0,,0.732705380801,-0.101983743148,0.0816495055627,-0.32252314434,0.9453312888050001,0.008788435787780002,0.047437739914100004,0.0020734455005,0.0029702040357899996,-0.00970713869669,0.0252680021361,0.0030664291255399997,-0.0193420874475,-0.059120133519199994,0.239634156227,6.47864198685,0.7219824194910001,0.264454960823,0.6097603440280001,1815278.5,1521541467.0,440507929.0,,,,,,2105752.5,1521541468.0,258584181.5,,-0.510999894142,1.080000007153,-2.298999786375,-0.0929999984801,-0.06449999846519999,-0.0005000000819549997,51.0,53.5,54.0,75.0,90.0,121.5,123.0,134.5,146.0,147.0,-1.0,0.790000081064,0.284999996424,-0.3649997711199999,-0.019499998539700008,0.040999999269800004,0.027500000782295,2.5909305133515086,0.11317905954456134,6.483341863020464,0.9813270186370687,0.010360976302190027,0.03196859812939334
36,36,46.4107456923,4640.5,1521541468.0,352848052.5,,2601298.5,1521541467.0,531939168.0,,0.732602713765,-0.102643540012,0.08106937578565,-0.322050184204,0.9455173823174999,0.008754106530145,0.04694563265725,0.0048024292400765,0.0013741570127749998,0.002876083791300001,-0.00019113810542250006,-0.01421365136846,0.0052778421288100005,0.20609120279534998,0.204927913845,6.457015752789999,0.7681918740275,0.372605830431,0.6087600290774999,1815284.5,1521541467.0,531006916.5,,,,,,2105761.5,1521541468.0,348485555.5,,-0.9759999275215,0.589999997616,-4.098999023435,-0.0784999988973,-0.05700000002980001,-0.0190000003204,49.0,53.0,55.0,62.5,83.5,126.0,131.0,133.0,148.0,159.5,-1.0,-0.46500003337949997,-0.4900000095370001,-1.7999992370599998,0.014499999582800004,0.007499998435399988,-0.018500000238445,4.254699619224597,0.09885469054348663,6.46355331574829,1.0485907844318947,0.0057639823105452926,0.015163114341589297
37,37,46.513309794899996,4648.5,1521541468.0,432852029.0,,2601306.0,1521541467.0,606928096.0,,0.732263792653,-0.102236989216,0.08092711911810001,-0.321838135251,0.945600426389,0.00895683343969,0.04668857939590002,0.00335744557356,-0.00405414520825,-0.000790799839272,-0.00565280139368,-0.005579569664439999,0.0014145081388,0.242283627391,0.144997492433,6.4668960571300005,0.726574838161,0.370529592037,0.576398909092,1815290.0,1521541467.0,616006027.0,,,,,,2105769.5,1521541468.0,428135340.5,,-0.06599996089940001,2.09999998808,-2.12399864197,-0.08850000053644999,-0.0635000001639,-0.04299999959765,47.5,50.5,58.5,78.5,80.5,136.0,137.0,140.0,144.0,156.0,-1.0,0.9099999666221,1.509999990464,1.975000381465,-0.010000001639149993,-0.006500000134100001,-0.02399999927725,2.9875953835593476,0.11710465439582173,6.473057256245857,0.9987186172422324,0.00532295956539092,0.00806762632448114
38,38,46.6158738974,4661.5,1521541468.0,562947511.5,,2601319.0,1521541467.0,736924579.5,,0.7323567089815,-0.102184452694,0.08127417053889999,-0.3225460563705,0.945350953565,0.008817517601055001,0.046878792680699985,-0.0015084377370099993,0.00042339556285000014,-0.0017224636600499995,0.0006727246881524997,0.0072396833014500015,-0.004887719220475001,0.113935060799,0.1550668925045,6.434688806534999,0.7494491934774999,0.309293836355,0.5822821855545,1028926.0,1521541467.0,739000064.0,,,,,,2105782.5,1521541468.0,558576703.0,,0.023999953269999985,1.0950000077485,-3.1189994812,-0.0819999985397,-0.05900000035765,-0.05049999989569999,40.0,43.0,44.0,53.0,82.0,136.0,144.0,147.5,150.5,158.0,-1.0,0.0899999141694,-1.0049999803315,-0.9950008392299998,0.006500001996749993,0.00449999980625001,-0.007500000298049987,3.3057160765032507,0.11293914198442982,6.437565298789371,0.998193024632708,0.0023284177608989664,0.00876101432424035
39,39,46.718438,4669.5,1521541468.0,642861961.5,,2601327.5,1521541467.0,821923135.0,,0.7319731129445,-0.1024572024895,0.08073579381035001,-0.32250527454100003,0.9453953173135,0.008758481319555,0.046273838519550005,0.0006578504968330001,0.0014758087445399994,-0.001895183624255,0.01005717097464,0.0009234819629685,-0.005533537296774999,0.1839566752315,0.201443865895,6.494322299955,0.7517054378985,0.3605024516585,0.5897367000579999,1028929.0,1521541467.0,830000128.0,,,,,,2105790.5,1521541468.0,638378016.0,,0.10899999141700002,1.840000012515,-3.60899925232,-0.08500000089410001,-0.058500001206999996,-0.03000000119205,42.5,46.0,51.5,57.0,98.0,120.5,131.0,131.0,137.0,151.0,-1.0,0.08500003814700004,0.7450000047665,-0.4899997711199999,-0.003000002354400011,0.0004999991506499935,0.02049999870364999,4.052450696483602,0.10745813307860418,6.500049370978789,1.0211818929129444,0.002490481820108003,0.011516055833655435
