,Unnamed: 0,Unnamed: 0.1,.header.seq,.header.stamp.secs,.header.stamp.nsecs,.header.frame_id,.endpoint_state.header.seq,.endpoint_state.header.stamp.secs,.endpoint_state.header.stamp.nsecs,.endpoint_state.header.frame_id,.endpoint_state.pose.position.x,.endpoint_state.pose.position.y,.endpoint_state.pose.position.z,.endpoint_state.pose.orientation.x,.endpoint_state.pose.orientation.y,.endpoint_state.pose.orientation.z,.endpoint_state.pose.orientation.w,.endpoint_state.twist.linear.x,.endpoint_state.twist.linear.y,.endpoint_state.twist.linear.z,.endpoint_state.twist.angular.x,.endpoint_state.twist.angular.y,.endpoint_state.twist.angular.z,.endpoint_state.wrench.force.x,.endpoint_state.wrench.force.y,.endpoint_state.wrench.force.z,.endpoint_state.wrench.torque.x,.endpoint_state.wrench.torque.y,.endpoint_state.wrench.torque.z,.joint_state.header.seq,.joint_state.header.stamp.secs,.joint_state.header.stamp.nsecs,.joint_state.header.frame_id,.joint_state.name,.joint_state.position,.joint_state.velocity,.joint_state.effort,.wrench_stamped.header.seq,.wrench_stamped.header.stamp.secs,.wrench_stamped.header.stamp.nsecs,.wrench_stamped.header.frame_id,.wrench_stamped.wrench.force.x,.wrench_stamped.wrench.force.y,.wrench_stamped.wrench.force.z,.wrench_stamped.wrench.torque.x,.wrench_stamped.wrench.torque.y,.wrench_stamped.wrench.torque.z,.tactile_values.tactile_values_0,.tactile_values.tactile_values_1,.tactile_values.tactile_values_2,.tactile_values.tactile_values_3,.tactile_values.tactile_values_4,.tactile_values.tactile_values_5,.tactile_values.tactile_values_6,.tactile_values.tactile_values_7,.tactile_values.tactile_values_8,.tactile_values.tactile_values_9,.tag,.delta_wrench.force.x,.delta_wrench.force.y,.delta_wrench.force.z,.delta_wrench.torque.x,.delta_wrench.torque.y,.delta_wrench.torque.z,.wrench_stamped.wrench.force.magnitude,.wrench_stamped.wrench.torque.magnitude,.endpoint_state.wrench.force.magnitude,.endpoint_state.wrench.torque.magnitude,.endpoint_state.twist.linear.magnitude,.endpoint_state.twist.angular.magnitude
0,0,62.009708,6199.5,1521546007.0,656100988.0,,3055217.5,1521546006.0,722629118.0,,0.7140103157240001,-0.333152679258,0.15220005304099998,0.0057652878510000005,0.9999296280945,-0.006312933734405,-0.008222171603149999,-0.006861150472765001,-0.13305774942850002,0.0368996605449,-0.00908894769573,-0.0535295728225,0.0671338739171,4.0228407383,0.021238744258999964,7.767564535140001,0.511556699872,1.6521733999250001,0.461264103651,2132034.5,1521546006.0,714832260.5,,,,,,2559217.5,1521546007.0,653771103.5,,-1.152000021933,0.017999982834000006,2.832999420165,-0.033999999053799995,-0.1969999969005,-0.1080000028015,78.0,129.0,145.0,231.0,263.0,22.0,31.0,37.0,42.0,207.0,7.0,0.0,0.0,0.0,0.0,0.0,0.0,3.0583187807308256,0.22722015605922688,8.74750007130886,1.7900088753748196,0.13824986443796705,0.0863422327942249
1,1,62.1122721026,6212.5,1521546007.0,786121487.5,,3055230.5,1521546006.0,852617501.5,,0.7131881929445,-0.35123958871,0.1574420171415,0.002637566397005,0.9999837858685,-0.00223195972681,-0.00449298078005,-0.014727318788049996,-0.1533108654525,0.04271604304595,0.1115007405835,-0.0562495921033,0.0185300149964,3.14296877384,-3.39345693588,6.6750409603100005,1.4871117472650002,1.4129627943049998,0.5248014330865001,2132043.5,1521546006.0,850333527.5,,,,,,2559230.5,1521546007.0,783959899.0,,-0.10200006961819999,0.17299998961404994,3.547999572755,-0.0365000013262,-0.21249999851,-0.08550000190734999,86.0,130.0,130.0,214.5,246.5,33.0,38.5,42.5,48.0,193.0,7.0,1.0499999523148,0.15500000678004994,0.7150001525899996,-0.0025000022724,-0.01550000160950002,0.02250000089415001,3.5536789358182377,0.23194557505958044,8.120958964975852,2.117399761762856,0.1598304592935366,0.12625289390039107
2,2,62.2148362051,6220.5,1521546007.0,866104483.0,,3055236.0,1521546006.0,906963180.0,,0.7120826682535,-0.3611834925145001,0.1590667489,0.0020128177405750003,0.9999894506145,-0.0021524837287950002,-0.003519040250960001,-0.02444175951155,-0.194343188059,0.02425304038035,-0.0363516042315,-0.0255681597735,0.0726251554186,2.956365704535,-3.3728579282749998,6.818276882175001,1.495755076405,1.463224828245,0.5774123072625,3055589.0,1521546006.0,905014205.0,,,,,,2559238.5,1521546007.0,863301034.5,,-1.352000010013,-0.5570000201465001,2.93800086975,-0.12500000372545,-0.203499995172,-0.0835000015795,75.0,100.5,128.0,234.5,269.5,33.0,36.5,39.0,41.5,202.0,7.0,-1.2499999403948,-0.7300000097605501,-0.6099987030049996,-0.08850000239925003,0.009000003337999996,0.002000000327849999,3.281768145401212,0.2530009866189123,8.16119895758462,2.170648548052434,0.19736991746628252,0.08514448381417693
3,3,62.317400307700005,6232.5,1521546007.0,986092448.0,,3055248.0,1521546007.0,26959543.5,,0.7075197357854999,-0.3858595080175,0.1612339322675,0.0021528685168950004,0.9999505059645,-0.008482351202444999,-0.00460877588021,-0.04662963790035,-0.2155393937345,0.0054055835462,-0.15142042256750002,0.04435666188215,-0.0228202883896,4.82664012909,-0.5767967998965999,5.87924742699,0.507313400507,1.92710775137,0.5146045684814999,2132055.5,1521546007.0,26507577.5,,,,,,2559250.5,1521546007.0,983248066.5,,-1.4619999647150002,0.2429999917745,2.6829998016350003,-0.09400000050685002,-0.1974999979135,-0.07349999994039999,81.0,134.0,141.0,227.0,285.0,12.0,34.0,45.5,51.5,193.0,7.0,-0.10999995470200008,0.8000000119210001,-0.2550010681149999,0.03100000321859998,0.005999997258500006,0.010000001639100005,3.0651232974225557,0.23074769611495388,7.628545063895306,2.0581372727848706,0.22059187137251574,0.15942529092346722
4,4,62.4199644103,6240.5,1521546008.0,66085457.0,,3055255.5,1521546007.0,101976541.5,,0.7048199981365,-0.3982891989895001,0.1607901347725,0.003765810651975,0.99991421502,-0.011180456132,-0.005682056887575,-0.0530792767941,-0.1385150032875,-0.01265794345325,0.02627172506345,0.06172813664865001,-0.1040530506999,4.710244178769999,2.548380732535,6.366261482235,0.05234718322749998,2.095870494845,0.490192592144,1208514.0,1521546007.0,108000000.0,,,,,,2559258.5,1521546008.0,64541014.5,,-1.157000017168,-0.1319999933241,2.8080017089850005,-0.018000000156440002,-0.2235000059005,-0.07899999991060001,93.5,155.5,188.0,265.0,267.0,12.0,19.5,51.5,58.5,201.5,7.0,0.3049999475470002,-0.37499998509859994,0.12500190735000016,0.07600000035041002,-0.026000007987,-0.005499999970200023,3.0398925368550445,0.23773357488800395,8.31925055769937,2.1530680751305873,0.1488759191178563,0.12380470003953757
5,5,62.522528512799994,6252.5,1521546008.0,186092972.0,,3055268.0,1521546007.0,226958747.0,,0.698767866779,-0.4116013689,0.1588869719,0.003782204466635001,0.9999399298405,-0.00546819704941,-0.008666587535325001,-0.04111525115075,-0.112747425182,-0.00746000956746,0.1332513521805,0.009439244923474996,0.0509287159913,5.1587946414950006,-1.789764344695,7.67429327965,1.392763853075,1.99934512377,0.548156887293,2132070.0,1521546007.0,233508911.0,,,,,,2559270.5,1521546008.0,184370306.0,,0.3080000162122,-0.612000027299,2.99800033569,-0.013499999651705001,-0.217500001192,-0.08750000223519999,95.5,151.0,158.5,232.0,255.5,-2.0,11.0,36.5,61.5,192.0,7.0,1.4650000333802,-0.4800000339749,0.1899986267049996,0.0045000005047350035,0.006000004708500012,-0.008500002324599978,3.075290889688006,0.23482919516166648,9.418662108003462,2.497528387718936,0.12024182926547039,0.14296417843354844
6,6,62.6250926154,6260.5,1521546008.0,266085505.0,,3055276.0,1521546007.0,306959903.0,,0.6952898812795001,-0.4205534883965,0.15932043587150002,0.0034102721914599995,0.9999576262109999,0.001196595415394,-0.008445070565774999,-0.03922806717985,-0.1487354142815,0.01970519846935,0.1244616919851,-0.0413488560156,0.031913418911650004,4.085013508795,-1.4488826990149999,8.214847564694999,0.6668947339055,1.601055562495,0.6049732863899999,3055629.0,1521546007.0,305027200.0,,,,,,2559278.5,1521546008.0,263745557.0,,-1.127000045775,1.1929999798550002,2.0380012512200003,-0.19200000166900005,-0.157999999821,-0.08850000053660001,75.0,135.0,162.0,225.0,257.0,5.0,24.0,27.0,49.0,200.0,7.0,-1.4350000619872,1.805000007154,-0.9599990844699996,-0.17850000201729502,0.05950000137100001,-0.000999998301400018,2.6166442545912063,0.263932284268731,9.288181574114386,1.8368778341393817,0.15507855932679002,0.13497743134399612
7,7,62.7276567179,6271.5,1521546008.0,376092433.0,,3055289.5,1521546007.0,441959747.5,,0.688321165167,-0.4512746828165,0.162949837085,-0.001828829327325,0.9999695097105,-0.004299225914279999,-0.006232136082729999,-0.08026774185855,-0.2788692375285,0.0317438942184,-0.2071278959495,0.011264145485345,0.0956695309855,0.5937631912549999,-3.413274645805,7.522824049,1.7920087575900001,0.303926691413,0.6512489914895,2132084.5,1521546007.0,440007727.5,,,,,,2559289.5,1521546008.0,373469969.5,,-0.3720000505445,-0.7770000487565001,2.50299949646,-0.0215000007302,-0.23599999398,-0.06850000098345,73.0,119.0,148.5,232.0,249.0,8.5,28.5,33.5,85.5,180.0,7.0,0.7549999952305,-1.9700000286115005,0.4649982452399999,0.17050000093880002,-0.07799999415900002,0.019999999553150016,2.6470964456648964,0.246678935713391,8.282262988289935,1.9307490955451978,0.29192231302685095,0.22843271528607165
8,8,62.8302208205,6283.5,1521546008.0,496142983.0,,3055301.5,1521546007.0,561963322.5,,0.6797435109909999,-0.479562087708,0.16743385207400002,0.00234361997234,0.999954930111,-0.008131593899870001,-0.004254719833485,-0.08723602572540001,-0.214281275246,0.02981609770265,0.04065906313565,-0.023336974030150004,-0.144926841255,4.50093626976,1.9821621775599998,6.787852525715,-0.282430797815535,1.88916927576,0.4775560200215,2132093.5,1521546007.0,563004624.5,,,,,,2559301.5,1521546008.0,493287487.0,,-1.6970000386249997,-0.8970000237235001,1.738000106815,-0.01199999963867,-0.24200000613949998,-0.07450000196695,81.0,126.5,147.0,209.0,250.5,8.5,26.5,39.0,44.0,178.0,7.0,-1.3249999880804997,-0.119999974967,-0.7649993896450002,0.009500001091529998,-0.006000012159499996,-0.006000000983500009,2.5894135523207105,0.25349211675301003,8.38226318564658,1.9689559315254006,0.2332714915878677,0.1523205931189366
9,9,62.9327849231,6291.5,1521546008.0,576091527.0,,3055309.5,1521546007.0,641960576.0,,0.6721774590524999,-0.495764916454,0.169586889227,0.0032392844335199997,0.99995622476,-0.0077971559597,-0.004024093689209999,-0.10320970554950001,-0.220087377282,0.0219220043902,0.016416336234705,-0.012298637213495,0.012529101628880001,2.3025071024900003,-4.282864689829999,7.326481103900001,2.11648416519,1.0016257762899998,0.6225145459175,2132098.5,1521546007.0,640505370.0,,,,,,2559309.5,1521546008.0,574553821.5,,-2.07199997902,-0.5669999808075,2.5379993438749997,-0.03800000064075,-0.2249999940395,-0.0725000016391,91.5,108.5,145.0,181.0,258.0,4.0,14.0,29.0,57.5,178.0,7.0,-0.3749999403950004,0.33000004291600005,0.7999992370600002,-0.02600000100208,0.017000012100000017,0.002000000327849999,3.3250734669785142,0.23942691495348123,8.79328120067892,2.4228668508829427,0.24407226641912402,0.024036034621102872
10,10,63.035349025600006,6303.5,1521546008.0,696086048.5,,3055321.5,1521546007.0,761975097.5,,0.6616608051815001,-0.5207661681685001,0.171588747951,0.005988303027869999,0.9999378982365,-0.008559153804350001,-0.00386916051687,-0.0959560253012,-0.23447571444850002,0.009541960879575002,-0.0206839822252,0.006889545476699999,-0.03786648498264,2.32894980907,-0.12934175133705,6.096443891525,0.42435054481,0.8725580871085,0.5262486338615,2132107.0,1521546007.0,756507731.0,,,,,,2559321.5,1521546008.0,694419423.0,,-0.051999878883499995,1.8230000346900002,3.3280002593949995,-0.06599999777975,-0.2035000026225,-0.111999999732,81.0,115.0,124.5,238.0,279.0,5.5,6.5,26.0,47.5,180.5,7.0,2.0200001001365,2.3900000154975,0.7900009155199994,-0.027999997139000005,0.021499991417000014,-0.0394999980929,3.79494648716116,0.2414792966576069,6.527431702003371,1.1037973658693354,0.25353001493938815,0.04369397718803368
11,11,63.1379131282,6311.5,1521546008.0,776081561.5,,3055329.5,1521546007.0,841957793.5,,0.6548116817345,-0.5375102706939999,0.17179540218899994,0.004160487939354999,0.9999324298945,-0.010005153659035,-0.004199020909510001,-0.09291255644395,-0.2188453407415,0.00019115820726000023,-0.019040931922275003,0.017119247819200004,0.022810399601099998,2.444580078125,-1.15090960264,7.070472478865,0.923053830862,0.946959793568,0.5368399620055,2132112.5,1521546007.0,842010482.5,,,,,,2559329.5,1521546008.0,773621596.0,,0.2329998493195,0.7929999962450001,2.59800071716,-0.03600000031295,-0.192500002682,-0.11250000074549998,90.5,124.0,147.0,204.0,279.0,-7.5,-3.5,1.0,49.0,150.0,7.0,0.284999728203,-1.030000038445,-0.7299995422349999,0.029999997466800012,0.010999999940499994,-0.0005000010134999927,2.726306228249379,0.22585061705215662,7.5691575321301094,1.427220505076013,0.2377521037775978,0.03429198250795305
12,12,63.240477230799996,6324.5,1521546008.0,906084060.0,,3055340.5,1521546007.0,951960802.5,,0.644367845672,-0.5598811741025,0.17208535338000006,0.003656918166035,0.999929132717,-0.009074037205530001,-0.00677594913132,-0.1033260291895,-0.2246208659195,0.014913988341385003,0.0247862010556,0.0534074325416,0.005573413388114998,3.133502960205,-1.600387841464,7.9932639598850015,1.268219292165,1.2338750958425,0.5849044322965,3055693.0,1521546007.0,945014639.0,,,,,,2559342.5,1521546008.0,903585250.5,,-0.8519999504090001,-1.391999998688,2.833001327515,-0.028500000014900002,-0.26100000739100004,-0.0920000001788,82.0,99.5,146.5,231.0,251.5,-10.0,-6.0,11.5,37.0,158.0,7.0,-1.0849997997285,-2.1849999949330003,0.2350006103550002,0.0075000002980499985,-0.06850000470900006,0.0205000005667,3.269474641826433,0.27820361948014005,8.733404306289486,1.8635828718036458,0.2476958392116072,0.05914196944851431
13,13,63.3430413333,6335.5,1521546009.0,16083478.5,,3055351.5,1521546008.0,61959744.5,,0.6353719369705,-0.5828626896325,0.17444362087450002,0.001820671632925,0.9999628916985,-0.0043162306830550005,-0.0072140686769899985,-0.07749841871445001,-0.2166910201035,0.025227201200900003,0.117719067946,-0.02757572902105,0.05951336026965,3.2729887962349995,-4.754206895825,6.771773815154999,2.153804063795,1.1292226612565,0.605233311653,2132128.0,1521546008.0,60505778.5,,,,,,2559353.0,1521546008.5,509247424.0,,0.5929998636249999,-1.2319999724605,3.42299957275,-0.041500000283150006,-0.2215000018475,-0.08550000190734999,72.0,122.0,158.0,221.0,236.0,-5.0,-5.0,14.5,33.5,168.0,7.0,1.4449998140340001,0.1600000262275001,0.5899982452349999,-0.013000000268250008,0.039500005543500055,0.006499998271450008,3.685973256203662,0.241028527705956,8.897857015720621,2.5060572869448787,0.2315111547575329,0.13475919204159134
14,14,63.4456054359,6341.5,1521546009.0,76080441.0,,3055357.5,1521546008.0,121961851.0,,0.6312335922365,-0.5965839718,0.174943320734,0.0007107415361119997,0.9999780590625,-0.002596766093325,-0.006022860153469999,-0.07420721278060001,-0.24934735843000005,0.004555364025410002,0.0273148210782,-0.040217217804100015,0.0009973465941855,3.3361473083499997,-4.565636396405,7.160477399825,1.930670320985,1.3794910311700002,0.5782800614835,3055710.0,1521546008.0,115010669.0,,,,,,2559359.5,1521546009.0,74345217.0,,-0.6470000267029999,-1.4069999843849998,3.3280002594,-0.06150000169875,-0.23749999702,-0.05849999934435,78.0,143.5,162.5,201.0,261.0,-14.0,-9.0,1.5,6.0,188.0,7.0,-1.2399998903279998,-0.17500001192449988,-0.09499931334999978,-0.020000001415599992,-0.015999995172500003,0.027000002563,3.6706734691578795,0.2522117140751698,9.12399863878736,2.4423126791875265,0.2601952477008144,0.04862631755197418
15,15,63.548169538500005,6353.5,1521546009.0,196083545.0,,3055369.0,1521546008.0,236961092.0,,0.6226437486590001,-0.625987079286,0.174745608231,0.0031888614340399996,0.999973636768,-0.00460078383838,-0.0046249022073,-0.0729644570235,-0.272804058048,-0.004840674796359999,-0.0486035166524,-0.0367977523059,-0.09268815567500001,4.88623809814,0.6081851124759999,7.412241935730001,0.186969101429,2.0831508636500002,0.522883534431,2132140.0,1521546008.0,239007902.0,,,,,,2559371.5,1521546009.0,194246043.0,,-1.4170001268349999,-0.947000005839,3.4630004882850005,-0.061499999836099994,-0.2549999952315,-0.07199999690060001,82.0,109.0,119.5,219.5,259.0,-16.5,-6.0,7.0,26.0,156.0,7.0,-0.7700001001320002,0.4599999785459998,0.13500022888500052,1.862649992578902e-09,-0.017499998211500032,-0.013499997556250013,3.8596723633453167,0.2720133215517059,8.898682059526944,2.1558947460843174,0.2824345910271524,0.11093904005434484
16,16,63.650733641,6364.5,1521546009.0,306086540.0,,3055381.5,1521546008.0,361966294.5,,0.610373511836,-0.65689536376,0.1749148345755,0.001808312856095,0.9999585017354999,-0.006528491627865,-0.0060731748823,-0.11019870302575,-0.249871127235,-0.007434740731009999,0.0098714074786,0.005749047113299998,0.0025245894034500037,1.0608312487579998,-2.24353814125,7.8919701576199985,1.6770169138900002,0.419821113348,0.6587440669539999,3055734.5,1521546008.0,360026377.0,,,,,,2559382.0,1521546009.0,299890339.0,,-1.4070000171700001,-1.77200005352,3.1430007934599997,-0.052999999374199996,-0.21899999678100002,-0.07199999690060001,88.0,93.0,125.0,210.0,251.0,-15.0,-6.5,-4.5,2.0,164.5,7.0,0.0100001096650002,-0.8250000476809999,-0.31999969482500035,0.008500000461899998,0.03599999845050003,0.0,3.872736400231941,0.23654597455342508,8.272969194814495,1.8500214167498144,0.27319335596603433,0.011699135864477987
17,17,63.753297743599994,6373.5,1521546009.0,396082043.0,,3055391.5,1521546008.0,461971769.5,,0.5986467564769999,-0.6790480980829999,0.17485363587299999,0.0008916462066765,0.999983500119,-0.0015758748627249998,-0.0054329952747799995,-0.15930071707350002,-0.2374671099285,-0.0072149791181405,0.112905346838,0.033354474238450005,0.0375706195948,1.6211861372,-4.20434653759,7.870980739595,1.6385319232900002,0.9706499278545,0.5304334759715,2132156.0,1521546008.0,460013481.0,,,,,,2559391.0,1521546009.0,389323343.0,,0.6629999160769999,0.24799998700599998,3.32300109863,-0.101000003517,-0.300000011921,-0.052999999374199996,91.0,100.5,137.0,174.0,243.5,-15.0,-10.5,-3.0,0.0,170.0,7.0,2.069999933247,2.020000040526,0.18000030516999965,-0.0480000041428,-0.08100001514000002,0.018999997526400005,3.39755929805048,0.320951721909541,9.069570668045426,1.9769440605428321,0.2860409108529771,0.12357867839182321
18,18,63.8558618462,6385.5,1521546009.0,516086458.5,,3055403.5,1521546008.0,581965104.0,,0.5778120358954999,-0.7081146406334999,0.1763068529505,-0.0015081525594599998,0.999950040873,0.0003304187909655,-0.00987455296034,-0.1680212780405,-0.262558541943,0.02162817153435,-0.05690787756575,0.02846128638455,0.07050627966860001,2.24837082624,-4.556944608685001,6.94043087959,1.819682359695,0.738853394985,0.537029236555,3055756.5,1521546008.0,580022124.5,,,,,,2559403.0,1521546009.0,509104518.0,,1.2330000877399998,0.007999977469499986,0.5080005645745,-0.113499995321,-0.147999998182,-0.06900000199675001,76.5,87.0,93.0,115.5,125.5,-26.5,-25.5,6.0,30.5,97.0,7.0,0.5700001716629999,-0.24000000953650005,-2.8150005340555,-0.012499991803999994,0.15200001373900002,-0.016000002622550004,1.333573316175144,0.19886490056138748,8.601772859897945,2.0360620399145186,0.3124674633070079,0.09497203180099183
19,19,63.9584259487,6396.5,1521546009.0,626086950.0,,3055414.5,1521546008.0,691963043.5,,0.5628695677885001,-0.737889690739,0.1791258820025,0.0008101888836420001,0.99996175306,-0.00529870646408,-0.006896850645270001,-0.129499693639,-0.26194830661650004,0.04017392084445,-0.0968553121993,-0.091620926203,-0.06528219509165001,0.19207517802700005,-4.156335115435,6.1954214572899975,2.029036164285,0.0650499984623,0.6814280748370001,3055767.0,1521546008.0,685010076.0,,,,,,2559414.5,1521546009.0,624869381.0,,-0.4570000886915001,-2.5019999533900004,0.4229995727535,-0.07000000029799999,-0.146000005305,-0.0794999971986,45.5,50.0,56.0,62.5,82.0,-31.5,-29.5,-24.5,-11.5,-6.0,7.0,-1.6900001764315,-2.5099999308595,-0.08500099182100007,0.043499995023,0.0019999928769999786,-0.010499995201849991,2.5783292044223614,0.18037807833924122,7.462925800198036,2.14139288302086,0.2949593699272205,0.14844901688965034
20,20,64.0609900513,6403.5,1521546009.0,696099519.5,,3055421.5,1521546008.0,761962495.5,,0.553492851726,-0.7546839812635,0.1810097251725,0.00294840407064,0.999950365751,-0.008142163337830001,-0.00490003293591,-0.140447383422,-0.2289480564385,0.0264773871602,-0.029485613336750007,-0.058032269359300004,-0.10320798397185002,1.8668893575655003,-2.642344951625,6.228145599365,1.58986186981,0.9574079364565,0.610947072506,2132177.0,1521546008.0,761507146.5,,,,,,2559421.0,1521546009.0,689892469.0,,0.263000059128,-1.20200000107,0.972998809814,-0.0640000030398,-0.152999997139,-0.0680000036955,46.0,49.0,55.0,57.0,70.0,-35.0,-33.0,-29.5,-24.5,-10.0,7.0,0.7200001478195002,1.2999999523200003,0.5499992370605,0.005999997258199996,-0.00699999183399999,0.011499993503100006,1.5686617600914075,0.1792456415543107,7.018337433014963,1.953854407899753,0.2698957800483068,0.1220206279133505
21,21,64.1635541538,6416.5,1521546009.0,826076984.0,,3055432.0,1521546008.0,867214704.5,,0.5347246627889999,-0.775391953082,0.18206629177099998,0.01856709046765,0.9997121838355,-0.01271601132,-0.008186622597494999,-0.183943614933,-0.15688795977499995,0.007677708716449998,-0.05748037509635,0.144056767682,-0.312518069209,7.01414394379,2.88523089886,4.882074117659999,-0.7843781709675001,2.5985203981400002,0.317758977413,1208584.0,1521546008.0,876000000.0,,,,,,2559434.0,1521546009.0,820438363.0,,-0.23200006484949998,-0.5819999963045001,1.098000717165,-0.08300000056625001,-0.1780000030995,-0.07999999821190001,49.0,51.5,58.0,70.0,86.0,-47.5,-44.0,-41.0,-40.0,-31.0,7.0,-0.4950001239775,0.6200000047655,0.12500190735099992,-0.018999997526450013,-0.025000005960500005,-0.01199999451640002,1.2641809999693336,0.21206838734550587,9.019834826329587,2.7328607982051594,0.2418843372525729,0.3488895088969058
22,22,64.2661182564,6424.5,1521546009.0,907250403.5,,3055439.5,1521546008.0,942210011.5,,0.524241022733,-0.783896305826,0.1818637753335,0.030154018446150007,0.999362714009,-0.014536602436599997,-0.012222966321450002,-0.1200428549905,-0.0958440219772,0.00214542695582,-0.014780465997799997,0.05096205151265,-0.3874742659205,7.434164762495,0.5695846974865,5.4377777576450015,0.44455419108275,2.35683476925,0.2856556773185,2132189.5,1521546008.0,947665002.5,,,,,,2559442.0,1521546009.0,900094164.0,,-0.127000045776,-1.44200001061,0.472998809814,-0.0769999995828,-0.15000000596,-0.07199999690060001,51.5,52.0,54.5,65.5,82.0,-47.0,-45.5,-42.0,-39.0,-37.0,7.0,0.1050000190735,-0.8600000143054999,-0.6250019073509999,0.006000000983450007,0.027999997139500018,0.008000001311300006,1.5228988529484835,0.18333848825993315,9.228253322545488,2.4153462949107793,0.15362606041898935,0.39109065396672477
23,23,64.36868235899999,6437.5,1521546010.0,36108016.5,,3055452.0,1521546009.0,67209121.0,,0.52183224003,-0.787265471727,0.180625736114,0.034848321490800006,0.999235608655,-0.0141935732782,-0.0105988377915,0.018118592861400003,0.0033456181088400002,-0.0110250018588,-0.0026008013131900002,-0.032110507734599995,0.0069866858952,6.9181957244899985,-0.424794316292,6.5031375885000005,0.6335997581480001,2.5284357070900003,0.312496632338,3055806.0,1521546009.0,75275545.0,,,,,,2559455.5,1521546010.0,34964604.0,,0.39300005435950003,-0.057000005244999985,0.5030014038085,-0.04999999888244999,-0.15549999475499998,-0.12299999967199995,54.0,57.5,58.0,73.0,101.0,-47.0,-40.0,-33.5,-31.5,-26.5,7.0,0.5200001001354999,1.385000005365,0.030002593994500008,0.027000000700350017,-0.005499988794999994,-0.05100000277139996,0.6408653958186709,0.20447309890634027,9.504350624238738,2.6252790182446333,0.02147154474633618,0.032964566647275734
24,24,64.4712464615,6447.5,1521546010.0,136096000.5,,3055462.5,1521546009.0,172212041.0,,0.526976291633,-0.7816668223005,0.1803207346505,0.030739405172700008,0.999401212026,-0.01231513260815,-0.00993628653501,0.08810783017115001,0.06942914794159999,0.00329835027712,0.048239577121199986,-0.0800127726955,0.10095402727205,5.00821948051,-1.216115653516,5.889265060424999,0.9808301925665,1.611743807795,0.4676385223865,3055815.5,1521546009.0,170285100.5,,,,,,2559465.0,1521546010.0,129318197.0,,0.403000164032,-0.0120000034571,0.523001861572,-0.06599999964240001,-0.163000002503,-0.101999998093,37.0,44.0,46.0,56.0,70.5,-48.0,-35.0,-35.0,-33.0,-27.0,7.0,0.010000109672500037,0.04500000178789999,0.02000045776350001,-0.016000000759950027,-0.007500007748000027,0.021000001578999963,0.6603666250656274,0.2032953525778364,7.825895642009876,1.9438188589051688,0.11222421947117907,0.1375529578660516
25,25,64.5738105641,6454.5,1521546010.0,206229925.0,,3055469.0,1521546009.0,237251041.0,,0.5335942167719999,-0.7765712195919999,0.18100854502500002,0.0261224508971,0.9995635738040001,-0.0115138413536,-0.0075967716600099985,0.07120575094489999,0.0810732975227,-0.0152131037185,0.0253802146888,0.0127046539396,0.156451324142,4.39003372192,-1.93989348412,6.19397258759,1.2753582000700001,1.6121983528100001,0.494424521923,3055823.0,1521546009.0,245275690.0,,,,,,2559472.0,1521546010.0,200481082.0,,-0.11199994087249998,-0.9470000058429999,0.6980010986325,-0.0375000014901,-0.1829999983315,-0.10349999740730001,41.0,43.0,43.5,47.0,101.0,-47.5,-46.0,-35.0,-33.0,-21.0,7.0,-0.5150001049045,-0.9350000023859,0.17499923706050002,0.02849999815230001,-0.019999995828499983,-0.0014999993142999909,1.181760775924748,0.21355912287794593,7.835871312441416,2.114279469504411,0.10897053300585988,0.15900496959265056
26,26,64.6763746667,6467.5,1521546010.0,336099505.0,,3055484.5,1521546009.0,392212387.0,,0.5455693348735,-0.7643978169525001,0.18101523228350005,0.014390608018050003,0.9998182823535,-0.010265573371649999,-0.00707322721593,0.0924501919795,0.1064501837245,0.0008559853572750005,0.0638847804009,-0.02712638469271501,0.181203005977,2.93607330322,-2.2940095663099997,6.276059627535,1.4146884679750005,0.8370622098445,0.5839562714100001,3055838.0,1521546009.0,395264983.0,,,,,,2559485.5,1521546010.0,335018197.5,,0.21799998283377495,-0.4770000070335,0.4330017089845,-0.040500000119200005,-0.16849999874850002,-0.1180000007155,35.5,44.0,51.0,52.5,60.0,-53.5,-44.0,-37.5,-35.0,-8.0,7.0,0.32999992370627496,0.4699999988095001,-0.264999389648,-0.002999998629100005,0.014499999582999969,-0.014500003308200003,0.6801054912357221,0.20965805435698795,7.298762277302759,1.7444258457986344,0.1409943698271604,0.19404029295089484
27,27,64.7789387692,6476.5,1521546010.0,426115989.0,,3055494.0,1521546009.0,487209386.0,,0.554144420126,-0.755974456121,0.18104031006700005,0.00720437856059,0.999926039937,-0.008405010657149999,-0.00503660417577,0.07699703333380001,0.0779838498114,0.0143226820658,0.0135201312905,-0.0294765677122,0.172559871007,0.0180408209562,-2.81610584259,6.03607606888,1.67546570301,-0.27573275566100003,0.628463506699,3055847.0,1521546009.0,485266738.5,,,,,,2559494.0,1521546010.0,420703289.5,,0.443000125885,0.4879999667415,1.053000640869,-0.05350000038745,-0.15950000286099994,-0.10350000113275001,34.0,38.5,40.5,45.0,48.0,-55.0,-43.0,-35.0,-28.5,-7.0,7.0,0.225000143051225,0.964999973775,0.6199989318845001,-0.013000000268249995,0.008999995887500084,0.01449999958275,1.2422573923081945,0.19752152082392285,6.66070506006655,1.8105745645401092,0.1105222294163997,0.17558066828713445
28,28,64.88150287180001,6486.5,1521546010.0,526104569.0,,3055503.5,1521546009.0,582208489.5,,0.562046703017,-0.747850336716,0.182139404021,0.0028879018025750004,0.999987602949,-0.004024222774634999,-0.0003844953498855,0.09201649680655,0.08876869875240001,0.00814503446526,0.11406952598200001,-0.13693873056699998,0.0664335503063,0.21673630178000008,-3.28922021389,5.96993088722,1.6282945275299998,0.03851188719250001,0.6530256569389999,3055857.5,1521546009.0,590273912.5,,,,,,2559504.0,1521546010.0,519535725.5,,1.1679997921,0.08799999803300003,1.037999343874,-0.04099999926985,-0.159000001848,-0.07049999758605001,39.0,41.0,42.0,45.5,54.0,-52.5,-49.0,-43.0,-33.0,-26.0,7.0,0.724999666215,-0.3999999687085,-0.015001296994999969,0.012500001117600005,0.0005000010129999344,0.03300000354669999,1.5650591528380984,0.17869597137995238,6.819532171502326,1.754784528784057,0.12811424256960832,0.19020380988129362
29,29,64.9840669744,6499.5,1521546010.0,656643032.5,,3055517.0,1521546009.0,717213597.0,,0.564202723196,-0.74493494956,0.182257622197,-0.0008840238934510002,0.9999923568619999,-0.0037703071598400003,-0.000538055839993,-0.00225004925181,-0.014612085952899999,0.000407793578811,-0.0190454357327,-0.00693072032076,0.0009686826332680001,-0.014731928706200001,-2.5440998077400003,5.6600561142,1.3224265575399998,-0.085090123117,0.665127038956,2132243.5,1521546009.0,716634131.0,,,,,,2559516.5,1521546010.0,646591591.0,,1.543000030515,0.13299999237035,1.4230014801,-0.0410000011325,-0.1569999977945,-0.07100000232455,50.0,53.0,56.0,63.0,74.5,-46.0,-44.0,-43.0,-36.0,-27.0,7.0,0.375000238415,0.04499999433734998,0.3850021362259999,-1.862649999517796e-09,0.002000004053500009,-0.0005000047384999956,2.103205007721928,0.1771186035695407,6.205553647931739,1.4827158551420219,0.014789931478320908,0.020290437463420956
30,30,65.08663107689999,6508.5,1521546010.0,746130585.0,,3055525.5,1521546009.0,802209393.0,,0.5626575317425,-0.7468076269889999,0.182019607855,-0.0007512562211779999,0.999983860031,-0.005354974714484999,-0.001605014406875,-0.027975006652950003,-0.0203645407924,-0.009872344219625,-0.025290795819246502,0.0457949939374,0.01112411081425,1.547099888325,-2.516451597215,5.937038898465,1.36278551817,0.4495939314365,0.533326983452,2132249.5,1521546009.0,807157267.0,,,,,,2559525.5,1521546010.0,737467565.5,,1.4930000782,0.717999985814,0.24800224304195004,-0.0360000003129,-0.1655000001195,-0.07550000026824999,48.5,49.5,52.0,55.5,63.0,-57.0,-54.0,-48.0,-46.0,-25.0,0.0,-0.049999952315000096,0.5849999934436501,-1.17499923705805,0.0050000008195999965,-0.008500002325000006,-0.004499997943699985,1.6751353156351128,0.18543597305428375,6.6313254774191,1.5309332914913092,0.03598303349230973,0.05348412534860258
31,31,65.1891951795,6519.5,1521546010.0,856086492.0,,3055536.0,1521546009.0,907209648.5,,0.561007607856,-0.7481208324009999,0.1817555206975,0.0008445526225580001,0.9999859128470001,-0.00488805320683,-0.001819857091945,-0.013494680911700002,-0.018784355791,0.00013930606094499998,-0.0064172817682250005,-0.0024361368687300005,-0.034747073465699996,2.1625028848600003,-2.44871222973,6.0834338665,1.335542202,0.719205290079,0.5282222628595,3055889.0,1521546009.0,905288654.0,,,,,,2559536.5,1521546010.0,847330557.5,,1.063000011442,0.5179999902845,0.6479999542235,-0.03749999962745,-0.15950000286100002,-0.0594999995083,38.0,39.5,46.0,53.5,67.0,-44.5,-40.0,-38.0,-36.0,-33.5,-1.0,-0.430000066758,-0.1999999955295001,0.3999977111815499,-0.001499999314549992,0.005999997258499978,0.016000000759949985,1.3484053377727678,0.17431795898932922,6.905126929980088,1.606221647712743,0.02312958801124853,0.03541857397703543
32,32,65.2917592821,6527.5,1521546010.0,936094998.5,,3055543.0,1521546009.0,977294703.0,,0.559369678403,-0.750472979152,0.182228838072,0.00288597706922,0.99997750677,-0.00578174312197,-0.0017968131381300005,-0.00677009086311,0.005442869253369999,0.004730149784539999,0.0028601251486500005,0.013173385274200002,0.0204233298992,1.8785265684099999,-2.02859663963,5.73200798035,1.1647516489,0.632694661617,0.5052041411399999,3055895.0,1521546009.0,965376164.5,,,,,,2559545.0,1521546010.0,930640361.0,,0.582999992371,-0.27199999391999996,-0.0869987487793,-0.0289999991655,-0.167999997735,-0.046999998390699994,26.5,30.5,38.0,52.0,55.0,-54.0,-40.0,-34.0,-26.0,-20.0,-1.0,-0.480000019071,-0.7899999842045,-0.7349987030028,0.008500000461949994,-0.008499994873999966,0.012500001117600005,0.6491854666320171,0.17684456180297092,6.363959607142118,1.4185133635884168,0.00989107036615501,0.024471019586850204
33,33,65.3943233846,6538.5,1521546011.0,46091913.5,,3055550.5,1521546010.0,52314106.5,,0.558220258681,-0.750712606743,0.181840674095,0.00251181026392,0.999979376244,-0.005421778243600001,-0.002293700944315,-0.022042638248750003,-0.017335282463249998,0.0014691317605099998,0.000910386188315,0.004300909236650002,-0.005678500833649999,2.0246052742,-2.01064324379,5.717165231705001,1.16814750433,0.7160689532754999,0.5604316294195,3055906.0,1521546010.0,75381199.0,,,,,,2559556.0,1521546011.0,40301380.0,,1.0129998207100002,-0.19200001061,-0.456997680664,-0.0120000001043,-0.184000000358,-0.0480000004172,37.0,43.0,47.0,48.0,55.5,-54.5,-50.0,-43.5,-38.5,-37.0,-1.0,0.4299998283390002,0.07999998331000002,-0.3699989318847,0.0169999990612,-0.016000002622999998,-0.0010000020264999963,1.1277763612370175,0.1905360862784223,6.389655002950732,1.4803401463755799,0.028081101601889813,0.007181364424086814
34,34,65.4968874872,6548.5,1521546011.0,146111487.5,,3055561.0,1521546010.0,157300972.0,,0.556264951902,-0.750750892894,0.18067399188799999,0.00263902019106,0.9999824548280001,-0.00413957710065,-0.00331504306444,-0.0327471035937,-0.012574161850499999,-0.0251253817942,0.028290208983900007,0.0277519348692,-0.043179423779600004,2.3046913147,-2.5411748886099996,6.03061532974,1.37610960007,0.798184633255,0.531027853489,3055917.0,1521546010.0,185395407.0,,,,,,2559566.0,1521546011.0,141860011.0,,0.6230000734325,0.3179999910295,0.5680000305174999,-0.049999998882400004,-0.170000001788,-0.03800000064075,26.5,29.0,43.0,64.0,81.0,-59.5,-55.0,-49.5,-33.0,-28.0,-1.0,-0.3899997472775002,0.5100000016395,1.0249977111814998,-0.0379999987781,0.013999998569999977,0.009999999776449995,0.9010422412182146,0.1812291382334999,6.9381188463336905,1.6771305618079855,0.04314819985032291,0.05860860390143534
35,35,65.5994515897,6560.5,1521546011.0,266088485.5,,3055576.5,1521546010.0,312303106.0,,0.5541871193344999,-0.750531146168,0.17927388645349998,0.0025899696845900003,0.9999764431005,-0.003656622031325,-0.005157063773704999,0.0045649781293,0.01070480907505,-0.00743059311944,0.0063951329847150035,-0.00236664137345,0.031551706782099995,2.815797448155,-2.6823389530200004,6.2306857109100005,1.417190611365,0.9814470112345,0.505644008517,3055929.0,1521546010.0,305394124.5,,,,,,2559577.5,1521546011.0,257661976.0,,-0.772000026703,0.9229999840245,0.7030002593995001,-0.0414999984205,-0.1834999993445,-0.0950000025332,32.0,35.5,43.0,49.5,54.5,-53.5,-50.5,-38.0,-24.0,-18.5,-1.0,-1.3950001001355001,0.6049999929949998,0.13500022888200014,0.008500000461899998,-0.0134999975565,-0.05700000189245,1.3936005081996865,0.21075934169009214,7.344732939737339,1.796480817640805,0.01380745004557066,0.03228016292007105
36,36,65.7020156923,6568.5,1521546011.0,346067070.5,,3055584.0,1521546010.0,387302211.0,,0.554077518693,-0.7501601340790001,0.17938840636349998,0.002580900095285,0.99997796256,-0.003330477208285,-0.005116372543964999,0.004569170130035,0.0063707477009600005,-0.0040080987415,0.0067319207704000005,-0.002247689922505,0.0069900352674899975,2.391602277755,-2.78353583813,6.193531036375001,1.4194124341,0.7996918857095001,0.5207550525664999,1208644.0,1521546010.0,391000064.0,,,,,,2559586.0,1521546011.0,340900903.0,,0.0430000305176,1.07799997032,1.27300186157,-0.0460000000894,-0.156000003219,-0.097999997437,26.0,29.0,30.5,43.0,46.0,-49.0,-45.0,-42.0,-37.0,-27.0,-1.0,0.8150000572206001,0.15499998629550016,0.5700016021705,-0.0045000016689000005,0.0274999961255,-0.002999994903799999,1.6686721302266427,0.18988417656614998,7.199142998694871,1.7103872646043763,0.008805032508066343,0.009961498897627175
37,37,65.8045797949,6577.5,1521546011.0,436084031.5,,3055595.5,1521546010.0,502300941.0,,0.554456317676,-0.7501115581315,0.1792438193945,0.00243083649304,0.999979593599,-0.003360750343395,-0.004856614196505,-0.010541426603665,-0.0026916253140799986,-0.0041341855868315,-0.0025914776845249988,0.01331971723936,0.01152779913768,1.291316449645,-1.63806390762,5.571335554119999,0.949647784234,0.41339866817,0.514386832714,2132298.5,1521546010.0,498675050.0,,,,,,2559595.0,1521546011.0,430295124.0,,-0.9769999504090001,-0.07200000584130001,1.33299942017,-0.054999999702,-0.16099999845000001,-0.0780000016093,25.5,27.5,31.0,33.0,48.0,-53.0,-44.5,-40.5,-36.0,-18.0,-1.0,-1.0199999809266,-1.1499999761613,0.05999755859999989,-0.0089999996126,-0.004999995230999975,0.0199999958277,1.6542673176103952,0.1871630297873242,5.9489941498687555,1.1564269050029994,0.011638643053991206,0.01780507727825383
38,38,65.9071438974,6589.5,1521546011.0,556096434.0,,3055607.5,1521546010.0,622299029.0,,0.553686159911,-0.750166727056,0.17909932313299998,0.0029209737752849997,0.9999755372635,-0.0032632274398649995,-0.0054319404839999995,-0.0017715345206500003,-0.0013915111242999991,-1.1234217049999225e-06,0.0021109501398499987,0.004646071300850003,-0.0006542190607000017,1.3734544515600002,-1.751871943475,5.794932365419999,1.03333377838,0.409126996994,0.5203047692775,2132306.5,1521546010.0,622674169.5,,,,,,2559607.0,1521546011.0,552120086.0,,-0.6620000123980001,0.2979999933395,0.883000564577,-0.05650000087915,-0.1555000022055,-0.07149999961254999,23.5,28.0,30.0,34.0,47.0,-58.5,-52.0,-46.0,-44.5,-37.5,-1.0,0.3149999380109999,0.3699999991808,-0.4499988555929999,-0.0015000011771500038,0.005499996244499983,0.006500001996750007,1.1431264188568975,0.1802352649451519,6.207791358980832,1.2271432883503572,0.0022526959468560336,0.0051449092902497275
39,39,66.00970799999999,6599.5,1521546011.0,656082987.5,,3055617.5,1521546010.0,722313736.0,,0.5532519413670001,-0.750314260648,0.17885490253999994,0.0028280228253950005,0.999972183437,-0.0035221214412900002,-0.005921078570670001,-0.0036634987591319997,-0.0045394722768,-0.0047624502660935,0.0011144986461650002,-0.005310529774325,-0.01806602206125,1.854145884515,-2.626199245455,6.159899950025,1.3977166414250002,0.5475990474225,0.533719241619,3055970.5,1521546010.0,720394436.0,,,,,,2559616.5,1521546011.0,647563349.0,,-0.7770000219345001,0.06799998730399999,1.308001708985,-0.05000000074505,-0.1490000039335,-0.058500001206999996,26.5,27.0,30.5,38.0,43.5,-61.0,-54.5,-51.0,-48.0,-46.0,-1.0,-0.11500000953650005,-0.23000000603550005,0.425001144408,0.006500000134100001,0.0064999982720000135,0.012999998405549988,1.522899045592727,0.16769988487744114,6.948319712866581,1.5932145980152117,0.007530535455531136,0.018863323854344114
