,Unnamed: 0,Unnamed: 0.1,.header.seq,.header.stamp.secs,.header.stamp.nsecs,.header.frame_id,.endpoint_state.header.seq,.endpoint_state.header.stamp.secs,.endpoint_state.header.stamp.nsecs,.endpoint_state.header.frame_id,.endpoint_state.pose.position.x,.endpoint_state.pose.position.y,.endpoint_state.pose.position.z,.endpoint_state.pose.orientation.x,.endpoint_state.pose.orientation.y,.endpoint_state.pose.orientation.z,.endpoint_state.pose.orientation.w,.endpoint_state.twist.linear.x,.endpoint_state.twist.linear.y,.endpoint_state.twist.linear.z,.endpoint_state.twist.angular.x,.endpoint_state.twist.angular.y,.endpoint_state.twist.angular.z,.endpoint_state.wrench.force.x,.endpoint_state.wrench.force.y,.endpoint_state.wrench.force.z,.endpoint_state.wrench.torque.x,.endpoint_state.wrench.torque.y,.endpoint_state.wrench.torque.z,.joint_state.header.seq,.joint_state.header.stamp.secs,.joint_state.header.stamp.nsecs,.joint_state.header.frame_id,.joint_state.name,.joint_state.position,.joint_state.velocity,.joint_state.effort,.wrench_stamped.header.seq,.wrench_stamped.header.stamp.secs,.wrench_stamped.header.stamp.nsecs,.wrench_stamped.header.frame_id,.wrench_stamped.wrench.force.x,.wrench_stamped.wrench.force.y,.wrench_stamped.wrench.force.z,.wrench_stamped.wrench.torque.x,.wrench_stamped.wrench.torque.y,.wrench_stamped.wrench.torque.z,.tactile_values.tactile_values_0,.tactile_values.tactile_values_1,.tactile_values.tactile_values_2,.tactile_values.tactile_values_3,.tactile_values.tactile_values_4,.tactile_values.tactile_values_5,.tactile_values.tactile_values_6,.tactile_values.tactile_values_7,.tactile_values.tactile_values_8,.tactile_values.tactile_values_9,.tag,.delta_wrench.force.x,.delta_wrench.force.y,.delta_wrench.force.z,.delta_wrench.torque.x,.delta_wrench.torque.y,.delta_wrench.torque.z,.wrench_stamped.wrench.force.magnitude,.wrench_stamped.wrench.torque.magnitude,.endpoint_state.wrench.force.magnitude,.endpoint_state.wrench.torque.magnitude,.endpoint_state.twist.linear.magnitude,.endpoint_state.twist.angular.magnitude
0,0,63.99069300000001,6399.5,1521545860.0,656081557.0,,3040517.5,1521545859.0,722151186.5,,0.7114572979154999,-0.3697612369400001,0.1573413682245,0.00436868869516,0.999943134676,-0.008379017479195,-0.004924935243275001,-0.0314950709119,-0.154064804808,0.010521359918805002,0.017985789160499997,0.012467980173085,-0.0289281893908,4.07639038563,-0.6992700994015,7.224476575850001,0.8883824050425001,1.79665386677,0.4883776307105001,3040870.5,1521545859.0,720245569.5,,,,,,2544532.5,1521545860.0,652412742.5,,0.22699999809250004,-2.30200006664,0.14700012207015,0.013500000815815,-0.251000002027,-0.04649999924005,117.0,227.0,239.0,266.5,402.5,74.0,84.0,152.5,164.0,256.0,7.0,0.0,0.0,0.0,0.0,0.0,0.0,2.317831387705585,0.2556276608055272,8.32460203511129,2.062935075262208,0.1576026731588452,0.0362736720329276
1,1,64.0932571026,6406.5,1521545860.0,726119518.0,,3040524.5,1521545859.0,792151281.5,,0.7094459596764999,-0.377450124707,0.15738192817,0.006414178250015,0.999929015789,-0.008002033591069999,-0.006044903103140001,-0.02910415494385,-0.111811885887,-0.010371621938095,0.0009040888191350002,0.0274917529946,-0.05539789814765,3.9805307388349997,0.6977759599705,6.525801181795,0.4688412696125001,1.5189920663849998,0.554237127304,1202686.0,1521545859.0,787000064.0,,,,,,2544539.5,1521545860.0,721572991.5,,-0.25300002098105,0.5779999881979999,0.2820003509525,-0.0489999987185,-0.19849999994000006,-0.0654999986291,149.0,223.0,238.0,262.0,426.0,83.0,94.0,113.0,150.0,255.0,7.0,-0.4800000190735501,2.8800000548380003,0.13500022888234994,-0.062499999534315,0.05250000208699998,-0.01899999938905,0.6910985421129413,0.2146939674769767,7.675779915906922,1.6835462058151607,0.11600224222932035,0.06185095778147971
2,2,64.1958212051,6420.5,1521545860.0,866151570.5,,3040538.5,1521545859.0,932150934.5,,0.707025780865,-0.387085887386,0.1569665124365,0.0074613929520749986,0.999934921138,-0.005429592691819999,-0.006690543049684999,-0.0128360542096,-0.07682626234835001,0.0030457396843575004,0.004741774177479999,0.01263912968255,0.06363646189109999,6.119302272800001,2.158726811405,6.9876425266250015,-0.424276635051,2.4489569664,0.44958381354800003,2121791.5,1521545859.0,932119622.0,,,,,,2544553.5,1521545860.0,861734226.0,,0.11199998855605,0.7779999762775,1.477001953125,-0.06900000199675001,-0.222000002861,-0.05700000002980001,139.0,189.0,223.0,260.0,406.0,82.0,105.0,156.0,186.0,251.0,7.0,0.3650000095371,0.19999998807950006,1.1950016021725,-0.02000000327825001,-0.023500002920999963,0.008499998599299986,1.6731296214159292,0.2393616543,9.535885372217532,2.5257724544649016,0.0779507242064765,0.06505252726451105
3,3,64.2983853077,6427.5,1521545860.0,936085581.0,,3040544.5,1521545859.0,992261592.5,,0.7055313431269999,-0.3918619612635,0.15733483634749998,0.00353013705074,0.9999535713255,-0.005089330651115,-0.00735620835094,-0.026653037254750003,-0.0933617839033,0.005705706008105,0.03817150765852999,0.01686559211205,0.1381085443515,2.00479668379,-1.88940513134,7.50344014168,1.60273140669,0.879810869695,0.6782096028325001,1202694.0,1521545859.0,988999936.0,,,,,,2544560.5,1521545860.0,930813622.5,,-1.023000001907,-0.7670000329610001,0.14200096130349998,-0.0024999999441099995,-0.23499999940400002,-0.09800000116239999,132.0,171.0,220.0,262.0,398.0,84.0,98.0,149.0,163.5,268.0,7.0,-1.13499999046305,-1.5450000092385,-1.3350009918215,0.06650000205264,-0.012999996542999992,-0.04100000113259999,1.2864611643866344,0.2546276692494964,7.993164295411678,1.9500726637226102,0.09725925235966243,0.1442757159646262
4,4,64.4009494103,6439.5,1521545861.0,56126475.0,,3040555.0,1521545860.0,97258670.0,,0.702456708456,-0.40212835045699996,0.15798485275000002,0.00039778738607,0.9999736611040001,0.00046841735205000004,-0.00723183570445,-0.0354243332398,-0.131611147332,0.012612158311100002,0.0756298082658,-0.00965097599023,0.110297643105,5.18560218811,-2.81611633301,6.458205223080001,1.1733648776999999,2.02505898476,0.645426869392,2121804.0,1521545860.0,107170018.5,,,,,,2544572.5,1521545861.0,52701233.5,,-0.8680000305175001,0.06299994289885001,-1.1179992675755,-0.19350000470900008,-0.16800000518599995,-0.032999999821200006,112.0,168.0,226.0,242.0,390.0,77.5,97.0,168.5,186.5,278.0,7.0,0.15499997138949995,0.8299999758598501,-1.260000228879,-0.19100000476489007,0.06699999421800001,0.06500000134119999,1.416797588960044,0.25837038056456524,8.748108135922573,2.42780247790266,0.13687747815032997,0.13408422468882616
5,5,64.5035135128,6450.5,1521545861.0,166076421.0,,3040566.0,1521545860.0,207264044.0,,0.6974015722110001,-0.424199659706,0.158969191142,-0.00486622880532,0.999967261066,-0.0007884478791289999,-0.00641677199136,-0.0718495809571,-0.24332030873000005,0.00832197822422,-0.0343098706433,0.0018289819657999998,0.103331640547,-1.40143096447,-4.93145942688,8.415258407589999,2.46568250656,-0.345800131559,0.632608652115,3040920.0,1521545860.0,215342823.0,,,,,,2544583.5,1521545861.0,162333388.0,,0.03199994564075001,-1.807000017165,1.126999664306,-0.012500000651915002,-0.228499993682,-0.05800000019375,106.0,180.5,235.5,241.5,372.5,80.5,94.0,178.5,192.0,269.0,7.0,0.8999999761582501,-1.8699999600638504,2.2449989318815,0.18100000405708505,-0.06049998849600002,-0.025000000372549992,2.1298829315014376,0.2360773118100232,9.85392687681683,2.5689222761448005,0.2538432395115887,0.10889417035234539
6,6,64.6060776154,6457.5,1521545861.0,236077427.0,,3040573.5,1521545860.0,282309290.5,,0.6916188993100001,-0.4420849275325001,0.159599431046,-0.00561352485552,0.999960868612,-0.0017384103143050001,-0.006612376435804999,-0.0935347329398,-0.26323428285100003,0.00879695852058,-0.020490824105100003,0.01594203646033,-0.04208464956845,0.6290407329795,-3.4329830408099995,7.491670370104999,1.501688063145,0.4451848268505,0.5593589544295,3040926.5,1521545860.0,280380546.5,,,,,,2544590.5,1521545861.0,233361040.0,,0.5719997882845,-0.9420000299825,1.652001190185,-0.052999999374199996,-0.2549999952315,-0.0675000026822,104.0,198.0,239.5,241.5,391.0,77.5,104.0,152.0,188.0,248.0,7.0,0.53999984264375,0.8649999871825004,0.525001525879,-0.040499998722285005,-0.026500001549500024,-0.009500002488449996,1.9858639798982207,0.2690543585668651,8.264755878823381,1.6631713708907314,0.2794967270173531,0.04944835819628268
7,7,64.7086417179,6470.5,1521545861.0,366076945.5,,3040586.0,1521545860.0,407316614.0,,0.679781082344,-0.474661021658,0.162184581126,-0.00021446928828599998,0.999955874491,-0.00589934249161,-0.00730758735798,-0.0994555332936,-0.257152305139,0.021486786503900002,-0.0637959260901,0.006968803817779999,-0.09478545472279999,3.69888877869,-2.04058218002,6.75510835648,1.16782927513,1.45321905613,0.55519759655,3040939.0,1521545860.0,405383183.0,,,,,,2544603.5,1521545861.0,363381860.5,,-0.05799996852849997,-2.13700004518,1.042000579836,-0.05700000002980001,-0.1849999949335,-0.03500000014905,133.5,198.0,255.0,271.0,426.0,69.5,82.0,164.5,182.0,251.0,7.0,-0.629999756813,-1.1950000151975004,-0.6100006103489999,-0.0040000006556000075,0.07000000029800002,0.03250000253315,2.3782132784565793,0.1967206093403173,7.967260679701644,1.9452288328535863,0.27655088706290554,0.11446731777827317
8,8,64.8112058205,6482.5,1521545861.0,486133575.0,,3040600.5,1521545860.0,552312199.5,,0.665661908447,-0.5080027761654999,0.164316725943,0.0074098946948500015,0.9999090684315001,-0.00787046688302,-0.008040125676125,-0.09667887321689997,-0.2298281142885,0.01989576490863,0.011081818365850005,-0.010579792450506498,-0.150637211583,5.454698085785,1.245224237445,6.74425292015,0.016220852732649997,2.0496379137050003,0.4290452599525,2121835.0,1521545860.0,554183417.0,,,,,,2544615.5,1521545861.0,483191486.0,,0.2070000171662,-2.13700001538,1.267000961305,-0.00800000014714,-0.2164999991655,-0.07400000095364999,119.5,170.0,251.0,259.0,398.5,62.0,95.0,136.0,168.0,240.0,7.0,0.2649999856947,2.9800000245217007e-08,0.2250003814689998,0.04899999988266001,-0.031500004232,-0.03900000080459999,2.4929720232663506,0.2289372179925229,8.762948251561163,2.0941247642984573,0.2501271838589255,0.15141435935898218
9,9,64.9137699231,6491.5,1521545861.0,576142549.0,,3040609.5,1521545860.0,642315044.5,,0.6581497579940001,-0.5251179898330001,0.16547147720549998,0.008069850372565,0.9999124193025,-0.007183210386975001,-0.007638820737705,-0.0968135621157,-0.20144626882199998,0.008791435080185,-0.017831020581935003,0.026274959753935002,0.07674184024295,3.4382904768,-1.020783066748,6.789053916935001,0.7921064198019999,1.287097752095,0.515652105212,2121841.5,1521545860.0,645206387.5,,,,,,2544624.5,1521545861.0,572686523.5,,0.46700000762941496,-0.54200000912121,1.732001113895,-0.036000000196494984,-0.237499989569,-0.08650000020859999,136.0,178.5,237.0,255.5,390.5,69.0,110.0,155.0,184.0,253.0,7.0,0.259999990463215,1.59500000625879,0.4650001525900001,-0.028000000049354986,-0.02099999040350001,-0.012499999254950005,1.8739479383234707,0.25531254394469255,7.67822196600642,1.5968563796876387,0.22367555602390954,0.08305196475062317
10,10,65.0163340256,6499.5,1521545861.0,656077027.0,,3040617.5,1521545860.0,722313944.0,,0.6523791267369999,-0.5404982947195001,0.166136284312,0.006276965431375001,0.9999299502725,-0.00738239152795,-0.006776692822375,-0.0939343172197,-0.2079146509095,0.004150465019584999,-0.004296256493964999,0.0072932997371790015,0.016386433690299997,2.9238244295099998,-0.26955191791050004,7.064471006394999,0.632679849863,1.1705238521125,0.5370678901675,2121847.0,1521545860.0,720205602.5,,,,,,2544632.5,1521545861.0,654005133.5,,0.4920001029965,-0.6370000153766501,0.9270008087155,-0.026000000303595,-0.1984999999405,-0.0515000000596,128.5,201.0,223.5,253.0,392.5,74.5,106.0,146.5,179.5,260.0,7.0,0.025000095367084973,-0.09500000625544004,-0.8050003051794999,0.00999999989289998,0.03899998962850002,0.035000000149,1.2276659237339815,0.20671356994233406,7.650369803561412,1.434869959068042,0.22818716960913749,0.018443569340148628
11,11,65.1188981282,6511.5,1521545861.0,776088475.5,,3040629.5,1521545860.0,842326771.5,,0.6416080030235001,-0.562703743153,0.167491660233,0.002800209394085,0.999920699634,-0.0064937533635750005,-0.01037283028397,-0.108820652184,-0.19834620719,0.010924676771755,0.0261608264507,0.112348671614,0.06995765182899999,5.925807714459999,-0.7290366888049999,8.129184246065,0.7363457679750001,2.19182908535,0.539124965668,2121855.0,1521545860.0,841697592.0,,,,,,2544644.5,1521545861.0,773847449.0,,0.006999969485000035,0.24799994528250002,1.882000732425,-0.05599999800325,-0.2595000043515,-0.08150000125170001,112.5,197.0,246.5,257.0,391.5,66.5,82.0,164.5,179.5,264.0,7.0,-0.4850001335115,0.8849999606591501,0.9549999237095002,-0.029999997699655,-0.061000004411000015,-0.03000000119210001,1.8982833638003445,0.2777021826324374,10.086145352355814,2.374231572110739,0.22650055366593885,0.13490991773565664
12,12,65.2214622308,6522.5,1521545861.0,886091947.5,,3040640.5,1521545860.0,952312763.0,,0.6338759148244999,-0.5841078956625,0.1709556126165,-0.0029415310672,0.999934524262,-0.00363483556791,-0.0104286037399,-0.04745550113675,-0.1816517969545,0.032896932129300005,0.12030775734155,-0.07022775141585001,0.10224195103795,2.526205182075,-4.809790134429999,7.150745630265,2.134041666985,0.7824681699275,0.566061764956,1202732.0,1521545860.0,948000000.0,,,,,,2544655.5,1521545861.0,883607727.0,,1.0820000171655,0.6029999643555001,1.33199958801,-0.044999999925500016,-0.16099999845000001,-0.09200000017885004,138.0,178.0,221.0,254.0,392.0,63.0,68.5,148.0,171.0,248.5,7.0,1.0750000476805,0.35500001907300005,-0.5500011444150001,0.010999998077749984,0.09850000590150003,-0.01049999892715002,1.8189436210662733,0.19081404436545915,8.98047642544407,2.3423953968369453,0.1906085204508412,0.17279846671057664
13,13,65.3240263333,6531.5,1521545861.0,976079583.0,,3040647.5,1521545861.0,22342916.0,,0.6306686641895,-0.5984259350894999,0.17296915593649995,-0.00293766919572,0.9999669158125,-0.001319947863525,-0.0074596906525,-0.04758518948805,-0.2274668607710001,0.03037618352845,0.0424326500789,-0.09410551801285,-0.018109582020500004,1.9339706301700001,-3.707067131995,6.880205392839999,1.6351975798600002,0.7595058381555,0.5672361254695,2121868.0,1521545861.0,21697762.5,,,,,,2544664.5,1521545861.0,973044174.0,,0.6669999361060001,0.1079999893900001,1.142000961305,-0.06300000101325,-0.2549999952315,-0.08850000053644999,128.5,197.0,227.0,247.0,381.0,70.0,80.0,163.5,167.5,265.5,7.0,-0.4150000810594999,-0.4949999749655,-0.18999862670499998,-0.018000001087749982,-0.09399999678150003,0.00349999964240004,1.3269209125246284,0.2771754819436347,8.051075416808763,1.8900997501216545,0.23436773569197028,0.10480617956085617
14,14,65.4265904359,6539.5,1521545862.0,56080460.0,,3040655.0,1521545861.0,97345404.5,,0.627423567945,-0.6162453375404999,0.17490454439949998,-0.0025860437670500004,0.999982883402,-0.003086111410365,-0.0042126389069350005,-0.055557252917850006,-0.258308336605,0.0238748637988,-0.0925777568693,-0.050636692870050015,0.01548988596051,4.336436271669999,-0.5386350154875,7.133164644239999,0.3836965709925,1.91129624844,0.478826969862,2121873.5,1521545861.0,106708412.0,,,,,,2544672.5,1521545862.0,52257914.0,,0.991999864576,0.8029999226344998,0.4270008087160001,-0.05350000131875,-0.27799999713900003,-0.097999997437,107.0,183.0,219.0,248.5,400.0,80.0,91.0,139.0,162.0,251.5,7.0,0.3249999284699999,0.6949999332444997,-0.7150001525890001,0.0094999996945,-0.023000001907500008,-0.009499996900550006,1.3458091609563123,0.2995834575674069,8.365216378552319,2.007374323577804,0.26529194151506225,0.10665201497785498
15,15,65.52915453850001,6554.5,1521545862.0,206051468.5,,3040670.5,1521545861.0,252351341.5,,0.613576183666,-0.653864839023,0.17606653760750002,-0.003766612950595,0.9999813033364999,-0.00334223916984,-0.003460945092155,-0.1313606235325,-0.256259359032,-0.003110451946545,0.053732204937350016,0.023035109292399998,0.007084451298400001,2.04886060953,-2.6974393129350003,7.58715701103,1.2463374137899998,1.1061509847650002,0.5040273070335,1202744.5,1521545861.0,261000064.0,,,,,,2544687.5,1521545862.0,202692665.0,,-0.3480000495910001,-0.6770000219347,1.0320003509525,-0.025999999837960003,-0.244500003755,-0.08100000023845,134.0,191.5,238.5,257.5,379.0,70.0,80.0,152.0,191.0,249.5,7.0,-1.339999914167,-1.4799999445691998,0.6049995422365,0.027500001480789998,0.03349999338400003,0.01699999719855,1.2823641403988986,0.2588769048532484,8.308968657677834,1.740968258281801,0.28798289431431584,0.05888935012157628
16,16,65.631718641,6560.5,1521545862.0,266075491.5,,3040676.0,1521545861.0,307340965.0,,0.605348750955,-0.668316400972,0.17571702303300002,-0.0034385951674400003,0.999981803737,-0.00178555536149,-0.004623856688560001,-0.165157285932,-0.276332803186,-0.0047106403689399995,0.0543247934925,0.0546469285199,-0.049135487053699994,-0.925394117832,-4.71597003937,7.71591091156,1.9713747501400003,-0.20717260241500002,0.701545059681,2121888.5,1521545861.0,317723265.0,,,,,,2544693.5,1521545862.0,263628354.5,,1.3719999790195,1.8329999238264998,-0.48299903869618,-0.5020000040529999,-0.272500000894,0.010000000242124999,106.0,211.0,214.0,219.0,296.0,85.5,120.0,188.5,212.0,299.0,7.0,1.7200000286105002,2.5099999457612,-1.5149993896486798,-0.47600000421504,-0.027999997139000005,0.09100000048057501,2.339991609933441,0.5712794890080375,9.090215007395821,2.1027135714223584,0.32196108048294053,0.09138799742124866
17,17,65.73428274359999,6573.5,1521545862.0,396083473.5,,3040689.5,1521545861.0,442348141.5,,0.583160242483,-0.7009121773935001,0.1760510207,-0.00124329375316,0.99996646434,0.0010313451230485,-0.008021586206835001,-0.1681710231095,-0.253964582804,0.0031012843946125004,-0.009103608573549998,0.02449971863305,-0.0746532037518,1.010903343556,-4.059910178185,7.6114513874049985,1.3772785067549995,0.419122070074,0.61053326726,3041043.0,1521545861.0,445422929.0,,,,,,2544706.5,1521545862.0,393609669.0,,-1.843000054355,0.3130000025035,0.6920001983645,-0.22500000149,-0.20849999785400009,-0.0625,60.5,70.0,72.0,82.0,88.5,51.0,58.0,129.0,182.0,195.0,7.0,-3.2150000333745004,-1.519999921323,1.1749992370606799,0.27700000256299995,0.06400000303999995,-0.072500000242125,1.9933595953706476,0.31305510661162844,8.685562068615498,1.5637487858423957,0.30461306652440573,0.07909622451524975
18,18,65.8368468462,6584.5,1521545862.0,506076454.5,,3040702.5,1521545861.0,572354622.0,,0.564360450048,-0.733231959869,0.17831233590149995,0.0007513346208835,0.9999706357439999,-0.002523023584125,-0.007196858747210002,-0.13674410274350002,-0.2664553736425,0.034793258571099994,-0.053889809288599995,-0.09677768844294997,0.0010974759729499989,0.6685625761731999,-2.3565198779100003,7.292567014695001,1.4510262608500002,0.321699485183,0.6122678220275,3041055.5,1521545861.0,570439907.0,,,,,,2544717.5,1521545862.0,503293915.0,,-0.4679999351505,-1.177000021004,-1.27299995422,-0.039499999955300014,-0.1774999946355,-0.07149999961260001,22.5,25.0,26.5,31.5,38.5,31.0,39.0,54.5,57.0,103.0,7.0,1.3750001192045,-1.4900000235075,-1.9650001525845,0.1855000015347,0.03100000321850005,-0.008999999612600007,1.7957956098031898,0.19539382804140215,7.692964026762498,1.6074326282409592,0.3015095133160554,0.11077561545319246
19,19,65.9394109487,6591.5,1521545862.0,576091527.5,,3040709.5,1521545861.0,642349054.0,,0.5535402813775,-0.7508174980010001,0.17961815408999998,0.0006746720814515,0.9999763569994999,-0.003977815329455,-0.005563711411185,-0.17890589535200002,-0.2640022939815,0.01429452606825,-0.0709758668425,-0.0010168130584600008,0.036590734665600005,1.7668713927250002,-4.736683368685,6.7443127632149995,2.154847741125,1.0373098254225002,0.5089982300995,3041061.0,1521545861.0,625398599.0,,,,,,2544724.5,1521545862.0,572392716.5,,-0.4780000448229,0.5079999282934999,-0.30799980163600005,-0.08450000174335001,-0.15749999880800006,-0.08300000056625001,16.5,17.0,18.0,39.0,72.5,27.5,33.0,37.0,37.5,79.0,7.0,-0.010000109672399948,1.6849999492975,0.965000152584,-0.045000001788050005,0.01999999582749995,-0.011500000953650004,0.7625036706827784,0.19706724743889756,8.428745962577814,2.445088885826852,0.31923167777448247,0.07985918510859279
20,20,66.0419750513,6603.5,1521545862.0,696183442.5,,3040721.5,1521545861.0,762341054.0,,0.5321814627635,-0.7797733758740001,0.181991249433,0.006070654321545001,0.9999436736935,-0.006973680609475001,-0.00513429339344,-0.19079996229700005,-0.2168849012015,0.0057719169579850006,-0.035103787246399995,0.05477788398305001,-0.1314469448587,1.7690632715797496,-0.7050641775100002,4.72405862808,0.5940556824225001,0.6756536848853999,0.5400554388759999,3041074.5,1521545861.0,760403240.5,,,,,,2544736.5,1521545862.0,694408042.5,,-1.827999949455,-0.7970000117995001,-0.787999343872,-0.07199999876315,-0.2094999998805,-0.082499999553,10.5,11.5,12.5,14.5,18.0,19.0,35.5,41.0,53.5,59.0,7.0,-1.3499999046320998,-1.304999940093,-0.479999542236,0.012500002980200016,-0.05200000107249994,0.0005000010132500121,2.1442331496268285,0.2363905660090269,5.093469375072102,1.0493187946364204,0.28892386714685053,0.14666694162416805
21,21,66.1445391538,6611.5,1521545862.0,776104568.5,,3040729.5,1521545861.0,842346259.5,,0.5172061318360001,-0.7961098187669999,0.18108935288400002,0.0186578486202,0.99969767605,-0.01307499191085,-0.009221830673595,-0.211447425804,-0.1938217180035,-0.011743208663335,-0.17686567640950002,0.207738794683,-0.2331245344865,7.731497764584999,1.5390522480000002,6.25988006592,0.09397340565937501,2.9004515409450002,0.2252268269655,3041081.0,1521545861.0,825439559.0,,,,,,2544744.5,1521545862.0,774785455.5,,-1.1079999208435,-0.04200004637249999,-0.497998428345,-0.120000001043,-0.22650000453,-0.08500000089404999,9.5,10.5,17.0,19.0,103.0,27.5,29.5,39.0,47.5,69.0,7.0,0.7200000286114998,0.7549999654270001,0.290000915527,-0.04800000227985,-0.017000004649500022,-0.0025000013410499955,1.2154958918559062,0.27005046279241685,10.066321967111884,2.9107004768485534,0.287079736656346,0.358864769638485
22,22,66.24710325640001,6624.5,1521545862.0,906188487.5,,3040741.0,1521545861.0,957353378.0,,0.505491716471,-0.804162009536,0.1800626066,0.0324921514019,0.999344602519,-0.011441973283799999,-0.011122354090200001,-0.026833748318300002,-0.00742659678497,-0.00861198936328,0.0827600453036,-0.0665234316534,-0.30622506817699996,7.8227930069000005,-0.885432898998,5.55605268478,0.7964345812800001,2.63558936119,0.375932097435,3041094.0,1521545861.0,955446059.0,,,,,,2544757.0,1521545862.0,898938565.0,,-1.23799991608,-0.7320000141859999,-0.998000335693,-0.09000000357629999,-0.165000006557,-0.0480000004172,30.0,30.5,32.0,34.0,83.5,19.0,20.5,31.0,44.5,63.5,7.0,-0.12999999523649985,-0.6899999678134999,-0.500001907348,0.029999997466700005,0.061499997973000015,0.03700000047685,1.7505634758630524,0.193981965263772,9.635860277291416,2.778842252622203,0.029143965917658544,0.3241116851296892
23,23,66.349667359,6636.5,1521545863.0,26170968.5,,3040752.0,1521545862.0,66856416.0,,0.505017286013,-0.8038586292659999,0.179171563631,0.033598719842,0.999324601038,-0.0102178053178,-0.0108196228765,0.0281183875778,0.030390127246500007,-0.00418054432869,0.00661326432577,0.014132952050299998,0.0816109115078,7.72423601151,-1.8384778499599999,6.323657989500001,1.1925342083,2.5650272369400002,0.384503126144,2121941.0,1521545862.0,71447500.0,,,,,,2544769.0,1521545863.0,19780168.0,,-0.5030000209809999,-0.7670000329610001,-1.3380004882799998,-0.07450000196695,-0.1279999986295,-0.05600000172849999,18.5,21.0,26.0,33.0,40.0,30.0,35.5,46.0,52.0,61.0,7.0,0.734999895099,-0.035000018775000134,-0.3400001525869999,0.015500001609349988,0.0370000079275,-0.008000001311299992,1.6222032481494357,0.15833587760144432,10.150491275523006,2.8547058023944025,0.041613465427887415,0.08308920793841126
24,24,66.45223146149999,6644.5,1521545863.0,106173038.0,,3040760.0,1521545862.0,146839409.5,,0.5097426734945001,-0.8009300406295,0.1799215721495,0.0308280146949,0.999437349502,-0.00987061467887,-0.008748296827775,0.07133955598045,0.05319395330565002,-0.0003996932885699991,0.027892380552750003,-0.043157180706900014,0.08008436126014999,5.061448335645,-1.6012048721300003,6.109690904615,1.0467122197149998,1.7460834980000002,0.4710211604835,3041113.0,1521545862.0,144924620.0,,,,,,2544777.0,1521545863.0,98479451.5,,-0.6480000615110002,-1.382000020145,-0.7779991149905001,-0.0645000003278,-0.17350000143049998,-0.06900000199675001,8.5,9.5,12.0,14.5,17.0,34.0,35.0,38.0,45.5,62.0,7.0,-0.14500004053000026,-0.6149999871840001,0.5600013732894997,0.010000001639150005,-0.045500002800999965,-0.013000000268250015,1.7132164948788702,0.19754366811978866,8.093851941249707,2.089563348288786,0.0889892615459661,0.09515267761820295
25,25,66.5547955641,6656.5,1521545863.0,226184963.5,,3040772.0,1521545862.0,266839343.0,,0.518429766765,-0.793167163359,0.180124006732,0.0227226528822,0.9996601554510001,-0.00946325141699,-0.008584959024319999,0.103016427379,0.06196592419700001,0.0110958457476,-0.022360127695200002,-0.0488266059071,0.164013855735,3.64029121399,-2.36467051506,5.90777444839,1.3412425518000002,1.17816746235,0.46852761507,3041125.0,1521545862.0,264920128.0,,,,,,2544789.5,1521545863.0,224849898.0,,-0.9680000543575,-1.5520000070299995,-0.7729999542235001,-0.07250000163914999,-0.167000003159,-0.07750000059605,-4.0,-3.0,7.0,17.5,58.0,22.0,25.0,50.5,66.0,69.5,7.0,-0.3199999928464997,-0.16999998688499973,0.0049991607670000215,-0.008000001311349994,0.006499998271499996,-0.008499998599299993,1.9857635952667616,0.19786738332825474,7.331110809454231,1.8456782704963497,0.12072811546767251,0.17258203159081856
26,26,66.6573596667,6664.5,1521545863.0,306087493.0,,3040781.0,1521545862.0,356860092.0,,0.5258580736890001,-0.7867150233310001,0.18027040108399997,0.0162662291452,0.9997988275849999,-0.00891093867366,-0.00763605404333,0.08535605125229999,0.077808931348,0.0038127228994,0.0176351994077,-0.018960614714599998,0.153945310881,3.25238418579,-2.76838493347,6.190506458280001,1.5699065923700002,0.969575345516,0.547747850418,3041133.5,1521545862.0,349909340.0,,,,,,2544797.5,1521545863.0,304287337.0,,0.387000083923,-0.7320000141840001,-0.5879985809325,-0.0625,-0.152000002563,-0.06499999947849999,-1.0,0.0,2.5,5.5,28.0,20.0,25.0,26.5,28.0,48.0,7.0,1.3550001382805,0.8199999928459997,0.18500137329100008,0.010000001639149993,0.015000000595999985,0.012500001117550008,1.0155468560831742,0.17673497308500377,7.520926022894187,1.9247625222444447,0.11556133496464399,0.15610785986218817
27,27,66.7599237692,6674.5,1521545863.0,406142949.5,,3040790.5,1521545862.0,451847724.5,,0.5345500101055001,-0.7786943092615,0.1805185258985,0.008146447472564999,0.9999178159805,-0.007681479343794998,-0.00612394704153,0.08093032418599999,0.0737090142568,0.012672672544535,0.00908052838639,-0.030408838348800007,0.152990182689,1.8629012107835001,-3.081251740455,6.398437976835001,1.7354668974899998,0.4496884718535,0.572940528393,3041143.5,1521545862.0,449922031.0,,,,,,2544807.0,1521545863.0,399333196.0,,0.861999988556,-1.3120000273,-0.437998962402,-0.07400000095369999,-0.16400000453,-0.097000002861,-0.5,3.0,11.0,12.0,17.0,25.0,27.0,39.0,41.0,48.0,7.0,0.47499990463299996,-0.580000013116,0.14999961853050006,-0.01150000095369999,-0.01200000196699999,-0.0320000033825,1.6297948162179723,0.20440401703983616,7.3419698822999795,1.8821067778095777,0.11019679117370529,0.15624707819576364
28,28,66.8624878718,6685.5,1521545863.0,516090989.0,,3040803.5,1521545862.0,581850187.0,,0.5449226025505001,-0.7686296803264999,0.182073544488,0.00252939649814,0.999994023825,-0.0022725443338200003,-1.080131149475e-05,0.07392121330990001,0.08206885538439998,0.004780279266227,0.1350937615765,-0.11855452505,0.059672908433,-0.1039138212799,-2.9135377407050003,5.965657949450001,1.518199682235,-0.2159369960425,0.6510214209555001,2121977.0,1521545862.0,584456798.5,,,,,,2544818.5,1521545863.0,514026052.0,,1.1319999694825,-2.652000030875,-0.962998580932,-0.03800000064075,-0.14000000059599998,-0.05550000071525,0.5,2.0,4.5,12.0,18.5,35.0,39.5,41.0,48.0,57.0,7.0,0.2699999809265,-1.340000003575,-0.52499961853,0.03600000031294999,0.024000003934000008,0.04150000214575,3.0400484143425133,0.15531983226545715,6.639922817217183,1.6659495646451101,0.11055538825030833,0.18938414882870347
29,29,66.9650519744,6693.5,1521545863.0,596152067.0,,3040811.0,1521545862.0,656838943.5,,0.546693817299,-0.7662237096525,0.18204941326250001,0.0008003384970155,0.9999988917085,-0.0009666212574889999,0.0006555219302799999,0.018299683385255,0.02276290777265,0.00619427353842,-0.009769263826965002,0.0032841876706000035,0.06420938513385,0.82031545043,-3.6251330375699995,6.1378428936,1.6310590505599998,0.26672336459150003,0.6317249238489999,3041164.0,1521545862.0,654918575.5,,,,,,2544826.5,1521545863.0,593859769.5,,0.22699999809275,-0.4320000246165001,-0.33800048828100004,-0.07200000062584999,-0.1785000041125,-0.08749999850985,10.0,11.0,17.5,18.5,66.0,28.5,36.5,38.0,45.0,57.0,7.0,-0.90499997138975,2.2200000062585,0.6249980926509999,-0.03399999998509999,-0.03850000351650002,-0.031999997794600006,0.5936306515679254,0.2114296604015356,7.175487604672709,1.769342069540179,0.02985627918772729,0.06503129664741158
30,30,67.0676160769,6706.5,1521545863.0,726108431.5,,3040823.5,1521545862.0,781840738.0,,0.5453374882224999,-0.768381951841,0.182148262429,0.00061650366339,0.9999941693215,-0.0032620134643449993,-0.000609002315753,-0.0293096366084,-0.02217486860995,-0.008928165036354999,-0.02328789575545,0.048083510925599995,-0.008108002314218,1.460453808305,-2.64234220982,5.974382877349999,1.3567224740950001,0.4748809188605,0.5677662193774999,3041177.5,1521545862.0,789912249.5,,,,,,2544839.0,1521545863.0,719099981.0,,-0.8980000019069999,-1.40200003088,-0.827998352051,-0.0640000030398,-0.172000005841,-0.101000003517,-4.5,-1.0,2.0,13.0,108.0,27.0,28.5,43.5,46.0,57.0,3.5,-1.12499999999975,-0.9700000062635,-0.48999786377,0.007999997586049995,0.006499998271499996,-0.013500005007149998,1.8594594270947846,0.20947792988482689,6.693888888020317,1.5454987022571294,0.03782184192898859,0.05403785537173329
31,31,67.1701801795,6714.5,1521545863.0,806124925.0,,3040831.5,1521545862.0,861843888.5,,0.543578900502,-0.7699296878190001,0.182005284239,0.0010734775063999998,0.999988533687,-0.0042874344325449995,-0.0017326515159600002,-0.03450893362565,-0.035218624599800005,-0.004549241844285,-0.028283941395900007,0.02690615967685,-0.0461398289129,1.9811147451400002,-2.35849428177,6.122974395750001,1.296460807325,0.639844238758,0.5367721021175,3041185.0,1521545862.0,864919859.5,,,,,,2544847.5,1521545863.0,804492705.5,,-1.0180000066775,-0.3920000329611501,-0.727997970581,-0.06450000032785,-0.14199999719849998,-0.09899999946344999,-6.5,-5.5,-4.0,-1.0,130.0,20.5,24.5,26.5,45.0,63.0,-1.0,-0.1200000047705,1.00999999791885,0.10000038147,-0.0004999972880500025,0.03000000864250002,0.0020000040535499974,1.311475918424348,0.18473020635626905,6.854059115703847,1.5421853210341598,0.04951680139143631,0.060438452838855315
32,32,67.2727442821,6727.5,1521545863.0,936079978.5,,3040842.0,1521545862.0,966947283.0,,0.5416216468199999,-0.771608636591,0.181580742831,0.00260266679,0.9999851844600001,-0.00429995419866,-0.0020898276580299997,-0.0294994805053,-0.0231464775525,-0.005298137645810001,-0.002086804007,0.017206284516599998,-0.0481099153814,1.07649445534,-1.5856552124,5.77248716354,1.04578530788,0.304663062096,0.542407691479,2122005.0,1521545862.0,986512783.0,,,,,,2544860.5,1521545863.0,934529464.5,,-1.042999982835,-0.15200000107309994,-0.412999343872,-0.055999999865900006,-0.166500002146,-0.1260000020265,-7.0,0.0,4.0,7.0,128.0,24.0,25.0,27.5,65.0,71.0,-1.0,-0.02499997615750016,0.2400000318880501,0.31499862670900003,0.008500000461949994,-0.02450000494750001,-0.02700000256304999,1.1320430303476698,0.21618106117390767,6.082331034909489,1.2168371277040142,0.03786883990413372,0.051136825633150994
33,33,67.3753083846,6735.5,1521545864.0,16089439.0,,3040850.0,1521545863.0,46934301.0,,0.540373621091,-0.7715062018880001,0.181061939186,0.00350791031067,0.999982701487,-0.0037661078553300003,-0.00284740647214,-0.0107411852185,0.0122203071028,-0.019851681643700003,0.045143929874999995,0.0152632988603,-0.0156365190164,1.8426244258900002,-2.16312646866,5.7104473114,1.15039563179,0.53909611702,0.514168858528,2122010.5,1521545863.0,66508954.5,,,,,,2544868.0,1521545863.5,509671228.5,,-0.253000020981,-0.682000022754,-0.682997894287,-0.05700000002980001,-0.16849999874850002,-0.09050000086425,-11.0,-10.0,-5.0,5.0,66.0,24.0,28.5,32.0,35.0,54.0,-1.0,0.7899999618540001,-0.5300000216809,-0.269998550415,-0.0010000001639000056,-0.001999996602500026,0.035500001162249994,0.9978071783933602,0.1995783047780268,6.378368865985992,1.3705489221868519,0.025667065077014214,0.05015419647056457
34,34,67.4778724872,6746.5,1521545864.0,126081466.0,,3040857.0,1521545863.0,116933026.0,,0.539813846438,-0.771633839863,0.18094012301800005,0.00374668110184,0.999982031437,-0.00365355578767,-0.0029241602194499997,-0.00933978529093,0.000892625527144,-0.0155242846021,0.0172032367013,0.0019891729955,-0.0140364784986,0.46425563096999994,-1.0321280956299999,5.57898807526,0.7859805822370001,0.057975739240600004,0.545352578163,3041215.0,1521545863.0,165052692.0,,,,,,2544879.0,1521545864.0,119354686.5,,-0.4430000782013,-0.14200001060950002,-0.3029987335205,-0.05949999950825,-0.1585000008345,-0.10899999737749999,-9.0,-6.5,0.5,1.0,76.5,19.0,20.5,32.0,42.5,67.0,-1.0,-0.1900000572203,0.5400000121444999,0.37999916076650003,-0.002499999478449991,0.009999997914000023,-0.018499996513250003,0.5551768230163099,0.20135416468082615,5.692620630304591,0.958402888405048,0.018139233225783848,0.022291946771169222
35,35,67.5804365897,6759.5,1521545864.0,256060480.5,,3040876.0,1521545863.0,306936441.0,,0.537562293955,-0.770516296072,0.179428695946,0.0032131635176799998,0.9999798590700001,-0.00210713547591,-0.00505143696171,0.00481278766287,0.013532702837499999,0.0016070991963399999,0.0240595995381,-0.00473425306747,-0.0052963731732499995,2.0192885398900002,-2.48795032501,6.08613681793,1.25917041302,0.6000002026560001,0.511364579201,3041229.0,1521545863.0,304991262.0,,,,,,2544892.0,1521545864.0,249347460.5,,-0.3930000066757,-0.0520000070335,-0.46799964904799995,-0.06550000235435,-0.16849999874850002,-0.114500001073,-10.5,-9.0,-4.0,-2.0,2.0,15.0,19.0,24.0,29.0,57.0,-1.0,0.05000007152559999,0.09000000357600002,-0.1650009155275,-0.006000002846099993,-0.009999997914000023,-0.005500003695499993,0.613332436357018,0.2139924067166435,6.878116340511518,1.4855989045074094,0.014452672382740532,0.02508643160816048
36,36,67.6830006923,6767.5,1521545864.0,336084008.0,,3040883.0,1521545863.0,376964597.0,,0.538165412955,-0.769877117426,0.17901673279599994,0.00312234174103,0.9999827702259999,-0.0015182366578900001,-0.004733412245770001,0.00741894105294,-0.0038435280725100003,-0.00402233235844,-0.013482746981600001,-0.00462407291699,0.0170660870129,1.7146989107100001,-2.51464867592,6.23487472534,1.3390914201700002,0.5326824188229999,0.5453681945800001,2122032.5,1521545863.0,383519884.0,,,,,,2544900.0,1521545864.0,330578900.0,,1.19199991226,-0.5670000225305,-0.543000411987,-0.06000000052155,-0.1825000047685,-0.08550000190734999,-9.0,-3.5,3.5,9.0,108.0,26.5,30.0,30.5,37.0,60.5,-1.0,1.5849999189357,-0.5150000154969999,-0.07500076293899999,0.005500001832799993,-0.014000006019999955,0.028999999165650006,1.427305946108082,0.21027720306596567,6.93810587684995,1.540890281154203,0.00927321691717197,0.02223550859421386
37,37,67.7855647949,6776.5,1521545864.0,426079034.5,,3040894.5,1521545863.0,491935369.0,,0.5380688321635,-0.7704608040019999,0.179697019864,0.0032626032146700003,0.9999826392205,-0.002087282727965,-0.004437734475255,-0.001745431409199999,-0.01461066127503,0.0013299517888800002,-0.0142605946907,-0.010714125505525,-0.013488164814250005,1.4901213645950002,-2.2225021123900004,5.92605113983,1.2252866625749999,0.4062722176315,0.5558648705485,1202833.0,1521545863.0,492000000.0,,,,,,2544909.0,1521545864.0,419952825.5,,-0.28300011158000005,-0.8120000273010001,-0.4980003356935,-0.060999998822800015,-0.1674999967215,-0.10099999979145,-8.5,-6.0,-2.0,4.0,66.0,18.0,36.0,40.0,46.0,65.0,-1.0,-1.47500002384,-0.2450000047705001,0.045000076293500064,-0.000999998301250013,0.015000008046999969,-0.015499997884100003,0.9936988687937387,0.2048859407474242,6.5021580596507285,1.4054786638769365,0.014774529618861923,0.022362639297205826
38,38,67.8881288974,6789.5,1521545864.0,556078553.0,,3040907.5,1521545863.0,621944370.0,,0.5378984103585001,-0.7708253389799999,0.17943603937449998,0.00367164302229,0.9999800961105,-0.0022650821072399997,-0.0045665339821900006,0.0032279061278099996,-0.004702438946625,0.004547302429219999,-0.0068058749849000035,-0.008278530923672998,-0.008841737346935,1.460927248005,-2.063774466515,6.0567104816400015,1.143770575525,0.431414246559,0.5240322351455,2122049.5,1521545863.0,624517185.0,,,,,,2544922.0,1521545864.0,549972871.0,,-1.5279999971404998,-2.1320000499500003,-0.11799926757828501,-0.06549999862910001,-0.1639999970795,-0.0794999971986,-15.0,-12.5,-9.5,-9.0,118.0,26.0,30.5,32.0,36.0,45.5,-1.0,-1.2449998855604998,-1.3200000226490003,0.38000106811521495,-0.004499999806299997,0.0034999996420000123,0.021500002592849995,2.625667921005469,0.1936659454242421,6.563323497360967,1.3300147236186703,0.007294536955796379,0.013893535470731808
39,39,67.99069300000001,6800.5,1521545864.0,666084050.5,,3040918.5,1521545863.0,731941933.5,,0.5374784146614999,-0.7704983098520001,0.1792958724955,0.00359307920977,0.999980575674,-0.0019148306529900001,-0.004708250275704999,-0.004951912758255001,0.0041448884959549995,-0.011499171078255,0.015971982241435,0.006264677098925001,0.00947332879618,1.4994715452200005,-2.41852080822,6.209649562835,1.298738718035,0.4158560037615,0.5450698137284999,3041271.0,1521545863.0,724991827.0,,,,,,2544933.0,1521545864.0,659653440.5,,-1.098000049592,-0.8520000208165001,-0.1029998779296,-0.0505000017583,-0.17050000280100006,-0.0805000029504,-15.0,-14.5,-10.5,-0.5,30.0,27.5,28.5,29.0,29.0,38.0,-1.0,0.4299999475484999,1.2800000291335003,0.014999389648684984,0.01499999687080001,-0.006500005721500057,-0.0010000057517999957,1.3935986219958971,0.19519413825149498,6.83062262959494,1.4685910170723848,0.013188346222944142,0.019598325294653204
