,Unnamed: 0,Unnamed: 0.1,.header.seq,.header.stamp.secs,.header.stamp.nsecs,.header.frame_id,.endpoint_state.header.seq,.endpoint_state.header.stamp.secs,.endpoint_state.header.stamp.nsecs,.endpoint_state.header.frame_id,.endpoint_state.pose.position.x,.endpoint_state.pose.position.y,.endpoint_state.pose.position.z,.endpoint_state.pose.orientation.x,.endpoint_state.pose.orientation.y,.endpoint_state.pose.orientation.z,.endpoint_state.pose.orientation.w,.endpoint_state.twist.linear.x,.endpoint_state.twist.linear.y,.endpoint_state.twist.linear.z,.endpoint_state.twist.angular.x,.endpoint_state.twist.angular.y,.endpoint_state.twist.angular.z,.endpoint_state.wrench.force.x,.endpoint_state.wrench.force.y,.endpoint_state.wrench.force.z,.endpoint_state.wrench.torque.x,.endpoint_state.wrench.torque.y,.endpoint_state.wrench.torque.z,.joint_state.header.seq,.joint_state.header.stamp.secs,.joint_state.header.stamp.nsecs,.joint_state.header.frame_id,.joint_state.name,.joint_state.position,.joint_state.velocity,.joint_state.effort,.wrench_stamped.header.seq,.wrench_stamped.header.stamp.secs,.wrench_stamped.header.stamp.nsecs,.wrench_stamped.header.frame_id,.wrench_stamped.wrench.force.x,.wrench_stamped.wrench.force.y,.wrench_stamped.wrench.force.z,.wrench_stamped.wrench.torque.x,.wrench_stamped.wrench.torque.y,.wrench_stamped.wrench.torque.z,.tactile_values.tactile_values_0,.tactile_values.tactile_values_1,.tactile_values.tactile_values_2,.tactile_values.tactile_values_3,.tactile_values.tactile_values_4,.tactile_values.tactile_values_5,.tactile_values.tactile_values_6,.tactile_values.tactile_values_7,.tactile_values.tactile_values_8,.tactile_values.tactile_values_9,.tag,.delta_wrench.force.x,.delta_wrench.force.y,.delta_wrench.force.z,.delta_wrench.torque.x,.delta_wrench.torque.y,.delta_wrench.torque.z,.wrench_stamped.wrench.force.magnitude,.wrench_stamped.wrench.torque.magnitude,.endpoint_state.wrench.force.magnitude,.endpoint_state.wrench.torque.magnitude,.endpoint_state.twist.linear.magnitude,.endpoint_state.twist.angular.magnitude
0,0,146.741907,14674.5,1521528524.0,627863525.5,,1306964.5,1521528524.0,192525227.0,,0.583346736827,-0.24389707757800005,0.1209394524245,-0.013971479665750002,0.9998888164274999,-0.0029867082276999997,-0.00425544726135,-0.006115667958570001,-0.2786421074115,0.03565161284565,0.03747306825015,0.06149893603010001,-0.056276233314300005,0.38618686795199997,-2.76098930836,17.6354932785,1.8122509717950002,0.7645016312590001,0.6360436677935,1307318.0,1521528524.0,195584208.5,,,,,,812751.5,1521528524.0,623453110.5,,-0.5940000064675001,0.48000001087785,9.434999847415,-0.08400000073035,-0.5089999884365001,-0.107000000775,452.0,459.0,511.5,578.5,663.0,126.0,223.0,356.5,559.5,643.0,7.0,0.0,0.0,0.0,0.0,0.0,0.0,9.465857496225432,0.5268642980093698,17.854490343716773,2.06718839884269,0.28098018242537587,0.09139674180713589
1,1,146.844471103,14681.5,1521528524.0,697854995.5,,1306974.5,1521528524.0,292522991.5,,0.5841749537955,-0.27200422494800003,0.1245921523905,-0.011104159202,0.9999320674865,-0.0017978255520199999,-0.003008670132565,-0.009633180046875,-0.2873792239565,0.05192357546535002,0.007528681302805,-0.016905358765735002,-0.035851016674950005,-0.09869749844099998,-1.654873371125,16.487007141150002,1.308362662795,0.5967479944230001,0.6039102077484999,1307326.5,1521528524.0,280586634.5,,,,,,812758.5,1521528524.0,692715646.0,,-0.4090000003578,-1.915000029655,10.100000762919999,-0.0340000009164,-0.460500001907,-0.09099999815225003,437.5,445.0,553.0,603.0,690.0,125.0,219.0,353.0,561.0,645.0,7.0,0.18500000610970008,-2.39500004053285,0.6650009155050007,0.04999999981395,0.04849998652950005,0.016000002622749976,10.288076667913002,0.470634945028917,16.570146394736177,1.5596886116359034,0.29219116038778725,0.04034560191377695
2,2,146.947035205,14693.5,1521528524.0,817999958.5,,1306986.5,1521528524.0,412527578.5,,0.580166111749,-0.3040140516915,0.1293623821855,-0.0071827786731899984,0.9999424836085,-0.004952754903640001,-0.006199773435549999,-0.046926479960850004,-0.2712682176565,0.0393710186367,-0.110033748979,0.07580676677680001,-0.0374200253703,1.92165750265,1.0659021139120002,14.105395317049998,0.489984318614,0.9420662224299998,0.5352537631984999,1307339.5,1521528524.0,410591609.5,,,,,,812770.5,1521528524.0,812769760.0,,0.206000023149,-0.25500001832855,9.365000152604999,-0.0610000025481,-0.34449999034400003,-0.07750000059605,424.0,440.5,543.0,548.0,657.0,109.0,207.0,346.0,580.5,623.0,7.0,0.6150000235067999,1.66000001132645,-0.7350006103150015,-0.0270000016317,0.11600001156300001,0.01349999755620003,9.370735770321165,0.35833991369964924,14.275541738378587,1.189146749122795,0.2780982156371049,0.13876004504986164
3,3,147.04959930799998,14705.5,1521528524.0,937871455.5,,1306998.5,1521528524.0,532527651.0,,0.5750372609934999,-0.3318284942915,0.1320900183825,-0.002195717984895,0.9999128768535,-0.00852721412242,-0.009833189467125,-0.03910206768135,-0.193519877728,0.015381790021375,-0.01157322028884,0.04307691090835,-0.0804922769567,2.94390511513,2.925003767015,14.39973306655,-0.03041367232785,1.114610403774,0.4693074673415,1307350.0,1521528524.0,515586505.0,,,,,,812782.5,1521528524.0,933645371.0,,1.0110000163335,-0.70000001117595,10.30999794005,0.01450000004844,-0.318499997258,-0.08749999850989999,439.5,448.5,576.5,591.0,625.0,119.5,247.0,346.0,604.0,624.0,7.0,0.8049999931845,-0.4449999928474001,0.9449977874450006,0.07550000259654,0.02599999308600004,-0.009999997913849992,10.383071731068215,0.3306187350922256,14.985811180974956,1.209764788117177,0.198029074221637,0.09202481366965129
4,4,147.15216341,14713.5,1521528525.0,17929077.0,,1307006.5,1521528524.0,612524083.0,,0.5730200828535,-0.345468294715,0.13328720028500002,0.002040828475635,0.999916270575,-0.006701761877565,-0.0108732755534,-0.01518059129561,-0.167653160459,0.017637783104700003,0.08880635193620001,-0.012027556346895,-0.1337848993465,3.6043578386300004,1.8617693185799997,14.099806785599995,0.316081225872,1.2684359550450002,0.5814695060249999,1307359.5,1521528524.0,610585604.5,,,,,,812790.5,1521528525.0,12004061.0,,2.19600001872,-0.6600000195212999,9.539999389644999,0.017499999608825,-0.292999997735,-0.07500000298025,407.0,442.5,517.0,599.0,620.0,165.0,268.0,382.0,645.5,650.5,7.0,1.1850000023865,0.03999999165465007,-0.7699985504050009,0.0029999995603849985,0.02549999952299997,0.01249999552964999,9.81170752022365,0.3029525525656722,14.671814196470422,1.4307144718065254,0.16926052096346625,0.1610267976115997
5,5,147.254727513,14726.5,1521528525.0,147875070.0,,1307016.5,1521528524.0,712391355.5,,0.5724028660039999,-0.359859139039,0.1347505890505,0.0010365014626749999,0.99994427073,-0.0029013237877499997,-0.010070677053405001,-0.0226666064327,-0.1695953521195,0.012971964895629998,0.060177182847799986,0.0188072056521,0.05660967155625001,3.47591006756,1.589541733265,15.6021733284,-0.10946488380425,1.52844423056,0.5050760954614999,912146.5,1521528524.0,716228171.0,,,,,,812803.5,1521528525.0,144154558.5,,0.34600002467600005,-1.370000012965,10.33000030515,-0.05700000189245,-0.402500003576,-0.06949999928475001,439.0,458.0,554.5,602.0,616.0,147.0,296.5,411.0,631.0,671.0,7.0,-1.849999994044,-0.7099999934437001,0.7900009155050007,-0.07450000150127499,-0.109500005841,0.005500003695499993,10.426194049460184,0.4124142371390682,16.06351164250807,1.6134516382355755,0.17159437747480413,0.08473286985370221
6,6,147.357291615,14732.5,1521528525.0,208252429.5,,1307023.0,1521528524.0,777387648.0,,0.5729528368460001,-0.3706269641130001,0.136714245657,-3.807840752950005e-05,0.999959433113,-0.00229816538768,-0.008636688230605,0.0030171655331,-0.184458268061,0.02646053554045,0.014846497302199996,-0.05139880461925,0.05393547231025,0.29769165813925,-0.7369143962885,16.43062114715,1.2725216448299999,0.265128433704,0.7633670270445,1307376.0,1521528524.0,775458060.0,,,,,,812809.5,1521528525.0,202406938.0,,0.6309999913000001,-1.395000048728,10.4600013733,-0.07549999840575,-0.2859999984505,-0.019499999471,436.5,464.5,532.0,588.0,626.0,132.0,281.0,409.0,632.0,670.0,7.0,0.284999966624,-0.02500003576299981,0.13000106815000126,-0.018499996513300004,0.11650000512550003,0.049999999813750015,10.571462285531252,0.2964397052560997,16.449832048746142,1.50742616432711,0.18637090943869236,0.07596901191776691
7,7,147.459855718,14745.5,1521528525.0,337844014.0,,1307036.0,1521528524.0,907392251.0,,0.571279519789,-0.395714125159,0.141501323949,-0.0032074052874699996,0.999968987385,0.00128640920407,-0.0070768615921099984,-0.0114092329346,-0.21559548615200005,0.0418776125282,0.0527436176254,-0.0530595862624,0.060731114334500014,2.82844877243,-1.52515137196,14.1101121902,0.479964852333,1.4671373367299998,0.577262759209,912159.0,1521528524.0,905753783.5,,,,,,812822.5,1521528525.0,332122364.5,,-1.2539999991700002,1.4899999864415,7.91000022888,-0.3850000053645,-0.3334999978545,-0.036500000394900006,409.0,450.5,552.5,574.0,591.0,150.0,277.0,381.5,655.5,698.5,7.0,-1.8849999904700003,2.8850000351695,-2.5500011444200004,-0.30950000695875,-0.04749999940400002,-0.017000000923900006,8.14620890834477,0.5106657446201421,14.47140197719913,1.648056588067237,0.21992116468483716,0.09636118068424435
8,8,147.562419821,14757.5,1521528525.0,457859992.5,,1307048.0,1521528525.0,27384887.0,,0.5681490776179999,-0.42871896193000003,0.14616950117,-0.00988878204257,0.999941495001,-0.00107284990373,-0.00425059491601,-0.06132938912930001,-0.298595481585,0.024462870660900003,-0.036987365501,-0.0113101413886,0.10471704018200001,-0.40468508005099996,-6.1298065185500015,14.9866266251,2.83011007309,0.18769352138,0.696077466011,1307401.0,1521528525.0,25488679.5,,,,,,812834.5,1521528525.0,453245299.0,,-0.4639999981970001,0.8500000156459999,10.0350002289,-0.07800000160925,-0.4004999995235,-0.07899999991060001,387.0,445.0,530.5,570.5,586.0,98.0,250.0,361.0,615.0,659.0,7.0,0.7900000009730002,-0.6399999707955,2.125000000019999,0.30700000375524994,-0.06700000166899994,-0.042499999515700014,10.081618204383068,0.4156022736406062,16.19682918256009,2.9204923767169473,0.3058087435553848,0.11163172940259097
9,9,147.664983923,14765.5,1521528525.0,537847995.5,,1307055.5,1521528525.0,102391847.0,,0.5631082812595001,-0.4513852809825,0.14800456506999998,-0.0104214246408,0.99993551307,-0.0021464827199200003,-0.0039505048659750006,-0.0728267403608,-0.30779958301949994,0.0272667754643,-0.02104359929595,-0.009890922897,0.0373594467044,0.4478607177735,-2.9510076046,14.587199687950001,1.6722651124,0.6075651347635,0.6367224156855,1307409.0,1521528525.0,105514808.5,,,,,,812842.5,1521528525.0,533323713.5,,-0.8789999991655,-0.7299999769780001,10.254999542255,-0.010999999882200002,-0.393999993801,-0.10900000110300001,407.0,455.0,559.0,587.0,593.0,112.0,275.0,373.0,646.0,669.5,7.0,-0.4150000009684999,-1.579999992624,0.21999931335500025,0.06700000172705001,0.00650000572249998,-0.03000000119239998,10.318457083138501,0.4089474237026691,14.889439876673006,1.8897146434757692,0.31747093483148653,0.04400445074241707
10,10,147.76754802600001,14775.5,1521528525.0,638098954.5,,1307066.5,1521528525.0,212388965.5,,0.5530896311919999,-0.4862984859145,0.151320262185,-0.00696092016826,0.9999539297125,-0.0046107732780299995,-0.00469948876621,-0.10718662635145,-0.331588250377,0.044649933901050015,-0.08683004499045,0.02477876587066501,-0.059187681998000015,1.22044301033,-1.939845085145,15.209432601900001,1.44997382164,0.8289794325830001,0.6740382015705,1307419.5,1521528525.0,210442420.0,,,,,,812852.5,1521528525.0,632651218.5,,-1.3889999896299998,-0.6149999879279999,9.72999992371,0.007000000332504999,-0.3955000042915,-0.06299999915065,385.0,464.0,560.0,583.0,612.5,128.5,269.5,385.0,639.0,677.5,7.0,-0.5099999904644998,0.1149999890500002,-0.5249996185449994,0.018000000214705002,-0.0015000104905000256,0.04600000195235,9.847864970222743,0.40054744199933856,15.381135204124668,1.8010992422027536,0.35133083732296194,0.10796585409940115
11,11,147.870112128,14788.5,1521528525.0,767846464.5,,1307081.5,1521528525.0,362392299.5,,0.5375280438425,-0.530753661412,0.1580237360515,-0.00249685452462,0.9999343307565001,-0.007460007531875002,-0.008281477640645,-0.1078059586315,-0.31633742820099997,0.0477627011728,-0.023949490490750003,0.03876617442135,-0.0869557755937,3.0468660593049997,-1.4165347218500002,14.48980760575,1.2750878930100005,1.070232331755,0.6364310085775,912190.5,1521528525.0,357243206.5,,,,,,812865.5,1521528525.0,764268683.5,,0.2709999918937,-0.9549999915055,9.554998779295,-0.02449999935925,-0.310000002384,-0.025500000454450004,376.5,462.0,568.0,612.0,615.0,94.0,231.0,350.5,591.5,628.0,7.0,1.6599999815237,-0.34000000357750004,-0.1750011444150008,-0.031499999691755,0.08550000190750001,0.037499998696199986,9.60642845451476,0.3120104188482497,14.874289490701798,1.7822151406363376,0.3375985320178417,0.09817179474337305
12,12,147.972676231,14795.5,1521528525.0,837849497.5,,1307088.5,1521528525.0,432387626.0,,0.530262821336,-0.5499870774069999,0.15932220907,0.001961994516855,0.9999218124715,-0.006155009446665,-0.010704115886850002,-0.1035223868125,-0.283176840687,0.024839101079500003,0.048670753088800006,0.06241064624175,-0.10435413884525,3.5791342258450003,-0.6948605924844999,14.250162124649998,0.892300963402,1.155974030495,0.58997091651,1307441.5,1521528525.0,430473346.0,,,,,,812872.5,1521528525.0,834388959.0,,0.5059999614955001,-0.8550000272689999,9.439999008180001,-0.016499999794195003,-0.240999996662,-0.04600000008945,359.0,464.5,512.0,593.0,602.5,73.0,256.0,332.0,617.0,624.5,7.0,0.2349999696018001,0.09999996423650004,-0.11499977111500034,0.007999999565054997,0.06900000572199999,-0.02049999963499999,9.492135812455636,0.2459049580478642,14.709186028751297,1.574973857178157,0.3025276658675452,0.13097220035059925
13,13,148.07524033299998,14808.5,1521528525.0,968759059.5,,1307101.5,1521528525.0,562393685.0,,0.5210670565625,-0.5853634167849999,0.16133788984449998,0.006363500599955,0.9999158715845,-0.00270114363688,-0.0109675956171,-0.0642122122784,-0.28667787758,0.00687637918149,0.060728860650399986,-0.018949061092265,-0.014833502375505,1.51939219236,-2.47497701645,14.53800582885,1.4755517244349998,0.4046411961315,0.6515919566155,912204.5,1521528525.0,558227757.5,,,,,,812885.5,1521528525.0,962619276.5,,-0.4739999979735,-0.3599999926985,9.88999977112,-0.03899999987335,-0.2900000065565,-0.056499999016550013,363.0,465.5,534.5,563.0,584.0,95.5,256.5,340.5,606.5,616.5,7.0,-0.979999959469,0.4950000345704999,0.45000076294000013,-0.022500000079154998,-0.04900000989449999,-0.010499998927100013,9.90789440121237,0.2980155259072277,14.82523785123992,1.6629971337966427,0.2938616992568229,0.06532299920317654
14,14,148.177804436,14814.5,1521528526.0,27917980.5,,1307107.5,1521528525.0,622410154.0,,0.5174264510965001,-0.601361400037,0.16132815225549998,0.007805545203285,0.9999193520055,-0.001270898645495,-0.009928373735115,-0.0570668308829,-0.2675310043795,-0.0055456972063915,0.05106759029775,-0.039419160698550004,-0.0363524048435,1.160213291645,-2.6492394208900003,15.573621273050001,1.509268403055,0.4252629578115,0.6181032061580001,1307459.5,1521528525.0,610483404.5,,,,,,812891.5,1521528526.0,24018898.0,,-0.6139999985694999,-1.8299999915050005,9.205000305175,0.012000000569985002,-0.340000003576,-0.049499999731800005,357.0,459.0,512.0,547.0,588.0,104.0,252.0,349.0,610.0,634.0,7.0,-0.14000000059599998,-1.4699999988065005,-0.6849994659449994,0.051000000443335,-0.04999999701950003,0.006999999284750001,9.405207418522119,0.34379390980470825,15.839894063651526,1.6854647042313213,0.27360595068241217,0.0740490806621033
15,15,148.280368538,14827.5,1521528526.0,159648537.0,,1307118.0,1521528525.0,727390925.0,,0.512235403026,-0.6265157919740001,0.160664651705,0.010335328330399999,0.9999128032,0.0006672005477,-0.00819279121198,-0.0687366432172,-0.272743856653,-0.005053087276369999,-0.0006971805367310001,-0.014160468533,-0.109937797594,1.74114775658,3.15325641632,15.6024503708,-0.570314884186,0.858071684837,0.598407149315,912216.5,1521528525.0,720750583.5,,,,,,812904.5,1521528526.0,154842118.0,,-0.5589999988675001,-1.980000086875,10.114998245239999,-0.0410000011325,-0.402500003576,-0.06650000065565001,346.5,457.0,590.0,593.5,596.0,140.0,298.0,386.0,653.0,664.0,7.0,0.05499999970199987,-0.1500000953699996,0.9099979400650008,-0.053000001702485,-0.0625,-0.017000000923850005,10.322115618610708,0.41001158893224776,16.012841069297597,1.1914852914721201,0.28131738508976556,0.11084820372741361
16,16,148.382932641,14835.5,1521528526.0,238488554.5,,1307125.5,1521528525.0,802391795.0,,0.507492546103,-0.6438427259275,0.1607907921635,0.011808053120299998,0.9998883092035,0.0009781484337894998,-0.009076345516024998,-0.05257423460175,-0.1986299452595,0.0159695286265,0.12164156504185,0.017540805469349996,-0.004937221978500003,3.3673716783499996,0.14194545149800006,13.87767744065,0.10697972774497999,1.4210206270200003,0.6003438234330001,912222.0,1521528525.0,809745483.5,,,,,,812912.5,1521528526.0,234724985.5,,-0.8590000033380001,1.2499999843555,8.744999313355,-0.31849999725800004,-0.3959999978545,-0.07200000062585,347.5,485.0,524.0,576.0,590.0,296.0,451.0,496.0,763.5,831.5,7.0,-0.3000000044705,3.2300000712304997,-1.3699989318849999,-0.2774999961255,0.006500005721500057,-0.005499999970199995,8.87555034672233,0.5132662531710345,14.281080900200818,1.5463366356970456,0.2060896192007361,0.12299888765029214
17,17,148.485496744,14846.5,1521528526.0,350090503.0,,1307137.0,1521528525.0,917402420.5,,0.4993053771695,-0.6629094619814999,0.1606395978315,0.005064726146805,0.999892394441,0.00528347841058,-0.012708928140700002,-0.0667330105284,-0.1631661333195,7.387854185000009e-05,0.06888726070675,0.051869307391599985,0.1031321368384,0.08536887168850002,-4.11145925522,15.82124328615,1.797285556795,-0.14510521292685,0.696674436331,912230.0,1521528525.0,919739437.5,,,,,,812923.5,1521528526.0,343971965.5,,-1.499000003935,1.55000000373,8.764999771115,-0.272500000894,-0.2544999942185,-0.07499999925494999,348.5,509.0,535.0,562.0,605.0,336.5,489.0,541.0,783.5,835.0,7.0,-0.6400000005969999,0.3000000193744998,0.020000457760000145,0.04599999636400004,0.14150000363599996,-0.002999998629099984,9.026334915734411,0.38033077371242136,16.346960701339377,1.9330406528884942,0.17628524389369446,0.1344325756125296
18,18,148.588060846,14857.5,1521528526.0,458515524.5,,1307148.0,1521528526.0,27387851.5,,0.4917055414485,-0.6787493186695001,0.1617685887605,0.0022840662512399997,0.99983138331,0.0106220595001,-0.01478983132155,-0.07547316019285001,-0.16843561775,0.027835855525099998,0.1059296603025,0.013855149981749998,0.03898552945915,2.18104326725,-5.815587282179999,15.343829155,1.91436576843,0.7176178395749999,0.5810638964175,516974.5,1521528526.0,26999936.0,,,,,,812934.5,1521528526.0,455269513.5,,1.081000009177,2.449999979885,8.804998779295003,-0.4175000041725,-0.31799998879450003,-0.0679999999702,342.0,410.5,498.0,563.0,613.0,244.5,418.5,482.0,718.0,796.0,7.0,2.580000013112,0.8999999761549999,0.03999900818000235,-0.1450000032785,-0.06349999457600003,0.006999999284749993,9.203209463261372,0.5292015177163487,16.553280590508287,2.1254192317594103,0.18665902091550238,0.11372303909072289
19,19,148.69062494899998,14868.5,1521528526.0,567958473.5,,1307159.0,1521528526.0,137391118.5,,0.4819384945955,-0.697474815549,0.16405066294999998,-0.00032865926046300004,0.999738020278,0.015691115303950003,-0.016660212901749998,-0.10142336143385,-0.1963918063355,0.01584679632865,0.049212312621235016,0.022791376898905,0.0186679347917,0.952029913663,-5.72173500061,15.01285219195,1.6806233525299998,0.21269200742225,0.65666282177,912246.0,1521528526.0,138246828.5,,,,,,812945.5,1521528526.0,563544096.5,,0.6009999603035,1.20000000969,8.770000839235,-0.4430000036955,-0.317499995232,-0.028500000014900002,323.5,403.5,444.5,568.5,655.5,239.0,406.0,448.0,712.0,766.5,7.0,-0.4800000488735,-1.249999970195,-0.03499794006000378,-0.02549999952299997,0.0004999935625000228,0.03949999995530001,8.872097592774969,0.5457723886817493,16.094419632625858,1.8168485915412493,0.22160225809802486,0.0573566941504239
20,20,148.793189051,14878.5,1521528526.0,669125914.0,,1307171.5,1521528526.0,262396587.5,,0.4712453418345,-0.7223566535725,0.166147827449,-9.887901914099994e-05,0.999764766247,0.01306852781545,-0.017285189342350002,-0.07726044662855,-0.2003740202845,0.006723439173340001,-0.0523987765574,-0.031614734776150004,-0.092999062223,-2.8497374355815004,1.4271141290649996,12.6304907799,-0.817618727685,-1.4253475964075002,0.4984869509934999,1307524.0,1521528526.0,255482815.5,,,,,,812955.5,1521528526.0,664307695.0,,1.5909999400355002,0.365000001341,10.734999084450001,-0.300500005484,-0.184000000358,-0.047499999403949986,369.0,390.5,410.0,500.0,607.5,197.5,407.0,421.0,692.0,745.5,7.0,0.9899999797320002,-0.8350000083489999,1.9649982452150017,0.14249999821149995,0.13349999487400002,-0.018999999389049997,10.858393580696651,0.3555453604970866,13.026394571418082,1.7171503704558528,0.21485839348867394,0.11132811331391575
21,21,148.895753154,14889.5,1521528526.0,778105497.0,,1307182.5,1521528526.0,372390264.0,,0.460533423157,-0.7386473747535001,0.16201968290149998,0.01247319569295,0.9997686899815,0.0067989899431,-0.0161314642944,-0.151948936508,-0.119626434661,-0.04266047291455,-0.04169611883975,0.1695260685915,-0.1767270224535,6.6945738792450005,-0.5783648490925001,15.7692708969,0.9214906692505,3.0701087713249997,0.4557299762965,1307535.0,1521528526.0,365458418.0,,,,,,812966.5,1521528526.0,775691574.0,,-1.044000020625,-3.8100000105800005,10.15,0.16600000113250002,-0.5489999949934999,-0.1089999973775,377.0,433.0,445.0,513.0,612.0,292.0,368.0,385.0,667.0,706.0,7.0,-2.6349999606605,-4.175000011921,-0.5849990844500006,0.4665000066165,-0.3649999946354999,-0.06149999797355,10.891672788129682,0.5838133214539969,17.141228950782747,3.2376538932655605,0.19803756998334374,0.2484151660500389
22,22,148.998317256,14899.5,1521528526.0,877853035.5,,1307192.5,1521528526.0,472385187.0,,0.450398893786,-0.7445239042915,0.159387440017,0.0198329359763,0.9995521352394999,0.0074453779566399985,-0.0211271874546,-0.07611695823860001,-0.0338172817501,-0.02837600067485,0.0552448717353,0.07027540248365,-0.134642524045,3.807322502135,1.444984555245,15.696999072999999,0.6852743029595001,1.007003873589,0.498678177595,912267.5,1521528526.0,463236717.0,,,,,,812976.5,1521528526.0,875603793.5,,-0.1189999938012,-3.5650000058099995,9.869999313355,0.23950000107299999,-0.2985000014305,-0.08650000020865001,402.0,449.0,483.0,524.0,600.0,349.5,383.0,391.5,523.0,660.0,7.0,0.9250000268238,0.2450000047700005,-0.2800006866449998,0.0734999999405,0.250499993563,0.022499997168849983,10.494773579528916,0.3923579378629569,16.21664160354797,1.3161829646858942,0.0879920297002036,0.16161447128427933
23,23,149.100881359,14910.5,1521528526.0,987848520.0,,1307203.0,1521528526.0,577391866.5,,0.445841226632,-0.7414131517285,0.15737027345149998,0.02126557205035,0.999364343302,0.012855850933300002,-0.0255604840412,-0.025865134153700002,0.05495457260225,-0.009328878099615,0.12114821377,0.08470042853880001,0.032199112256150006,6.03949093819,-1.105719685557,15.48896932605,1.010506629942,1.675635695455,0.466187760234,912275.5,1521528526.0,573224024.5,,,,,,812987.5,1521528526.0,984504851.0,,0.521000021697,-1.54499996528,10.539999389650001,0.05000000074505,-0.293500006199,-0.08700000122189999,400.5,443.0,472.5,507.0,610.5,309.0,351.5,566.0,579.0,643.0,7.0,0.6400000154982,2.02000004053,0.6700000762950005,-0.18950000032795,0.004999995231499965,-0.0005000010132499844,10.6653669908328,0.310179389911594,16.661519666549783,2.011519241974009,0.061449476655886515,0.15128726028453995
24,24,149.20344546200002,14919.5,1521528527.0,78696012.0,,1307212.0,1521528526.0,667791693.0,,0.446896591698,-0.7367278260269999,0.156873765695,0.0224682699843,0.999264894394,0.0166404417833,-0.026228674616400004,0.017833873409400004,0.053825936782400004,-0.0165889446304,0.09423676401789999,0.00212525518554,-0.0025702309177399996,5.55543708801,-2.6971323490099994,15.4602193832,1.4668248891799998,1.50525617599,0.573757588863,1307564.5,1521528526.0,660488917.5,,,,,,812996.5,1521528527.0,73968386.5,,2.546000042555,-0.7299999974670001,10.379999542250001,-0.0185000002384,-0.243999995291,-0.05849999934435,419.5,430.5,463.5,494.0,536.0,301.0,356.0,569.0,622.0,667.0,7.0,2.025000020858,0.8149999678129999,-0.15999984739999995,-0.06850000098345001,0.04950001090800002,0.028500001877549995,10.7125817014435,0.2515959014652619,16.647996501789223,2.178662245886645,0.05908021322943836,0.09429576071669152
25,25,149.306009564,14930.5,1521528527.0,187913894.0,,1307220.0,1521528526.0,747385981.5,,0.45137515013,-0.7332255448660001,0.15659799784050002,0.0191124107033,0.999353561149,0.01719515523015,-0.02512919611745,0.057020826005299986,0.0402329486407,-0.002176331253549999,0.002200334883850002,-0.02283526599135,0.10687551450605,4.303564548494999,-2.44386649132,15.7288007736,1.34670162201,1.31541663408,0.6167519390585,912288.0,1521528526.0,741732419.5,,,,,,813007.5,1521528527.0,185283646.0,,1.535999932885,-1.605000027265,9.699999237065,-0.03399999905375,-0.4170000106095,-0.0620000008494,409.5,439.0,454.0,510.0,533.0,325.5,399.0,519.0,658.0,747.0,7.0,-1.0100001096699998,-0.875000029798,-0.6800003051850005,-0.015499998815349999,-0.17300001531850004,-0.003500001505050005,9.951145968199087,0.42295272654199034,16.489036509937737,1.9809869091619816,0.06981977637014514,0.10930995584771636
26,26,149.408573667,14941.5,1521528527.0,299293518.0,,1307231.5,1521528526.0,862375768.5,,0.457697277853,-0.7303059699309999,0.1569031829725,0.0145129830089,0.9995139403,0.016021367080199998,-0.0224483365005,0.07659432449749999,0.03561306762025,-0.00131834176482025,-0.02426171570495,-0.07304132279895001,0.10897154639625,1.802155315875,-0.9840267300615001,15.501004695899999,1.1473590731635,0.556100130081,0.628761291504,1307584.0,1521528526.0,855441269.0,,,,,,813018.5,1521528527.0,295356504.0,,2.07600001395,-2.020000048725,10.7699989319,0.0030000004917599982,-0.4315000027415,-0.07149999961254999,387.5,453.0,482.5,510.5,557.5,279.0,407.0,456.5,644.0,760.5,7.0,0.5400000810649999,-0.41500002146,1.0699996948349997,0.036999999545510004,-0.014499992131999928,-0.00949999876314999,11.152715061719121,0.4373939898003398,15.636406843336031,1.4216261671552366,0.08447910484588302,0.133410882648899
27,27,149.511137769,14952.5,1521528527.0,407891034.5,,1307243.0,1521528526.0,977377405.0,,0.465744736966,-0.7245172001360001,0.157100327937,0.00680413080717,0.999638191019,0.0158008962439,-0.020676618133900003,0.0425973153752,0.048808250259600006,-0.0034404210388100003,0.0237431568812,-0.00044626275407,0.12731513334300001,1.5654232502,-1.07199859619,15.5926427841,1.1368932724,0.658149659634,0.567604064941,912304.0,1521528526.0,962738289.0,,,,,,813029.5,1521528527.0,404970210.0,,0.27099999189385005,-2.020000048725,9.17499961853,0.028500000014900002,-0.4449999928475,-0.103499997407,371.0,434.0,470.0,484.0,608.0,331.0,372.0,415.5,561.0,778.0,7.0,-1.8050000220561497,0.0,-1.5949993133699998,0.025499999523140002,-0.013499990106000006,-0.03199999779445002,9.398641348220556,0.4577657622609771,15.707649090014899,1.4310351714204224,0.06487382420901577,0.12951092551316595
28,28,149.613701872,14960.5,1521528527.0,488135933.0,,1307251.0,1521528527.0,57382411.0,,0.468881448544,-0.7202430143970001,0.157150809898,0.0026401281736699997,0.999630576908,0.0172406896049,-0.0208446169728,0.040952124610900004,0.07245727473,-0.00928709928662,0.053695290580699995,0.0312523965666,0.150819978468,1.963367939,-1.7555352449400001,15.6957426071,1.2698884010299998,0.788349449635,0.5887305736540001,912309.5,1521528527.0,48216142.5,,,,,,813037.5,1521528527.0,485911828.0,,1.291000047328,-2.1150000177300003,9.624998474120002,0.02200000081215,-0.4305000007155,-0.09300000220535001,378.0,415.0,421.0,499.0,619.0,338.0,340.0,375.0,468.0,767.0,7.0,1.0200000554341502,-0.0949999690050003,0.4499988555900014,-0.006499999202749997,0.014499992131999984,0.010499995201650014,9.938838052006439,0.44097987602834576,15.915183117025514,1.606460424089341,0.08374594548158684,0.16311518147244855
29,29,149.716265974,14968.5,1521528527.0,568497538.0,,1307257.0,1521528527.0,117382703.0,,0.471341831047,-0.716962211391,0.157196139034,3.77939640416e-05,0.999623121905,0.0180665181507,-0.0206691471872,0.0298405655925,0.048310910105699996,-0.000381374110559,0.0284399044796,-0.00958664101016,0.09216103986339999,-0.0675336122513,-2.3751544952400003,15.8121547699,1.57179522514,-0.162192717195,0.6199820041659999,1307612.0,1521528527.0,135463924.0,,,,,,813045.5,1521528527.0,564869503.5,,-0.6890000034145001,-0.289999999851,9.284998321535,-0.0034999996424,-0.3994999974970001,-0.09850000217575,383.5,400.0,412.0,489.5,627.5,304.0,309.0,355.0,382.5,694.0,7.0,-1.9800000507425,1.825000017879,-0.3400001525850023,-0.025500000454550004,0.03100000321849994,-0.005499999970400003,9.315042395798665,0.41147873386874156,15.989689119314164,1.697416976695382,0.05678511104447649,0.09692465693191622
30,30,149.818830077,14982.5,1521528527.0,707913994.5,,1307275.5,1521528527.0,302379556.0,,0.474723010752,-0.711269704312,0.15673292865250002,-0.0012073110777010001,0.999572700251,0.0227301300445,-0.018333836245650003,0.004044988377665,0.02856003072275,-0.00791069950418,0.07544669094810001,-0.02705054248525,-0.0263701110084,0.9828144311925,-2.20219492912,15.835731029549999,1.34161221981,0.252269141376,0.656402498484,1307628.5,1521528527.0,300467860.0,,,,,,813059.5,1521528527.0,706375106.5,,-0.4340000007305,-1.46000004634,9.955000305175,-0.05049999989569999,-0.4204999953505,-0.06450000032785,312.0,347.0,412.5,445.5,632.0,229.5,332.5,452.0,524.0,560.5,-0.5,0.2550000026840001,-1.170000046489,0.6700019836400006,-0.047000000253300006,-0.02099999785349993,0.0340000018479,10.07084838590976,0.4284048857348955,16.018300907157872,1.5147367124520807,0.02991013962697771,0.0843760497911568
31,31,149.921394179,14990.5,1521528527.0,787872075.5,,1307282.5,1521528527.0,372376857.0,,0.4743649802615,-0.7114457763595001,0.1568013646645,-0.0009412589726755,0.9995695412100001,0.022727110709349997,-0.0185279572127,-0.00469369117383,-0.003262930957335,-0.0008277475578899996,-0.0050451578983,0.001877729996485,-0.001097965906815,0.8592529892919999,-1.759680867195,15.8646764755,1.17208445072,0.257658854127,0.6443637013435001,912331.5,1521528527.0,376740582.5,,,,,,813067.5,1521528527.0,785979713.5,,-0.3440000008795,0.19999999478475,9.984999084475,-0.048000000417250006,-0.415500000119,-0.09600000083465,314.0,318.5,407.0,414.5,635.0,184.5,352.0,428.0,467.5,636.0,-1.0,0.08999999985099999,1.66000004112475,0.02999877929999961,0.002499999478449991,0.004999995231499965,-0.031500000506799984,9.99292463273318,0.42913896385576294,15.985079046606634,1.3621213691660292,0.005776038546202544,0.005494089304971891
32,32,150.023958282,15000.5,1521528527.0,887866496.5,,1307293.0,1521528527.0,477379833.5,,0.4734533999730001,-0.7116977489225,0.156611123997,-0.0017194260308550002,0.9995599971525,0.022140528326,-0.019661463223600004,-0.01883728925852,-0.017440210406349996,0.0010445874151108002,-0.03286009276125,0.03058404634735,0.006726882123850003,0.9782724678505,-1.88691461086,15.63683986665,1.15482825041,0.2853102982045,0.6360656023025,912339.0,1521528527.0,482237986.0,,,,,,813077.5,1521528527.0,885812545.0,,-1.574000021815,-0.10500000491730002,9.654999160765001,-0.04549999907615,-0.364500001073,-0.0894999988377,253.5,266.0,338.0,401.0,550.0,183.0,220.5,240.5,344.5,576.0,-1.0,-1.2300000209355,-0.30499999970205005,-0.3299999237099982,0.002500001341100004,0.050999999046000055,0.006500001996949986,9.783021509946666,0.37807505933358654,15.780628149262185,1.3489290954824142,0.025692325089308667,0.0453918553306976
33,33,150.126522385,15011.5,1521528527.5,498051523.5,,1307304.5,1521528527.0,592378948.5,,0.4720112774585,-0.7131665439749999,0.157154124137,-0.0021156663602800003,0.9995542751225,0.0206119363857,-0.02148727063575,-0.02092488011735,-0.0134338787849,0.01689255178325,-0.0307101211217,0.04989125626180002,0.005588511108149999,-0.6060085594654999,0.1876634061337,14.008120059949999,0.3110514134165,-0.5483447909354999,0.610557824373,1307657.5,1521528527.0,590467926.0,,,,,,813088.5,1521528527.5,495962042.0,,1.4560000091799998,-0.7500000081964999,5.740000152585,-0.0154999997467,-0.24049999564900004,-0.0785000026226,147.5,153.5,174.0,185.0,194.0,-29.5,-26.0,-20.5,34.5,45.5,-1.0,3.030000030995,-0.6450000032791999,-3.9149990081800015,0.02999999932945,0.12400000542399993,0.010999996215100005,5.969090197903089,0.25346153221162565,14.022478081356402,0.8776194211830038,0.030061237713750882,0.05885134193114037
34,34,150.22908648700002,15023.5,1521528528.0,117914080.0,,1307314.5,1521528527.0,692530643.0,,0.472619359255,-0.7169279555835,0.16430353572599998,-0.0015152746089049998,0.9996902852845,0.0150604390305,-0.01975237206955,0.01285988341491,-0.0506472394415,0.0899058022927,-0.15754459876750002,-0.0766365307363,-0.016897805979994997,-0.5153795033694499,0.6746469289065,10.009805679325,0.3028925210235,-0.5257761627435,0.6887420713904999,912354.0,1521528527.0,693296869.0,,,,,,813100.5,1521528528.0,116508613.0,,0.700999984145,-0.8000000201165,-0.49999961853,-0.029499999247450007,-0.159000001848,-0.09600000083435,61.0,64.5,98.0,103.0,109.0,-96.0,-87.5,-80.0,-79.0,-69.0,-1.0,-0.7550000250349999,-0.05000001192000003,-6.239999771115,-0.013999999500750008,0.08149999380100004,-0.01749999821175001,1.175330008332909,0.18806182681091543,10.045744086379234,0.9179052747993811,0.10398832987592295,0.17600850630309314
35,35,150.33165059,15030.5,1521528528.0,187863468.5,,1307320.0,1521528527.0,747525330.0,,0.474003374252,-0.720567847693,0.17017896468,-0.000997762231865,0.999804793418,0.0097679962579,-0.0171454302122,0.0401043828656,-0.0682074374191,0.114074300886,-0.21199754270399998,-0.130063786351,-0.0263657151618,-0.269954204559,1.09377336502,7.698312282560001,-0.0318470001221,-0.42749452590899994,0.617712497711,517043.0,1521528527.0,747000064.0,,,,,,813107.5,1521528528.0,185872342.5,,0.5160000115635001,-1.3349999867349998,-1.3450008392299997,-0.041500000283150006,-0.1429999992255,-0.06450000032785,59.5,64.0,70.0,76.0,85.0,-112.0,-89.0,-81.0,-81.0,-80.0,-1.0,-0.18499997258149992,-0.5349999666184998,-0.8450012206999997,-0.012000001035699998,0.01600000262250001,0.031500000506500016,1.9640540303274208,0.16226983652018356,7.7803102410122715,0.7518873126521686,0.13882925544329888,0.25010937121284765
36,36,150.434214692,15042.5,1521528528.0,307920932.5,,1307333.0,1521528527.0,877520134.0,,0.4788576408735,-0.72709237541,0.18270375479000006,-0.0005779645700669999,0.999950038508,-0.0014543492091400002,-0.009836648447985,0.038077445125650006,-0.05071301121635,0.0925222129821,-0.1852047467705,-0.1197537438495,-0.007507405195505002,-1.8298945873995,1.6489889621724998,5.976531505585,0.07884365320250003,-0.8260726630705001,0.6757039129735001,912366.0,1521528527.0,873816110.5,,,,,,813119.5,1521528528.0,306350184.0,,-0.4189999982715,-1.4250000797199998,-0.345000839233,-0.056499999016550013,-0.142499998212,-0.07099999859930001,57.0,59.5,60.5,66.5,70.5,-115.0,-112.0,-89.0,-85.0,-85.0,-1.0,-0.935000009835,-0.090000092985,0.9999999999969996,-0.01499999873340001,0.0005000010135000067,-0.006499998271450008,1.5248645201541668,0.16893637613134346,6.464256154857327,1.0701346384125707,0.1121697875055115,0.22067650197759203
37,37,150.536778795,15052.5,1521528528.0,407864451.0,,1307342.0,1521528527.0,967525496.0,,0.481063800099,-0.729983704075,0.188083512271,-0.0016169674460599999,0.999958590518,-0.00603481231425,-0.006616925663130001,0.0342581165197,-0.016558063451200002,0.0425335256607,-0.0927357599681,-0.0779827250926,0.0384314185918,0.011060476303100001,0.008143782615659999,5.4792866706800005,0.628460407257,-0.150292932987,0.720645308495,912373.0,1521528527.0,973793795.5,,,,,,813129.5,1521528528.0,406251324.0,,-0.7990000009539999,-0.8400000117694999,-0.4150005340575,-0.04900000058115,-0.120499998331,-0.0559999998659,63.0,67.0,69.5,70.5,96.5,-121.0,-103.0,-90.0,-85.0,-84.0,-1.0,-0.3800000026824999,0.5850000679504999,-0.06999969482450003,0.007499998435400015,0.021999999880999987,0.01499999873340001,1.2313514788902729,0.14162361963918485,5.479303885971544,0.9679256737225865,0.05706915820178823,0.12711491070959077
38,38,150.639342897,15064.5,1521528528.0,527827024.0,,1307355.0,1521528528.0,97525391.5,,0.4822693090435,-0.7282589134399999,0.18742565535750005,-0.00252537507262,0.9999643809065,-0.0046619327727950004,-0.0065529725594700005,-0.013094021001014998,0.022404531156875,-0.02305854812405,0.0728439989635,0.0403072995195,-0.00022462880867500038,-2.29204666615,1.701653301715,6.88025212288,-0.1248579472301,-1.030699789525,0.6773728430270001,912382.5,1521528528.0,98790495.0,,,,,,813141.5,1521528528.0,525679957.0,,-0.3289999984205,-2.55500001535,-0.02499923706054,-0.056499999016550013,-0.118000000715,-0.04199999943375,57.5,61.5,65.5,71.5,85.0,-110.0,-100.5,-91.0,-87.0,-79.0,-1.0,0.4700000025335,-1.7150000035805002,0.39000129699696,-0.007499998435400008,0.0024999976160000052,0.014000000432150002,2.5762164193353008,0.13740542205475428,7.448957722624128,1.2396634751350362,0.03471473813704396,0.08325248967839195
39,39,150.741907,15073.5,1521528528.0,617857455.5,,1307363.5,1521528528.0,182534323.5,,0.4812622254025,-0.7262956687090001,0.18478684238499998,-0.002500485291805,0.9999632804525,-0.0015886955600250001,-0.008018642100425001,-0.002195081362505,0.01990292242985,-0.02721412594035,0.0559807261625,0.02645348640795,0.020418256110150003,-2.0985854864099998,1.50626206398,8.443159103390004,-0.2253091037275,-1.006289780139,0.6314486265185,912388.5,1521528528.0,189302267.0,,,,,,813150.0,1521528528.0,611203906.0,,-0.0389999955893,-0.195000001043,0.05499877929690001,-0.0579999983311,-0.11400000006,-0.0710000023246,48.0,52.5,54.5,59.5,65.0,-117.0,-108.0,-91.5,-88.0,-83.0,-1.0,0.29000000283120003,2.360000014307,0.07999801635744001,-0.001499999314549992,0.004000000655000002,-0.029000002890850012,0.20632708447240886,0.14629080678628034,8.829485947342205,1.2091776882521388,0.03378688139106469,0.06519611819269676
