,Unnamed: 0,.header.seq,.header.stamp.secs,.header.stamp.nsecs,.header.frame_id,.endpoint_state.header.seq,.endpoint_state.header.stamp.secs,.endpoint_state.header.stamp.nsecs,.endpoint_state.header.frame_id,.endpoint_state.pose.position.x,.endpoint_state.pose.position.y,.endpoint_state.pose.position.z,.endpoint_state.pose.orientation.x,.endpoint_state.pose.orientation.y,.endpoint_state.pose.orientation.z,.endpoint_state.pose.orientation.w,.endpoint_state.twist.linear.x,.endpoint_state.twist.linear.y,.endpoint_state.twist.linear.z,.endpoint_state.twist.angular.x,.endpoint_state.twist.angular.y,.endpoint_state.twist.angular.z,.endpoint_state.wrench.force.x,.endpoint_state.wrench.force.y,.endpoint_state.wrench.force.z,.endpoint_state.wrench.torque.x,.endpoint_state.wrench.torque.y,.endpoint_state.wrench.torque.z,.joint_state.header.seq,.joint_state.header.stamp.secs,.joint_state.header.stamp.nsecs,.joint_state.header.frame_id,.joint_state.name,.joint_state.position,.joint_state.velocity,.joint_state.effort,.wrench_stamped.header.seq,.wrench_stamped.header.stamp.secs,.wrench_stamped.header.stamp.nsecs,.wrench_stamped.header.frame_id,.wrench_stamped.wrench.force.x,.wrench_stamped.wrench.force.y,.wrench_stamped.wrench.force.z,.wrench_stamped.wrench.torque.x,.wrench_stamped.wrench.torque.y,.wrench_stamped.wrench.torque.z,.tactile_values.tactile_values_0,.tactile_values.tactile_values_1,.tactile_values.tactile_values_2,.tactile_values.tactile_values_3,.tactile_values.tactile_values_4,.tactile_values.tactile_values_5,.tactile_values.tactile_values_6,.tactile_values.tactile_values_7,.tactile_values.tactile_values_8,.tactile_values.tactile_values_9,.tag,.delta_wrench.force.x,.delta_wrench.force.y,.delta_wrench.force.z,.delta_wrench.torque.x,.delta_wrench.torque.y,.delta_wrench.torque.z
0,47.682084,4768.5,1521528839.0,211300968.5,,1338422.0,1521528838.0,766808549.5,,0.5735037059635,-0.07704611027580001,0.059290303852849995,-0.062357736555550006,0.979621060947,-0.1908538245215,0.00537001353012,0.01927812247795,0.0779281659611,0.004845247571505,-0.005433134390625,-0.0439734515551,-0.0521867935247,1.974855065345,5.38441610336,4.28357887268,-1.67504799366,1.112548083069,-0.3275314569475,529345.0,1521528838.0,776000000.0,,,,,,844176.5,1521528839.0,207661950.5,,-2.36600000262,-2.19599990845,-2.1029994964600003,-0.0240000002086,-0.08899999782445,-0.102499999106,77.5,81.5,88.0,98.0,155.5,372.5,375.0,397.0,500.0,530.0,4.0,0.0,0.0,0.0,0.0,0.0,0.0
1,47.7846481026,4776.5,1521528839.0,288059472.5,,1338429.0,1521528838.0,836797664.0,,0.5751051911789999,-0.0711330127507,0.0586195319477,-0.0608892861466,0.979936996764,-0.189665129804,0.00656625780566,0.0349264450096,0.103654385756,0.000842612955984,0.0552346086209,-0.0768125480235,0.00453446372141,0.355837523937,4.20883226395,5.38585567474,-1.27809107304,0.653095722198,-0.145999670029,934065.5,1521528838.0,839942949.5,,,,,,844184.5,1521528839.0,285552067.5,,-1.600999987125,-1.2060000181185,-1.1780002594,-0.049000000581150005,-0.13050000369550002,-0.12549999728800001,74.5,76.0,79.5,86.5,91.0,383.5,385.5,399.5,508.5,518.5,4.0,0.7650000154949999,0.9899998903315002,0.9249992370600002,-0.025000000372550006,-0.041500005871050016,-0.02299999818200002
2,47.8872122051,4787.5,1521528839.0,397762417.5,,1338440.5,1521528838.0,951805793.5,,0.5768545697309999,-0.06088120881855001,0.05590013033935,-0.06292958658469999,0.9804289915245,-0.1863855968245,0.007692846307665,0.02736537593275,0.07808226627744999,-0.03011591705775,0.07366614922430001,-0.0253409013287,-0.0009919220347999957,0.58874642849,3.7711341381050003,4.089475750925,-1.2635662555699998,0.71062874794,-0.144154265523,1338794.0,1521528838.0,954872260.5,,,,,,844195.0,1521528839.0,392430775.0,,-3.5409999847400004,-1.41600005627,-0.7530010223389999,-0.0219999998808,-0.105999998748,-0.129999995232,64.5,67.0,70.5,76.5,82.5,389.0,418.0,420.0,520.0,536.0,4.0,-1.9399999976150004,-0.21000003815149992,0.4249992370610002,0.027000000700350003,0.02450000494750003,-0.004499997943999995
3,47.989776307700005,4800.5,1521528839.0,527675986.0,,1338456.5,1521528839.0,111810404.0,,0.575442565938,-0.056201856992600004,0.0490234529189,-0.06580211449735,0.98011735651,-0.18709999593350002,0.005796870689955,-0.02876832997355,0.008475091205384998,-0.052971771756150005,-0.019722439396625,0.047509334964049986,0.012797856496764999,1.8765981197350001,3.2377345562000004,4.597847461700001,-1.2030902504899998,1.041567325593,-0.346161022782,1338808.0,1521528839.0,94904882.0,,,,,,844207.5,1521528839.0,517160945.0,,-1.360999977585,-2.45600001812,-1.10300140381,-0.0164999994449,-0.10000000149,-0.1064999997615,67.0,69.0,81.5,85.0,96.5,390.5,395.5,400.5,516.0,545.0,4.0,2.1800000071550008,-1.0399999618500002,-0.3500003814710001,0.0055000004359000015,0.005999997257999989,0.02349999547050001
4,48.0923404103,4807.5,1521528839.0,597944497.5,,1338463.5,1521528839.0,181804090.0,,0.5745284385025,-0.056243772606650005,0.045953721661399986,-0.06637086815205001,0.9800640489585001,-0.187206955252,0.004764880223135,-0.004361070370245,-0.0019490276909250005,-0.050183381063550005,-0.005344787424649999,0.017748934389549997,0.0383431098044,1.79150903225,2.932883262635,5.76235580444,-0.8844204843054999,0.667150855064,-0.27185665071,934089.0,1521528839.0,182447097.5,,,,,,844215.5,1521528839.0,596518497.5,,-2.980999982355,-1.0459999918915002,-1.247999954225,-0.01250000018625,-0.102000001818,-0.1279999986295,73.5,76.5,79.0,83.0,91.0,411.0,415.0,424.0,541.5,557.5,4.0,-1.6200000047700003,1.4100000262285,-0.14499855041499998,0.00399999925865,-0.00200000032799999,-0.02149999886800001
5,48.1949045128,4819.5,1521528839.0,717668533.0,,1338475.5,1521528839.0,301803304.5,,0.5740469708685,-0.0576576428176,0.03769125076365,-0.06879236392485,0.980161174165,-0.1857861541085,0.00593102741737,0.014419204351715,-0.032298403655100005,-0.0726124973951,0.01574524337685,-0.07818784966714999,-0.01255289389345,0.5742380321025,2.6808689832700003,4.63376736641,-0.956578195097,0.3510724455115,-0.1598332598805,1338828.0,1521528839.0,294904439.0,,,,,,844227.5,1521528839.0,716092095.5,,-1.335999941828,-2.380999970435,-1.39299850464,-0.019500000402349997,-0.1125000007455,-0.120000001043,65.5,68.0,83.0,104.0,142.0,413.0,416.5,431.0,538.5,569.0,4.0,1.6450000405270002,-1.3349999785434998,-0.14499855041499998,-0.0070000002160999966,-0.010499998927500004,0.00799999758650001
6,48.2974686154,4826.5,1521528839.0,787716984.0,,1338482.5,1521528839.0,371811946.0,,0.575179387271,-0.059999041335399995,0.03371140942245,-0.07022119066219999,0.9801328716165,-0.185311819745,0.008245030465035,0.01621482574426,-0.052458748311599995,-0.05146798623669999,-0.00964242292025,-0.030931264027750007,0.03377472426545,1.522361397745,2.0147936940149997,5.246822118755,-0.435193434358,0.7978956997394999,-0.270765334368,1338834.5,1521528839.0,359892947.0,,,,,,844234.5,1521528839.0,786122670.5,,-1.8259999513599998,-2.8859999656650004,-1.172999191282,-0.05800000019375001,-0.122500002384,-0.111500002444,69.0,75.0,88.0,98.0,124.0,398.0,410.0,414.0,534.0,563.5,4.0,-0.49000000953199985,-0.5049999952300004,0.21999931335800005,-0.038499999791400015,-0.010000001638499997,0.008499998598999997
7,48.4000327179,4839.5,1521528839.0,917657970.5,,1338494.5,1521528839.0,492127722.5,,0.5754286245575,-0.0664964901889,0.02665058695405,-0.07196136007239999,0.9797985653755,-0.186431434775,0.007711560720479999,0.0305361685946,-0.06753002802630001,-0.059879946104499995,-0.014805074228335,-0.021632013880580003,0.0297875106746,3.040984392165,-0.7117344439020001,3.7710024118449996,0.4369700774553,1.189864993095,-0.332461386919,1338847.5,1521528839.0,490160583.5,,,,,,844247.5,1521528839.0,916116895.5,,-1.4859999775900001,-1.990999925135,-2.31799964905,-0.010000000242135,-0.08700000122189999,-0.1079999990765,79.5,84.0,87.0,98.0,135.0,394.0,401.5,414.5,533.0,549.0,4.0,0.3399999737699997,0.8950000405300005,-1.145000457768,0.04799999995161501,0.0355000011621,0.003500003367500004
8,48.5025968205,4849.5,1521528840.0,17673015.5,,1338503.0,1521528839.0,577313115.0,,0.576604335978,-0.0704275649734,0.020410638750950002,-0.07193101578630001,0.9801232067945,-0.18474904726,0.007169241479140001,0.0238877235181,-0.054265439501050006,-0.0636622835243,0.015101669004064747,0.004774798032325,-0.0009476219404500053,2.4914267063119997,-0.8716277182115001,5.06537723541,0.692103892565,1.1542009860275,-0.1989570111034,934116.5,1521528839.0,580192409.0,,,,,,844257.5,1521528840.0,16145264.0,,-1.86099997759,-2.221000003815,-0.6079986572264999,0.0035000005737149988,-0.091500002891,-0.118499998003,77.0,80.5,87.0,107.0,116.5,339.0,348.5,354.0,436.0,466.0,4.0,-0.3749999999999998,-0.23000007868000005,1.7100009918235,0.013500000815849999,-0.004500001669100015,-0.010499998926499998
9,48.6051609231,4860.5,1521528840.0,127756475.5,,1338513.5,1521528839.0,682295859.0,,0.5782936010105,-0.0787478610897,0.0127431425232,-0.07096923554085001,0.9799328423495001,-0.18616980368500002,0.00597757506618,0.0181001710513,-0.11407875700850001,-0.08449074151380001,-0.08327224872205001,0.01156447295834,0.06102310915425,2.556582570075,1.4859049916279998,1.7792918980125,-0.5973348766565,1.190355598925,-0.318945840001,934124.0,1521528839.0,686196787.5,,,,,,844268.0,1521528840.0,122102417.0,,-1.66099998951,-2.0460000515,-1.18300132751,-0.0480000004172,-0.112999998033,-0.112000003457,72.5,78.5,83.0,84.5,131.0,293.0,303.0,321.0,381.0,410.0,4.0,0.19999998807999986,0.17499995231499987,-0.5750026702835,-0.05150000099091499,-0.02149999514199999,0.006499994546000004
10,48.707725025600006,4869.5,1521528840.0,217667459.5,,1338523.0,1521528839.0,777297014.0,,0.579972172704,-0.08685401690479999,0.00621521390897,-0.0692261354213,0.979651440038,-0.188336734842,0.00448023605262,0.0155445675974,-0.083160226458,-0.0862679250045,-0.0472510983479,0.0397207543763,-0.05761005763860001,0.62284964323,3.90692520142,4.46127414703,-1.25931715965,0.434899419546,-0.181910693645,934129.5,1521528839.0,771690243.5,,,,,,844277.0,1521528840.0,212267296.0,,-2.29099998474,-2.03600006104,-1.3329990387,-0.0599999986589,-0.082000002265,-0.112000003457,76.0,79.0,81.0,87.5,110.5,285.5,296.5,310.0,372.0,408.0,4.0,-0.6299999952299999,0.009999990459999886,-0.14999771118999994,-0.011999998241700005,0.030999995768,0.0
11,48.8102891282,4881.5,1521528840.0,337661504.0,,1338535.0,1521528839.0,897290263.0,,0.583401923731,-0.0955727404778,-0.00268476780606,-0.0668827783092,0.979649054032,-0.189222799693,0.0030260495322,0.0360287337926,-0.0933425963848,-0.0700707253004,-0.0576840950932,0.0186073845997,-0.0241355907154,-0.13291138410599998,3.04679226875,5.65443372726,-0.629417538643,0.221267282963,0.166717872024,934139.0,1521528839.0,897694159.5,,,,,,844289.0,1521528840.0,331577636.0,,-1.7310000419599998,-2.17599992752,-0.483000564575,-0.0610000006855,-0.0790000036359,-0.0869999974966,83.5,90.0,95.5,101.0,119.5,293.0,298.5,304.5,395.0,409.0,4.0,0.5599999427800002,-0.13999986647999973,0.849998474125,-0.0010000020265999998,0.002999998629099998,0.025000005960399987
12,48.912853230799996,4891.5,1521528840.0,437780976.0,,1338544.5,1521528839.0,992295692.5,,0.5875429186500001,-0.102552213546,-0.008339237155400001,-0.06755959472095,0.979574583606,-0.189379457941,0.002143814242445,0.0427892859944,-0.04574751776125,-0.06445102151610001,0.0707516229622,-0.013479073505521504,-0.08823384846380002,3.29051733017,-1.924612939355,5.167085886005,1.21375238895,1.836780309675,-0.194135323167,934145.5,1521528839.0,992694058.0,,,,,,844299.0,1521528840.0,431597894.5,,-1.0859999418244999,-3.93100004196,-0.8630016326899999,-0.05700000002979999,-0.05850000027555,-0.06949999928475,86.5,87.5,90.0,90.0,114.0,287.0,289.5,303.0,399.0,401.0,4.0,0.6450001001354999,-1.75500011444,-0.38000106811499984,0.004000000655700012,0.020500003360349996,0.017499998211850012
13,49.0154173333,4899.5,1521528840.0,517660021.5,,1338555.5,1521528840.0,102296487.0,,0.591239067924,-0.1120796888415,-0.01424629125405,-0.06769778191575,0.9795995115,-0.1892116766795,-7.099486458300002e-05,0.0440422833913,-0.114417145948,-0.054614395116650005,-0.049572640819849995,0.0024650835194099997,-0.0512795537229,2.950584173205,3.061802864075,4.0957419872299985,-1.0175173878650001,1.3019154071799999,-0.33442384004599995,1338908.5,1521528840.0,100387888.5,,,,,,844307.0,1521528840.0,511588168.0,,-1.48100004196,-1.56600003242,-1.49299888611,-0.07199999690060001,-0.0289999991655,-0.105999998748,74.0,77.0,80.0,81.0,152.0,281.0,296.0,300.0,384.5,390.0,4.0,-0.39500010013550013,2.36500000954,-0.6299972534200002,-0.014999996870800017,0.029500001110050002,-0.03649999946325
14,49.1179814359,4911.5,1521528840.0,638888477.5,,1338567.5,1521528840.0,222295726.5,,0.593944010378,-0.122235952648,-0.0189087290798,-0.0651197492999,0.978904931084,-0.19365713473700003,-0.0010891034809695,0.0304712525531,-0.05772377224294999,-0.040073915303449996,-0.0188821812601,-0.013228576702535,-0.06635724736114999,1.9950259327900002,2.4909605979900005,4.987606287,-0.315877772868,1.26379942894,-0.185726389289,1338919.0,1521528840.0,205382067.0,,,,,,844319.5,1521528840.0,637012794.0,,-1.99099997282,-2.8960000753400004,-1.7829998016350004,-0.02749999985095,-0.0719999987632,-0.09849999845045,68.5,70.0,70.5,94.0,116.5,277.0,288.0,300.0,353.5,374.5,4.0,-0.5099999308600001,-1.3300000429200003,-0.2900009155250003,0.044499997049650006,-0.0429999995977,0.007500000297549991
15,49.220545538500005,4919.5,1521528840.0,717704891.5,,1338575.5,1521528840.0,302295389.0,,0.594476283788,-0.124463354376,-0.0236887153608,-0.06314364783545001,0.9792482419265,-0.19256338578749999,-0.00223735991285,0.0047037496094085,-0.0044765509232549995,-0.06673900989385,0.043586032657350005,0.013291642970845,0.011818994850649998,3.347495794295,3.5675456523900007,2.6523243188849994,-1.159084498885,1.4310730099700002,-0.3234037011865,1338928.5,1521528840.0,300384606.5,,,,,,844327.0,1521528840.0,711236534.0,,-1.880999958515,-2.536000061035,-0.5980003356929999,-0.01949999993665,-0.08799999952314999,-0.09899999946365,60.5,62.5,63.5,78.0,97.0,256.0,269.5,285.0,352.0,366.0,4.0,0.11000001430500017,0.36000001430500017,1.1849994659420005,0.007999999914299998,-0.016000000759949992,-0.0005000010131999966
16,49.323109641,4933.5,1521528840.0,857766031.5,,1338589.5,1521528840.0,442295338.5,,0.597612105709,-0.1278983560995,-0.0291180349792,-0.0656137882394,0.977672110147,-0.199598847457,-0.0034932852202,0.033683643085800005,-0.05954680455645,-0.013373331121150002,-0.209952739716,0.008681469282995001,0.0252690216463,2.306945085525,1.3722959756839999,1.3742682896575,0.5965244397520001,0.692635163664,-0.00188969075699999,1338942.5,1521528840.0,440389860.5,,,,,,844341.0,1521528840.0,852506782.0,,-0.121000027657,-4.84600000381,-8.393000411989998,0.674000024796,0.236000001431,0.0209999997169,73.5,77.5,86.5,101.5,124.0,258.0,259.0,271.5,344.5,357.5,4.0,1.7599999308579999,-2.309999942775,-7.795000076296999,0.6935000247326499,0.32400000095415,0.11999999918055
17,49.425673743599994,4941.5,1521528840.0,939020990.5,,1338595.5,1521528840.0,502334665.5,,0.599023419243,-0.1306063675335,-0.03004502945205,-0.06302658880805001,0.9771064272845,-0.203133454668,-0.00522636186623,0.0297116585464,-0.02505102031885,-0.014242447721249999,-0.07225785138600001,0.032943254659299995,-0.10683703694295,4.9525744915,0.7052175775145,-1.3705801963799997,0.5269237607714999,1.525317549705,-0.3044512569905,1338948.0,1521528840.0,495416655.5,,,,,,844349.0,1521528840.0,932096311.5,,-1.79099998474,-6.611000108719999,-8.557999420165,0.6759999990465,0.2364999949935,0.0364999994636,101.0,102.5,104.5,107.0,117.0,266.0,279.0,306.0,339.5,367.5,4.0,-1.669999957083,-1.7650001049099986,-0.1649990081750019,0.001999974250500025,0.0004999935624999952,0.015499999746699997
18,49.5282378462,4953.5,1521528841.0,57671904.0,,1338607.0,1521528840.0,617341302.0,,0.606513439773,-0.132580950496,-0.0317969189348,-0.0590666801557,0.976678633669,-0.206398070355,-0.00313215319569,0.07613659948410001,-0.0228819871292,-0.0312414331131,-0.0528002455682,-0.0700550756861,-0.0166342369972,3.50613307953,1.74587726593,-2.18651247025,0.795814692974,0.59256029129,0.127501070499,1338960.0,1521528840.0,615412678.0,,,,,,844361.0,1521528841.0,53024702.5,,-1.6960000157350001,-9.021000194550002,-9.733000564575,1.1004999876,0.475999996066,0.1449999958275,97.0,102.0,106.0,111.0,127.0,274.0,275.0,275.5,343.5,367.0,4.0,0.09499996900499985,-2.410000085830003,-1.1750011444100004,0.4244999885534999,0.23950000107250002,0.10849999636390001
19,49.6308019487,4960.5,1521528841.0,127667545.5,,1338613.0,1521528840.0,677332102.0,,0.611847179585,-0.134131366346,-0.032828338258700004,-0.0574714923718,0.976445159344,-0.207969920968,-0.000624765088783,0.08595551827539999,-0.011976002576,-0.020546508057400003,-0.049793191574599986,-0.0967179442724,-0.00887918253606,4.36263465881,4.16636419296,-7.10715723038,-0.6166819930080001,0.7681761980060001,-0.07392056286330001,934193.0,1521528840.0,682711152.5,,,,,,844368.0,1521528841.0,122696277.0,,-0.791000103951,-9.1060002327,-10.9530017853,1.30499994755,0.488000005484,0.112000003457,88.5,90.5,98.0,99.0,100.0,274.0,284.0,305.0,350.5,392.5,4.0,0.9049999117840002,-0.08500003814999779,-1.220001220724999,0.20449995995000014,0.012000009418000002,-0.03299999237050001
20,49.7333660513,4973.5,1521528841.0,259629964.5,,1338627.0,1521528840.0,817347122.0,,0.621970847441,-0.136367332361,-0.0346535121055,-0.054995302069300006,0.97591399303,-0.211059312562,0.00462185457313,0.0805913327849,-0.0400728015053,-0.016105993786,-0.0589212814193,-0.109135509466,0.00344513769775,3.15559768677,3.0799665451,-5.93192434311,0.458958864212,0.607761502266,-0.00787341594696,934203.5,1521528840.0,817722690.0,,,,,,844381.5,1521528841.0,258059791.5,,-2.485999977590001,-11.97600011825,-11.283001709,1.525000035765,0.3844999969005,0.01599999982865,85.5,87.0,90.0,94.5,101.0,297.5,304.0,305.5,367.0,397.5,4.0,-1.694999873639001,-2.8699998855500013,-0.32999992370000086,0.22000008821499994,-0.1035000085835,-0.09600000362835
21,49.8359301538,4983.5,1521528841.0,357978462.5,,1338635.0,1521528840.0,897336703.0,,0.6235473119080001,-0.141171661541,-0.034428689801500004,-0.0547667058689,0.975116428347,-0.214766498679,0.00488979967653,-0.017116930718300002,-0.0650779247033,0.0017771369821199996,-0.0795615725205,0.0330867868333,-0.0733107062659,4.3972325325,4.5087556839,-1.85324501991,-0.497812867165,1.90771555901,-0.448941260576,1338989.5,1521528840.0,910423449.0,,,,,,844391.0,1521528841.0,353187661.0,,-1.425999975205,-4.756000089645,-5.5230014801,0.5640000104905001,0.06299999915065,-0.08850000053645,129.0,135.5,138.5,144.0,152.0,299.0,303.0,323.5,412.0,420.0,4.0,1.060000002385001,7.220000028605001,5.760000228900001,-0.9610000252744999,-0.32149999774985005,-0.1045000003651
22,49.938494256400006,4994.5,1521528841.0,468354463.0,,1338650.0,1521528841.0,47342028.5,,0.6240515153265,-0.143366614631,-0.03399224987185,-0.0513281609789,0.9753274318975,-0.2146688192365,0.004369985151205,-0.0016472462729165,0.01129674013742,-0.009128072645375,0.027992196886049998,-0.007571295444439998,0.0024314797467999967,3.98659002781,4.6659018993400005,-1.6309900283799998,-1.440976023675,1.779087245465,-0.513993054628,1339003.0,1521528841.0,45392837.0,,,,,,844401.5,1521528841.0,457295750.5,,-1.925999975205,-2.620999979970001,-4.118000793455,0.213499993086,0.015499999746685,-0.08000000193715001,106.0,112.0,120.0,121.5,136.0,302.0,304.0,310.0,387.0,395.5,4.0,-0.5,2.135000109674999,1.4050006866449998,-0.3505000174045001,-0.047499999403964994,0.008499998599299993
23,50.041058359,5002.5,1521528841.0,550500511.5,,1338658.5,1521528841.0,132333972.0,,0.6233763965970001,-0.142619620698,-0.0344501565367,-0.0519282151399,0.975366380508,-0.214355354623,0.0039445023267,-0.015446540626085,0.0007923954827345,-0.001921412018425,-0.0050667801764499995,0.027364884134235,0.002962000141455,5.113809585569999,4.314469337465002,-1.353361070155,-1.01923662424,2.2335023880000002,-0.698750525713,934224.5,1521528841.0,118709589.0,,,,,,844410.5,1521528841.0,548590995.0,,-2.4610000014300004,-4.996000099180001,-5.518000411985001,0.5245000123979999,-0.015500000212325,-0.0960000008344,95.0,99.0,108.5,119.5,163.5,304.0,310.5,316.0,384.0,392.5,4.0,-0.5350000262250003,-2.3750001192099996,-1.3999996185300008,0.31100001931199994,-0.03099999995901,-0.015999998897249984
24,50.143622461499994,5014.5,1521528841.0,671123981.0,,1338670.5,1521528841.0,252331931.0,,0.6240163987565001,-0.14217631844450002,-0.0337233367285,-0.0516536221168,0.9753888307155,-0.2143027074565,0.004743095531505001,0.008017562622260001,0.0006811307256050001,0.004546007815725001,0.014858349093745001,-0.017419115088272,-0.013198470909799998,3.559328079225,3.188975214955,-0.7826588749885001,-0.546978086233,1.6963857412299999,-0.4441248327495,1339023.0,1521528841.0,245410571.5,,,,,,844422.0,1521528841.0,664478769.0,,-2.345999991895,-6.44599990845,-5.857998657225,0.516999989748,0.023000000044685002,-0.05900000222025,78.0,80.5,84.0,99.0,120.0,299.0,309.5,323.0,363.5,371.0,4.0,0.11500000953500056,-1.4499998092699995,-0.33999824523999944,-0.007500022649999938,0.03850000025701,0.036999998614149994
25,50.2461865641,5024.5,1521528841.0,767737984.5,,1338679.5,1521528841.0,342355749.0,,0.6236143669915001,-0.141784874992,-0.03411170729375,-0.05114919386135,0.9754632167945001,-0.214091013931,0.004505740820625,-0.002615870438135,0.01030242607191,-0.00777239759101,0.008478799846430001,-0.0013973987145800006,0.006912582881605,3.8217980861650003,3.41690850258,-0.8067049980165,-0.6215683519840001,1.8022630214700002,-0.495732113719,934239.0,1521528841.0,340705369.5,,,,,,844432.5,1521528841.0,768259171.0,,-3.41099999137,-4.510999965670001,-5.153000640869999,0.426499992609,0.012999999802585,-0.09549999982115,66.5,72.0,73.5,75.5,78.5,291.5,296.0,301.5,366.0,374.5,4.0,-1.0649999994750003,1.9349999427799993,0.7049980163550007,-0.09049999713899998,-0.010000000242100002,-0.036499997600899996
26,50.3487506667,5033.5,1521528841.0,857807993.0,,1338688.5,1521528841.0,432337330.0,,0.6236152170955,-0.142243945338,-0.0340207929656,-0.0514487589272,0.975316571908,-0.214681356078,0.00473904607027,0.0013249263810500005,0.013315855686549995,-0.00455983143792,0.01180199361205,-0.007300315053449999,0.0030962511647549987,3.8783408403400004,3.5938541889199995,-0.8517619371415001,-0.6824929714205,1.7699012160299998,-0.5091160833835,1339041.0,1521528841.0,425425401.0,,,,,,844440.5,1521528841.0,848836354.5,,-3.3759999856350005,-5.5509999275199995,-5.15299873352,0.44650000333800005,0.006499999901279999,-0.09649999812245,60.5,68.5,86.0,92.0,113.0,286.0,290.5,298.5,371.0,373.5,4.0,0.03500000573499973,-1.0399999618499987,1.907349999719088e-06,0.02000001072900004,-0.006499999901305001,-0.0009999983013000008
27,50.4513147692,5046.5,1521528841.0,987678050.5,,1338698.0,1521528841.0,527431797.0,,0.623770944583,-0.141667807455,-0.0337809149439,-0.050562458144,0.975562125084,-0.213770428833,0.00491748766804,0.0047965685568400005,0.00934473995648,0.00843719012645,0.00195866797766,-0.0108668584473,0.0214116265463,3.77144193649,3.4651648998300004,-0.3137396276,-0.610094964504,1.76961529255,-0.481654882431,529454.5,1521528841.0,536499968.0,,,,,,844453.5,1521528841.0,979798750.5,,-3.90599999428,-5.010999965670001,-5.118000793455,0.3760000020265,0.02749999985095,-0.0765000022948,59.0,65.5,67.0,69.0,87.5,289.0,291.5,300.5,389.0,395.0,4.0,-0.5300000086449996,0.5399999618499987,0.03499794006499979,-0.07050000131150003,0.02099999994967,0.019999995827649997
28,50.5538788718,5055.5,1521528842.0,79012989.5,,1338709.0,1521528841.0,637425768.5,,0.6238088310459999,-0.14137726434450001,-0.033930054109850005,-0.05130285338575,0.975490202335,-0.213919480027,0.00501405208485,-3.869673559499937e-05,-0.0002462332001199989,0.0025712237663800003,-0.002656149574900002,-0.0014877273287000007,0.0061870918582550005,3.2785654067999994,3.2099403142950003,-0.0060304403304999995,-0.379095643759,1.6499156951899998,-0.385015949607,1339061.0,1521528841.0,625484495.0,,,,,,844462.5,1521528842.0,70340589.5,,-1.935999965665,-4.730999994275,-6.553000259399999,0.472000002861,0.014999999664739999,-0.0799999982119,59.0,61.0,66.0,73.0,92.0,280.0,286.0,289.5,375.0,382.5,4.0,1.9700000286150001,0.279999971395001,-1.4349994659449994,0.0960000008345,-0.01250000018621,-0.003499995917099999
29,50.656442974399994,5066.5,1521528842.0,187698483.0,,1338719.0,1521528841.0,737433932.0,,0.6239993043600001,-0.142337857441,-0.0335779885513,-0.0512832929906,0.975363640675,-0.214503257941,0.0049137196681,-0.00402269749343,-0.0354388233771,-0.00035903071548400005,-0.0392672846935,0.00922191021013,-0.026905952622700003,3.3016216754900003,3.65269827843,-0.204698294401,-0.606707036495,1.6223554611200002,-0.398510694504,529462.0,1521528841.0,716999936.0,,,,,,844473.5,1521528842.0,179529825.5,,-2.75599998832,-5.24099998474,-5.40300064087,0.40150000155,0.02300000004475,-0.06399999931455,64.0,68.0,68.0,75.5,83.5,285.5,294.0,309.0,372.0,402.0,4.0,-0.8200000226550002,-0.5099999904650003,1.149999618529999,-0.07050000131100004,0.00800000038001,0.01599999889735
30,50.7590070769,5074.5,1521528842.0,267669558.0,,1338728.0,1521528841.0,827433589.5,,0.62353118859,-0.141628115468,-0.0341744585413,-0.05163508344045,0.9754496783495,-0.21402966843350002,0.004797620887189999,-0.002424125351544999,0.004340371292350001,0.002311536318381,0.004515583503735,0.0006446954112949999,-0.0046794613558500025,3.19259130955,3.1439990997350002,0.0020944159478000005,-0.318710267544,1.6270695328699998,-0.3604066073895,934274.0,1521528841.0,827263438.5,,,,,,844482.0,1521528842.0,262485534.0,,-1.9409999609,-5.715999889369999,-4.94299964905,0.433999985456,0.0130000002682,-0.07199999690060001,64.0,70.0,74.0,79.0,113.5,282.0,292.0,304.0,367.0,393.0,4.0,0.8150000274200002,-0.47499990462999886,0.4600009918200003,0.03249998390600001,-0.009999999776549999,-0.007999997586050009
31,50.8615711795,5086.5,1521528842.0,387784004.0,,1338739.0,1521528841.0,937430033.0,,0.6229448845350001,-0.141677352436,-0.0340069387104,-0.0518420958524,0.975392000213,-0.214256465331,0.00412432798655,-0.0108164136452,-0.00289413949291,-0.00128539571317,-0.00913603440219,0.0108748590158,-0.0061162446368500005,2.9063127040900003,3.24963760376,0.283230006695,-0.401266723871,1.50016212463,-0.316234022379,934282.0,1521528841.0,952761803.5,,,,,,844494.0,1521528842.0,382820421.5,,-1.1409999489799998,-4.996000099185,-5.3030002594,0.4334999918935,-0.01800000015645,-0.08700000122189999,53.0,54.5,57.5,67.0,91.0,274.0,274.5,300.0,360.0,385.5,-1.0,0.8000000119200001,0.7199997901849988,-0.3600006103500002,-0.0004999935624999674,-0.031000000424650002,-0.015000004321299984
32,50.9641352821,5093.5,1521528842.0,457673072.0,,1338748.0,1521528842.0,27439461.0,,0.6236438441125001,-0.141868275634,-0.033544917602299995,-0.051608777768400005,0.9754483653355,-0.214037663428,0.004957921912189999,-0.0030519886928745,-0.0009762419242499988,0.0021959311408375004,0.014333906248450002,-0.001617416491785,-0.00747309803645,1.7637968659399998,3.0048142671600004,1.6263937950100003,-0.16034203022729998,1.22531425953,-0.16680420190099998,1339101.0,1521528842.0,25496561.0,,,,,,844500.5,1521528842.0,450165576.0,,0.1439999580381,-4.610999870300001,-5.0080001831050005,0.316499993205,0.002999999793245001,-0.09450000151995,55.5,56.0,61.0,66.0,71.0,280.5,300.0,314.0,380.0,387.0,-1.0,1.2849999070180997,0.38500022888499963,0.2950000762949996,-0.11699999868850003,0.020999999949695,-0.007500000298050008
33,51.0666993846,5105.5,1521528842.0,577694058.0,,1338761.5,1521528842.0,162435496.5,,0.6223941347405,-0.140180488597,-0.033268009111700005,-0.0529136068965,0.975481826014,-0.2135735372035,0.00464866685788,-0.009602066972459999,0.010108341783235001,0.002146008063229999,-0.0054603156232750005,0.011161827351584998,0.02469970988625,2.2497682571400004,2.6158628463749998,1.040353894233,-0.015908334404250005,1.3937242627150002,-0.20530665665849998,934295.5,1521528842.0,148769797.0,,,,,,844513.0,1521528842.0,572656965.0,,-2.21100000143,-6.00599985123,-5.25300102234,0.416000008583,0.0240000002086,-0.0799999982119,52.0,56.0,59.0,61.0,90.0,275.5,290.0,307.0,356.0,362.0,-1.0,-2.3549999594681,-1.3949999809299998,-0.24500083923499982,0.09950001537800002,0.021000000415354998,0.01450000330805
34,51.169263487200006,5114.5,1521528842.0,667668103.5,,1338770.5,1521528842.0,252438081.5,,0.6218107795885,-0.139717236199,-0.033360706847049997,-0.053942341506599996,0.9753959270710001,-0.2137114529695,0.00450156194029,-0.01317937274985,0.00102446938523,0.0019604648224799998,-0.013395907842649999,0.017175873136815,0.019595254999099997,1.75337612629,2.47707951069,1.021845310929,0.1004087254407,1.168305277825,-0.1397415474055,1339122.5,1521528842.0,240530144.5,,,,,,844521.5,1521528842.0,660524509.0,,-3.16099998951,-4.9259999275199995,-5.447998809814999,0.4874999970195,-0.0015000000130349998,-0.1140000000595,59.0,64.5,71.5,75.0,95.0,281.0,282.0,296.5,373.0,373.0,-1.0,-0.9499999880800001,1.0799999237100009,-0.19499778747499885,0.07149998843649996,-0.025500000221634997,-0.034000001847600006
35,51.2718275897,5126.5,1521528842.0,787738084.0,,1338782.5,1521528842.0,372430231.5,,0.622534894717,-0.138677835894,-0.03266041197855,-0.054377075674,0.9756218562005,-0.21254208384950002,0.005557727604985001,0.010404200666309999,0.01025568447726,0.005701938931275,0.0261782397824,-0.0175654686228,-0.018665545417205,2.3119970560099996,2.772978663445,1.19432514906,-0.2595485448835,1.3484648466100002,-0.2334463074805,1339135.5,1521528842.0,370520934.0,,,,,,844533.5,1521528842.0,779111744.0,,-3.38100000322,-4.0860000133500005,-4.56799964905,0.32349999249,-0.018500000238450002,-0.08600000292064999,51.5,54.5,60.0,89.5,123.5,280.5,287.0,314.0,360.0,385.5,-1.0,-0.22000001371,0.839999914169999,0.8799991607649993,-0.16400000452949998,-0.017000000225415,0.027999997138850014
36,51.374391692299994,5134.5,1521528842.0,867697000.0,,1338790.5,1521528842.0,452452734.0,,0.6225486730309999,-0.13756906029350002,-0.03263996415834999,-0.05441460057545,0.9757589396725,-0.21189207557349998,0.0059301267181900005,-0.0044660549613149995,8.608705624999977e-05,0.0011939277147349995,-0.005635260909585001,0.0012447909910349995,-0.010745576774550005,2.025177955625,2.82588648796,1.04319232702,-0.31748318672200004,1.186142742635,-0.19654067605749997,1339142.5,1521528842.0,440544783.0,,,,,,844541.5,1521528842.0,858724964.5,,-1.3559999823549995,-3.7960000514999996,-5.218001174925,0.34349998831749995,0.02599999960515,-0.05900000035765,51.0,52.5,53.0,56.5,69.0,285.0,291.0,317.0,373.0,388.0,-1.0,2.0250000208650007,0.2899999618500009,-0.650001525875,0.01999999582749995,0.0444999998436,0.027000002562999996
37,51.4769557949,5147.5,1521528842.5,498344063.0,,1338800.0,1521528842.0,546709884.0,,0.6209044231449999,-0.138389844359,-0.0332830254311,-0.0542749967146,0.975577732255,-0.212801513675,0.00422242068744,-0.0138947104524,0.007784504440319999,-0.0098858217488,0.0214214188856,0.0208966811395,-0.013307036422299998,2.45873475075,3.48569178581,1.4495623111700002,-0.294856667519,1.37705123425,-0.249341353774,934324.5,1521528842.0,561373858.5,,,,,,844554.5,1521528842.0,989235716.0,,-3.5609999954700005,-3.4260000467299996,-5.247999954225,0.4144999980925,-0.002000000094995,-0.1005000025035,41.5,43.5,54.0,67.0,88.0,272.0,294.0,307.0,372.5,375.5,-1.0,-2.2050000131150007,0.37000000477000006,-0.0299987793000005,0.07100000977500004,-0.027999999700145,-0.04150000214585
38,51.5795198974,5156.5,1521528843.0,88091969.0,,1338810.0,1521528842.0,647688948.5,,0.6220652539135,-0.1376191614425,-0.032316063863349995,-0.054594761011700015,0.9756437153965,-0.21238900978050002,0.00542887944819,0.008955511499105,0.007576442974609999,0.004533214167055001,0.019158284501200003,-0.021166063331145003,-0.00321862139085,1.660918712615,2.63512599468,1.0710902810115002,-0.1462315544485,1.0628888011,-0.1235719434915,1339162.0,1521528842.0,635774088.0,,,,,,844563.5,1521528843.0,79320323.0,,-2.43100000024,-5.0009999752050005,-5.232998657225,0.41050000488750005,0.0525000002235,-0.0604999996722,43.0,50.5,57.0,67.5,81.0,301.0,302.0,308.0,367.0,373.0,-1.0,1.1299999952300004,-1.574999928475001,0.015001297000000413,-0.003999993204999941,0.054500000318495,0.040000002831299994
39,51.682084,5165.5,1521528843.0,177700042.5,,1338819.0,1521528842.0,737682753.0,,0.6216208518140001,-0.136932667464,-0.0327068877062,-0.0554957943401,0.975614433356,-0.212292396303,0.005350954025739999,-0.00848279562,-0.012516991732100002,-0.00810546346769,-0.0158676536766,0.0207279631388,-0.005306946373590001,2.53101992607,2.74221396446,1.05407619476,-0.0677229911089,1.43214464188,-0.243457853794,934337.0,1521528842.0,731866014.5,,,,,,844572.5,1521528843.0,169609171.5,,-2.35599996746,-5.855999994275,-5.18800048828,0.433499991894,0.029999999329400007,-0.06250000186265,51.0,56.5,58.0,63.0,66.0,289.5,293.0,298.0,380.0,383.0,-1.0,0.07500003278000023,-0.8550000190699993,0.04499816894499986,0.022999987006499967,-0.022500000894099995,-0.0020000021904500037
