,Unnamed: 0,Unnamed: 0.1,.header.seq,.header.stamp.secs,.header.stamp.nsecs,.header.frame_id,.endpoint_state.header.seq,.endpoint_state.header.stamp.secs,.endpoint_state.header.stamp.nsecs,.endpoint_state.header.frame_id,.endpoint_state.pose.position.x,.endpoint_state.pose.position.y,.endpoint_state.pose.position.z,.endpoint_state.pose.orientation.x,.endpoint_state.pose.orientation.y,.endpoint_state.pose.orientation.z,.endpoint_state.pose.orientation.w,.endpoint_state.twist.linear.x,.endpoint_state.twist.linear.y,.endpoint_state.twist.linear.z,.endpoint_state.twist.angular.x,.endpoint_state.twist.angular.y,.endpoint_state.twist.angular.z,.endpoint_state.wrench.force.x,.endpoint_state.wrench.force.y,.endpoint_state.wrench.force.z,.endpoint_state.wrench.torque.x,.endpoint_state.wrench.torque.y,.endpoint_state.wrench.torque.z,.joint_state.header.seq,.joint_state.header.stamp.secs,.joint_state.header.stamp.nsecs,.joint_state.header.frame_id,.joint_state.name,.joint_state.position,.joint_state.velocity,.joint_state.effort,.wrench_stamped.header.seq,.wrench_stamped.header.stamp.secs,.wrench_stamped.header.stamp.nsecs,.wrench_stamped.header.frame_id,.wrench_stamped.wrench.force.x,.wrench_stamped.wrench.force.y,.wrench_stamped.wrench.force.z,.wrench_stamped.wrench.torque.x,.wrench_stamped.wrench.torque.y,.wrench_stamped.wrench.torque.z,.tactile_values.tactile_values_0,.tactile_values.tactile_values_1,.tactile_values.tactile_values_2,.tactile_values.tactile_values_3,.tactile_values.tactile_values_4,.tactile_values.tactile_values_5,.tactile_values.tactile_values_6,.tactile_values.tactile_values_7,.tactile_values.tactile_values_8,.tactile_values.tactile_values_9,.tag,.delta_wrench.force.x,.delta_wrench.force.y,.delta_wrench.force.z,.delta_wrench.torque.x,.delta_wrench.torque.y,.delta_wrench.torque.z,.wrench_stamped.wrench.force.magnitude,.wrench_stamped.wrench.torque.magnitude,.endpoint_state.wrench.force.magnitude,.endpoint_state.wrench.torque.magnitude,.endpoint_state.twist.linear.magnitude,.endpoint_state.twist.angular.magnitude
0,0,70.090338,7008.5,1521531235.0,698897957.5,,1578064.5,1521531235.0,192180317.0,,0.6866101035494999,-0.34461218240400004,0.14378330821399998,0.006020247883955001,0.9999346414885,-0.0031176338585550004,-0.00920443383445,-0.04163387682735,-0.13759845662999998,-0.004448454752119999,0.07626008201435,0.0522984608819,-0.03384979295655,4.361112833025,1.94859904051,13.5604877472,-0.4569720923899999,2.06206864119,0.4469467401505,1578416.0,1521531235.0,174815361.0,,,,,,1083571.5,1521531235.0,693486883.0,,-1.447000003795,1.498999988285,8.239999008175001,-0.1169999986885,-0.375,-0.059000002220249995,487.5,503.0,567.0,651.5,678.5,512.5,541.0,589.0,708.0,756.0,7.0,0.0,0.0,0.0,0.0,0.0,0.0,8.499317244966573,0.3972341877974484,14.377175359054823,2.158868213377933,0.14382803522371637,0.09847099878975696
1,1,70.1929021026,7018.5,1521531235.0,798605441.5,,1578073.0,1521531235.0,277608760.5,,0.6826732139105001,-0.35683579291100004,0.14359790320399998,0.004046345504299999,0.9999119688555,-0.002939750490595,-0.0122710140806,-0.049708615208599996,-0.153545301468,-0.004341654900795001,0.01059053304398,0.08562469346075001,0.02335250710085,4.044071674345,-0.2312079072,14.82579135895,0.7276164889335001,1.7254537344,0.575082361698,624148.0,1521531235.0,268999936.0,,,,,,1083581.5,1521531235.0,792499108.5,,0.06799995303129999,0.7390000015495,8.04000015259,0.005999999586515,-0.3615000098945,-0.05399999953805002,493.0,497.0,559.0,636.0,649.5,524.0,538.0,570.0,722.5,774.0,7.0,1.5149999568263,-0.7599999867355001,-0.19999885558500094,0.122999998275015,0.013499990105500015,0.0050000026821999865,8.074177818796763,0.36556019627261277,15.369191983403287,1.9589119600581772,0.16144954628655125,0.08938169336222204
2,2,70.2954662051,7026.5,1521531235.0,878208398.0,,1578082.0,1521531235.0,367608802.0,,0.6787569723360001,-0.370907470388,0.143523662277,0.001889029090215,0.9998941399815,-0.00012509637747804998,-0.01441293953295,-0.0550332069759,-0.16083564072349998,0.0033269855191599995,0.09248611386810003,0.07291480428055,0.09159869384794997,4.676154375075,-1.51997697353,15.631512165050001,1.264084637165,1.952560544015,0.6239096522334999,624151.0,1521531235.0,367000064.0,,,,,,1083589.5,1521531235.0,872930602.0,,0.953000003101,0.6239999771115,8.969998550415,-0.0950000025331,-0.40250000357649995,-0.06350000016395001,484.0,514.0,610.5,632.0,656.5,546.0,552.0,611.0,736.0,780.0,7.0,0.8850000500697001,-0.11500002443799995,0.929998397824999,-0.101000002119615,-0.04099999368200002,-0.009500000625899991,9.042038430121432,0.41840590744060147,16.386608017088243,2.408249551460739,0.17002301617615104,0.14919976761491469
3,3,70.39803030770001,7040.5,1521531236.0,18365502.0,,1578095.0,1521531235.0,497629842.0,,0.6733127929899999,-0.39687386606700004,0.1451831832615,-0.0031014483478800006,0.9998892162545,0.003271479260695001,-0.0141715237983,-0.0553212163953,-0.229331773873,0.008224000723495,-0.004694248399166501,-0.007233021840954998,0.13868475674449998,4.1951737403900005,-4.589263439174999,14.973062515250001,1.485739052295,1.878792881965,0.5590091943745,1578449.0,1521531235.0,505658633.5,,,,,,1083603.5,1521531236.0,14156199.0,,-0.037000006437300004,2.1589999735350003,8.739999008180003,-0.292999997735,-0.347999989986,-0.03900000080465,487.5,490.0,561.0,620.0,694.5,538.0,541.0,595.0,724.0,791.0,7.0,-0.9900000095383,1.5349999964235002,-0.22999954223499766,-0.1979999952019,0.0545000135905,0.024499999359300008,9.002790264645064,0.4565895221812792,16.212754938991427,2.4596289362893793,0.23605324331407196,0.13895256142391166
4,4,70.5005944103,7050.5,1521531236.0,118945598.0,,1578105.0,1521531235.0,597629402.0,,0.6680134566564999,-0.421846131403,0.146473968286,-0.006361042227960001,0.9998838403129999,-0.0014254951171985,-0.01374753276085,-0.062179069084949995,-0.2833357192025,0.02242962236885,-0.131694400233,-0.009975673435450005,0.04050900134565,1.66047668457,-3.2676169872300003,15.870741844200001,1.632042348385,0.8211998045455,0.5359770357604999,1101309.5,1521531235.0,607828580.5,,,,,,1083613.5,1521531236.0,112436288.0,,0.23299997448905,-0.6060000121604999,9.634999465944999,-0.050999998115,-0.329999998212,-0.0310000004247,485.0,504.0,581.5,603.5,639.0,520.0,530.0,589.0,726.5,760.0,7.0,0.26999998092635,-2.7649999856955003,0.895000457764997,0.24199999962,0.017999991774000024,0.008000000379949999,9.656849367760215,0.33535354277833623,16.28849134451916,1.9039965149049525,0.2909440742958655,0.13814451962796861
5,5,70.6031585128,7057.5,1521531236.0,189971565.5,,1578112.0,1521531235.0,667612516.5,,0.6638988279915,-0.439875376942,0.148186126677,-0.00650548699442,0.9998819251105,-0.004976747861769999,-0.0129854127595,-0.06130730112575,-0.2406265204575,0.0245375427127,-0.0450583163685,-0.032346468596349987,-0.014259965839699996,1.3151246309285,-3.2325019836449997,15.547492504100001,2.259068012235,0.673285678029,0.49956125021,1101315.0,1521531235.0,674343950.0,,,,,,1083620.5,1521531236.0,182370001.5,,0.482999974489,-1.60600001216,8.749999237059999,0.210000000894,-0.34299999475500004,-0.049499999731750004,492.0,512.5,564.0,621.5,648.0,517.0,544.5,618.0,737.5,746.0,7.0,0.24999999999995,-0.9999999999995,-0.8850002288849996,0.260999999009,-0.01299999654300005,-0.01849999930705,8.909265495144078,0.40521506234449545,15.934338550256468,2.409618918180579,0.24952314225575276,0.057270345994833154
6,6,70.7057226154,7070.5,1521531236.0,318312525.5,,1578127.5,1521531235.0,822610877.5,,0.65496467627,-0.4710137476815,0.151780955399,0.004671123239249999,0.9999215470115,-0.004333036715864999,-0.0107754955701,-0.07084643777070003,-0.193627760022,0.0120252864607,-0.05305831625295,0.0236689914791,-0.09890919132715,5.794925451280001,0.5344254374505001,12.493753433250001,0.380669981241,2.383998751645,0.4682427942755,624169.5,1521531235.0,824000000.0,,,,,,1083633.5,1521531236.0,313754543.5,,-1.256999994067,0.3189999699595,8.46499938965,-0.05849999934434999,-0.3419999927285,-0.054999999702,479.0,491.5,568.0,636.0,723.0,532.5,542.0,591.5,718.0,761.0,7.0,-1.739999968556,1.9249999821195,-0.28499984740999906,-0.26850000023835,0.0010000020265000242,-0.005499999970250004,8.563762294266082,0.3512993665192168,13.78262117251044,2.4591890933504628,0.2065321638641226,0.11471021842114386
7,7,70.8082867179,7081.5,1521531236.0,428220510.0,,1578138.5,1521531235.0,932607242.0,,0.6478127273465,-0.487845494729,0.15165780937149995,0.009985226758235,0.9998541984745,-0.00611227584726,-0.01242275939445,-0.0670341281161,-0.14065361566450002,-0.00617233915205,-0.0041316140875350005,0.030945033462,-0.08671456263999999,5.257601022719999,1.66218286753,15.045671463,0.22452322393649998,2.080003499985,0.4495160281655,1101333.0,1521531235.0,930829033.0,,,,,,1083644.5,1521531236.0,423550558.5,,-0.7570000201479999,0.12900000214594998,10.364999008180002,0.08500000089414997,-0.382499992847,-0.08500000089410001,479.5,520.0,556.0,650.5,671.5,534.0,538.0,609.0,728.0,740.0,7.0,0.4999999739190001,-0.18999996781354997,1.8999996185300017,0.14350000023849996,-0.04050000011849997,-0.030000001192100008,10.393406297775053,0.40094419166756556,16.024276900120928,2.1398340817956836,0.15593303595579266,0.09216333709658683
8,8,70.9108508205,7091.5,1521531236.0,528220057.0,,1578148.5,1521531236.0,32606064.0,,0.6413957303095,-0.499080134477,0.1511310122035,0.009993479337475,0.999847683922,-0.0028889255357649997,-0.01401193917985,-0.0775872145151,-0.106623330238,-0.0030974962089240004,0.06207726585890001,0.06004279122355,0.049859839464949984,5.37981772423,0.7002977728844999,15.117496967349998,0.2701976448295,2.23792231083,0.5577966272835,1101340.0,1521531236.0,31330069.0,,,,,,1083654.5,1521531236.0,523491845.5,,-0.827000012996,0.1890000045298,10.06999893187,-0.09500000253325,-0.3980000019075,-0.08500000089404999,467.0,505.0,581.5,648.0,695.0,522.0,555.0,600.0,724.0,749.0,7.0,-0.06999999284800007,0.060000002383850025,-0.2950000763100018,-0.18000000342739994,-0.01550000906050003,5.0015547259363296e-14,10.105668137786367,0.4179162621287619,16.061493401128136,2.3221628095357447,0.1319011178497667,0.09972325358662316
9,9,71.0134149231,7099.5,1521531236.0,608220934.0,,1578156.5,1521531236.0,112605080.5,,0.6368928498024999,-0.509041700586,0.151801631324,0.00600677275642,0.999872503256,-0.0021148237056500003,-0.01461931563525,-0.07306001884705,-0.14300642757999998,0.0017265213352599994,0.0534641852668,0.03690764151055,0.0932219014746,3.68407261372,-2.048052072525,15.9617819786,1.38426178694,1.5102310180649998,0.5423568189145,1578509.0,1521531236.0,105660729.0,,,,,,1083662.5,1521531236.0,603497426.5,,-0.06199998259565,0.8189999997615001,10.2799999237,-0.044999999925499995,-0.3245000094175,-0.06550000049175,487.5,515.5,583.0,654.5,667.0,513.0,539.5,582.0,721.0,768.5,7.0,0.7650000304003499,0.6299999952316999,0.21000099183000032,0.05000000260775,0.07349999249,0.019500000402299992,10.312759253891425,0.3340890692160877,16.508948853494438,2.1192284779445147,0.16059758889549428,0.11362621186440221
10,10,71.1159790256,7111.5,1521531236.0,728435516.0,,1578166.5,1521531236.0,212619534.5,,0.6307313917890001,-0.5221400413130001,0.15448918621949995,0.00247060367373,0.999871490096,0.0022859259961500004,-0.015664016593500002,-0.06730087394805001,-0.15050312071599994,0.04050731429025,0.07122596872955,0.0251953105641,0.06510937033115001,3.0406014919300004,-2.212515592575,16.3567829132,1.07069665194,1.1342775225650001,0.4826528728005,1101352.0,1521531236.0,216828727.5,,,,,,1083674.0,1521531236.0,718758563.0,,-3.4719999492199998,1.96899997592,9.88999862671,-0.126000002027,-0.312999993563,-0.07400000095369999,478.0,501.0,566.0,645.0,668.0,531.0,551.5,582.0,710.0,776.0,7.0,-3.4099999666243503,1.1499999761585,-0.3900012969900004,-0.08100000210150002,0.011500015854499999,-0.008500000461949986,10.665074654632395,0.3454287142412884,16.783468948631146,1.6327677772096971,0.16976878243786536,0.09973551223512676
11,11,71.2185431282,7120.5,1521531236.0,818439006.5,,1578175.0,1521531236.0,297604399.0,,0.625996883389,-0.5371996292825001,0.158360873604,0.002345317012375,0.9998723329785,0.0031522096504199995,-0.015483656996950004,-0.05953035376785,-0.2080916871655,0.05463292997164999,-0.018451250971076496,-0.0199020823459,0.027436120370450002,3.79628801346,-2.95721197128,16.182970047,1.1493579745279998,1.3339433074,0.568521529436,1101358.5,1521531236.0,292333790.0,,,,,,1083683.5,1521531236.0,813670230.0,,-1.7720000058400005,1.59400000572,9.07999916077,-0.1829999983315,-0.2555000036955,-0.05800000019375,484.0,488.5,578.0,602.0,660.0,532.0,562.0,572.0,724.0,778.0,7.0,1.69999994338,-0.3749999702000002,-0.8099994659399989,-0.05699999630449998,0.05749998986749999,0.016000000759949992,9.387609109806194,0.31958293336817056,16.883288330959733,1.8503094958413326,0.22322806795830338,0.03859121979262197
12,12,71.3211072308,7132.5,1521531236.0,938216090.0,,1578187.0,1521531236.0,417615604.5,,0.6227286521195,-0.5640325948314999,0.1658038898625,-0.00215119479075,0.9999323402575,0.001226800745645,-0.01135107142665,-0.028417224941215,-0.2629799076875,0.06638358192185,-0.0308877455998,-0.0970293816119,0.043302705126,2.40439999104,-3.1066071987150004,14.1467199326,1.352670371535,0.8938694298285,0.5792472064495,1101367.0,1521531236.0,427829886.5,,,,,,1083695.5,1521531236.0,934848535.0,,-1.561999997495,1.818999999765,8.544999313355,-0.188000001013,-0.283999994397,-0.07049999944865,482.0,489.5,582.0,635.5,644.5,535.0,552.0,576.0,742.0,768.0,7.0,0.2100000083450002,0.22499999404500026,-0.5349998474150013,-0.005000002681500026,-0.0284999907015,-0.012499999254900002,8.874999620087703,0.34780777323205947,14.682024126646951,1.7216988754686784,0.27271367855217793,0.1106520582522304
13,13,71.42367133329998,7142.5,1521531237.0,38242459.0,,1578197.5,1521531236.0,522622000.5,,0.6191486964455001,-0.5946662552825001,0.17008322808249998,-0.004755142364065,0.999972682486,-0.00033161683622075,-0.00562579311203,-0.05057433109785,-0.33165068663700004,0.030503057876050007,-0.024283934036445,-0.1087355872851,0.040548454670315,2.1607230901700003,-3.0361506938950003,14.178306102750001,1.19259250164,1.29033333063,0.440706551075,1101374.0,1521531236.0,528838598.5,,,,,,1083705.5,1521531237.0,34921627.5,,-1.3870000004755,1.01400002241055,8.734999847415,-0.1014999961482,-0.3594999909400001,-0.09149999916555004,476.0,485.0,595.5,620.5,643.0,531.0,566.0,588.0,731.5,766.0,7.0,0.1749999970195002,-0.8049999773544501,0.19000053406000106,0.08650000486480001,-0.07549999654300005,-0.02099999971690003,8.90236976209749,0.38459685717805914,14.659853316173079,1.8114798489806845,0.33686848687964005,0.11856354655066878
14,14,71.5262354359,7149.5,1521531237.0,108332991.0,,1578204.0,1521531236.0,587606982.5,,0.6150862872480001,-0.6153510910625001,0.17134333816949998,-0.0060740847136350005,0.9999755426495001,-0.0005214839002280001,-0.003384750683715,-0.0702288111571,-0.33126279361449995,0.015733598513750002,-0.00791914068035,-0.0603228536244,0.02233532747585,0.54995845258,-4.302949905395,14.01535081865,1.76940912008,0.8438808321955,0.6010095477105,1101379.5,1521531236.0,594329374.5,,,,,,1083712.5,1521531237.0,104664884.0,,-1.7370000019699998,-0.4359999358655001,9.10999984741,-0.055999999865900006,-0.4369999915365,-0.06450000032785,483.0,501.0,581.0,634.5,660.0,527.0,546.0,584.0,737.5,747.0,7.0,-0.35000000149449995,-1.44999995827605,0.3749999999949996,0.0454999962823,-0.07750000059649992,0.02699999883770003,9.28436116115313,0.4452698537181408,14.671328868161067,2.050403855246188,0.33899066428445235,0.06481069596879378
15,15,71.6287995385,7163.5,1521531237.0,249396562.0,,1578221.0,1521531236.0,757611857.0,,0.594052274284,-0.668752817,0.170066721774,-0.00663222685332,0.999948923266,-0.00319889652275,-0.00692325696498,-0.21266668430100005,-0.300504256659,-0.047331106831800016,0.00803876255053,0.190441063343,-0.022517490706899998,-0.800041139126,-2.36763548851,15.684056282,1.41917896271,0.276899129152,0.50489372015,1578573.0,1521531236.0,745659766.0,,,,,,1083726.5,1521531237.0,244603048.5,,-2.07199999541,1.4589999854545002,9.68999977112,-0.04550000000744999,-0.4619999974965,-0.097500000149,523.0,537.5,592.0,641.0,693.0,518.0,531.0,595.0,698.0,749.5,7.0,-0.3349999934399999,1.89499992132,0.5799999237100001,0.010499999858450015,-0.025000005960000016,-0.03299999982115001,10.015885407832945,0.47436325502350934,15.88192006930175,1.5315546756713174,0.3711740300124493,0.19193607711499072
16,16,71.731363641,7172.5,1521531237.0,338743567.0,,1578229.5,1521531236.0,842607602.5,,0.5815013565814999,-0.6884000805399999,0.171621442349,-0.000860765191501,0.999968773492,0.004061448086965,-0.006661908084470001,-0.1397404133455,-0.23529288464249998,-0.006556656566595001,0.1037472055395,-0.0532082509366,-0.07473607347464999,7.0817935466750015,-2.8940660953500004,15.676413059200001,0.7703703045845001,3.77493572235,0.36021384596850003,1578582.5,1521531236.0,840658865.0,,,,,,1083735.5,1521531237.0,335836655.5,,0.20799997598,2.8689999520800002,7.259999465945,-0.34600000083449994,-0.510499998927,-0.05700000002980001,524.5,536.0,672.0,707.5,723.5,510.5,530.0,534.0,644.0,782.5,7.0,2.27999997139,1.4099999666254996,-2.4300003051750005,-0.30050000082705,-0.04850000143050004,0.0405000001192,7.809098344915654,0.6193345214706978,17.443547368715986,3.869543142140574,0.2737391357308857,0.13849217054908097
17,17,71.8339277436,7184.5,1521531237.0,458275436.5,,1578241.5,1521531236.0,962610114.5,,0.5654977300280001,-0.7061423049950001,0.17079792445949998,0.01072514752163,0.9998416561095,0.011704660186400002,-0.007987867772495001,-0.125323524337,-0.111626468661,-0.0253867684692,0.0916428970998,-0.012804272434465,-0.3415569153915,6.451130867004999,-0.04949846863755002,13.26017665865,-0.555243939161,3.3296384811400004,0.3721806704995,1578593.0,1521531236.0,945655592.0,,,,,,1083747.5,1521531237.0,454734769.0,,-1.6220000036050002,4.718999916315,5.169999313355,-0.6644999980924999,-0.5030000060795,-0.0650000013411,513.0,546.5,644.0,693.0,789.0,378.0,396.0,520.0,549.0,706.0,0.0,-1.829999979585,1.849999964235,-2.090000152589999,-0.318499997258,0.007499992847500026,-0.008000001311299984,7.185313989100739,0.8359391447678787,14.74624781360426,3.396072245779935,0.16973786339906782,0.3538693211245881
18,18,71.9364918462,7193.5,1521531237.0,548328995.0,,1578250.5,1521531237.0,52626968.5,,0.5551442104615,-0.7143618384779999,0.167446183066,0.021264651882449997,0.9996258183169999,0.011919291158550002,-0.0123856132689,-0.10273897403175,-0.06722541185860001,-0.02949719060375,0.0021418073244500006,0.10023560327514999,-0.29780269478599997,8.237822055815,-2.52565360069,14.62278318405,1.1406183838850001,3.37574529648,0.401383459568,1578603.5,1521531237.0,50662786.5,,,,,,1083756.5,1521531237.0,544463938.0,,-2.177000007035,2.17399997413,7.0549995422350005,-0.2080000080165,-0.486499994993,-0.12849999964199998,486.0,494.0,656.5,672.0,789.5,445.5,464.5,514.0,534.5,656.0,8.0,-0.55500000343,-2.544999942185,1.8850002288799999,0.456499990076,0.01650001108650001,-0.06349999830089999,7.696663137950348,0.5444800256860183,16.972519741679076,3.5857740149064115,0.1262720754488852,0.3142263651006258
19,19,72.0390559487,7201.5,1521531237.0,628264426.5,,1578258.0,1521531237.0,127623372.5,,0.5497344741865,-0.7181851949670001,0.16593975506449998,0.022897142530849998,0.9995291329479999,0.008888826486555,-0.01837859868975,-0.0619327254248,-0.0259043414035,-0.0282128710865,-0.042092895331300006,0.16160923884,0.035702943158949986,3.847508192065,0.6792398542175,14.3724346161,-0.2415379136803,1.1143826842315,0.451933041215,1101415.5,1521531237.0,127331389.0,,,,,,1083764.5,1521531237.0,623981983.0,,0.40799998641,2.90900003314,8.21000022888,-0.3409999907015001,-0.2185000032185,-0.06749999895695,461.0,484.0,641.0,718.0,810.0,470.5,492.0,517.5,544.0,642.5,8.0,2.5849999934450003,0.7350000590099999,1.1550006866449998,-0.13299998268500007,0.2679999917745,0.06100000068504999,8.719681699461784,0.4105843335102984,14.894010972925804,1.2265532211860495,0.07281938943053712,0.17077487539455902
20,20,72.1416200513,7214.5,1521531237.0,758223533.0,,1578269.0,1521531237.0,237570219.0,,0.548803140326,-0.717310010476,0.163945330469,0.0225020720244,0.9994989460959999,0.009684331891200002,-0.0200431340662,0.0166148628396,0.030367401414900002,-0.0117125358236,0.0217981647306,-0.00752972825409,0.052851609292900004,5.572426795959999,-1.8160917758900001,15.6031217575,0.9730517268179999,1.56040513515,0.418547719717,624225.5,1521531237.0,240499968.0,,,,,,1083777.5,1521531237.0,754427787.5,,1.0979999840255,2.159000003335,9.749999237059999,-0.0449999999255,-0.16849999874850002,-0.059000000357599995,471.0,473.5,622.0,723.0,773.0,479.0,512.0,548.0,553.0,612.5,8.0,0.6899999976154999,-0.7500000298049998,1.5399990081799988,0.29599999077600003,0.05000000447,0.008499998599349995,10.046361037808222,0.18411477293725323,16.667559458845744,1.885968197649759,0.03654334729183282,0.057664108404207284
21,21,72.2441841538,7222.5,1521531237.0,838215946.5,,1578277.0,1521531237.0,317578545.0,,0.5523635265115,-0.7156442338400001,0.162901613565,0.0207609636503,0.999571336311,0.009891815336025,-0.01811220848515,0.0585885742091,0.01613340115385,-0.0009531270307300008,-0.0029681871109350005,-0.08248090732345,0.04105221189345,5.06092977524,-1.426489412785,15.592614173900001,0.987645030022,1.82075214386,0.4332815110685,1578630.0,1521531237.0,315641000.5,,,,,,1083785.5,1521531237.0,834024718.5,,-1.0169999957105,1.313999989625,8.724999618530001,-0.02499999944119,-0.34100000560300003,-0.08900000154969999,471.0,500.0,623.0,699.0,762.0,501.0,510.0,548.0,565.0,647.0,8.0,-2.114999979736,-0.8450000137100001,-1.0249996185299979,0.020000000484309995,-0.17250000685449998,-0.030000001192099987,8.881807434714982,0.35330865269499434,16.45531825917705,2.1162027177309235,0.0607767727983559,0.09218022732110062
22,22,72.3467482564,7231.5,1521531237.0,928200006.0,,1578286.0,1521531237.0,407575901.0,,0.557516299757,-0.7127693568019999,0.162725428585,0.0171570530609,0.9996849173810001,0.009423587571719998,-0.0157129719835,0.0559986949326,0.0429559093181,-0.00823557223411,0.0049958108725200005,-0.042779366515100004,0.0805653240743,3.5483934879300003,-1.2269436121,15.986105918900002,1.1946623325299999,1.6304473877,0.4898014068600001,1578639.5,1521531237.0,410623832.5,,,,,,1083794.5,1521531237.0,925687905.5,,-1.936999990045,0.6689999639969999,9.374999237059999,0.01499999966474,-0.488999992609,-0.0914999991655,470.0,501.5,604.0,698.0,724.0,515.5,549.0,561.5,573.5,655.5,8.0,-0.9199999943345,-0.6450000256280002,0.6499996185299981,0.03999999910593,-0.14799998700599992,-0.002499997615799998,9.596360800227234,0.49771301229607284,16.42108612189665,2.079779361130841,0.07105553201209934,0.09135537077208013
23,23,72.44931235899999,7246.5,1521531238.0,78218102.0,,1578301.0,1521531237.0,557569224.0,,0.5638029894359999,-0.705785028546,0.162641913294,0.010534566334899999,0.9997835446979999,0.00932698466898,-0.0153262526413,0.043371983201400004,0.0651230553077,-0.010777396887000001,0.0470032377988,-0.000138820162894,0.09960177456180001,3.18706154823,-2.41348695755,15.7604570389,1.53298163414,1.14683866501,0.539178133011,1578654.0,1521531237.0,555618885.0,,,,,,1083809.5,1521531238.0,76402149.0,,-0.9120000064375,0.8939999915654999,9.570000839235,-0.0219999998808,-0.305000007153,-0.08749999850989999,461.0,466.0,569.5,694.0,752.5,523.0,549.0,551.0,587.0,663.0,8.0,1.0249999836075,0.2250000275685,0.19500160217500093,-0.03699999954554,0.18399998545599994,0.0040000006555999945,9.654837961334188,0.31806485831873627,16.259590606207855,1.988965729541284,0.07898286866841565,0.1101355398155736
24,24,72.5518764615,7254.5,1521531238.0,158226013.0,,1578310.0,1521531237.0,647571781.0,,0.567490360078,-0.7016560499339999,0.162373892492,0.00668999312851,0.9998203027600001,0.00949365982676,-0.0149825433165,0.0297875193187,0.053558255681600005,-0.0103961108096,0.00300605001649,0.0177516796287,0.112130898425,3.36371827126,-2.38194465637,15.7565927505,1.45511031151,1.27054572105,0.547657132149,1578662.0,1521531237.0,635625630.0,,,,,,1083817.5,1521531238.0,155970514.0,,-3.2519999802099995,0.1540000081065,9.079999160765,-0.0065000001341,-0.39000000059600004,-0.08999999985099999,455.5,457.0,598.5,668.0,726.0,523.0,525.0,556.0,576.0,654.0,8.0,-2.3399999737725,-0.7399999834589999,-0.4900016784699997,0.0154999997467,-0.08499999344299998,-0.0025000013410999967,9.646014961281978,0.4003026985167641,16.286757690207313,2.0078746928867,0.06215997248055252,0.11356714686888682
25,25,72.6544405641,7265.5,1521531238.0,268226981.0,,1578322.5,1521531237.0,772567548.5,,0.5714175706944999,-0.6967568379544999,0.1624127251455,0.001840704549675,0.9998368949134999,0.010695671343399998,-0.0144250760265,0.0248149653722,0.02683698051115,0.006230622908455,0.02537311098885,-0.03149041839605,0.0423072369702,1.3407837450489999,-3.26836502552,15.82892608645,1.84265613556,0.4080380797390001,0.626393377781,1578674.0,1521531237.0,755617859.0,,,,,,1083828.5,1521531238.0,266221121.0,,-1.6170000027850002,0.018999987840650004,9.105000686645,-0.02900000009685,-0.348999992013,-0.06400000117719999,452.5,458.0,581.0,647.0,714.0,505.5,537.0,559.0,581.5,648.0,8.0,1.6349999774249993,-0.13500002026585,0.025001525880000486,-0.02249999996275,0.041000008582999965,0.0259999986738,9.247490876575688,0.3560028013673109,16.218348005926103,1.9885284438905808,0.037078655466544284,0.05852643430163367
26,26,72.7570046667,7276.5,1521531238.0,378280996.5,,1578333.5,1521531237.0,882583069.5,,0.5734068283545,-0.6936406312335,0.162826027678,0.0006805663131209999,0.9998313328435,0.0129196630304,-0.0130256094348,0.009734445888069996,0.011442466691705,0.0008726116756799995,0.025718717746099996,-0.0215763271583,-0.006159095140759999,2.54024744034,-2.82056903839,15.84013795855,1.56293749809,0.9999106228355,0.6260816454885,1578685.5,1521531237.0,870642163.0,,,,,,1083839.5,1521531238.0,374897935.5,,-1.2670000031550002,1.578999990225,9.255000305175,-0.036500001326199995,-0.376499995589,-0.07899999991060001,438.5,453.5,575.5,657.0,710.5,518.0,526.5,555.0,572.0,670.5,8.0,0.3499999996300001,1.56000000238435,0.14999961852999988,-0.0075000012293500035,-0.02750000357599996,-0.014999998733400022,9.473835581532681,0.386426573570199,16.28859838366625,1.9582066038630075,0.015048286675734027,0.034130994551851056
27,27,72.8595687692,7284.5,1521531238.0,460267066.0,,1578342.0,1521531237.0,967590595.5,,0.573624826169,-0.693832020726,0.163215176944,0.0006467401350820001,0.999838919322,0.0126372393144,-0.01272127459185,0.004545580437775,-0.005418619169949999,0.0038270083742350004,-0.015878566391440002,-0.0069527354099100025,0.010211989213045,1.434895336625,-2.01053762436,15.59916591645,1.3334331512450002,0.4598596692085,0.6750586628915001,1578694.0,1521531237.0,955634228.0,,,,,,1083847.5,1521531238.0,457491392.5,,-0.632000005245,0.8889999963335,8.90000076294,-0.03600000031295,-0.36249999702,-0.0744999982417,436.0,451.0,559.5,655.0,732.0,513.0,525.5,561.0,578.0,651.5,8.0,0.6349999979100002,-0.6899999938914999,-0.3549995422350012,0.0005000010132500052,0.013999998568999972,0.004500001668900007,8.96659124642376,0.3718232074522054,15.793516500607794,1.5637196304160739,0.008041749083482846,0.0201185020320831
28,28,72.96213287180001,7297.5,1521531238.0,588207483.0,,1578354.5,1521531238.0,92572516.5,,0.5725721622305,-0.6945528840615001,0.1625074290775,0.0007902170537504999,0.9998310486990001,0.0122390096433,-0.0136836825572,-0.003986643338404999,0.0044543164855465,-0.002351876397375,0.0011858736451000015,0.013625615242195,0.008761900591174999,1.508775472645,-1.6570430994,15.56638765335,1.31134670973,0.403142005205,0.6385072171689999,1101483.5,1521531238.0,92822239.0,,,,,,1083860.5,1521531238.0,586851812.0,,0.4330000221729999,2.478999996185,8.865000915525,-0.01150000002234,-0.30800001323250004,-0.0869999974966,434.5,447.0,574.5,688.0,711.5,516.0,530.0,570.0,573.0,670.0,8.0,1.0650000274179998,1.5899999998514998,-0.034999847414999515,0.024500000290609995,0.054499983787499984,-0.012499999254900002,9.215268375503024,0.32025811108564045,15.72687571752545,1.5132234256240238,0.006423829313547325,0.01624298584005146
29,29,73.0646969744,7303.5,1521531238.0,648219466.0,,1578360.5,1521531238.0,152580082.5,,0.5724623888675,-0.6948212132975,0.162659202723,0.0011862622623525,0.9998317522235,0.01237962566765,-0.0134662219575,-0.001792831429955,-0.006080970096247001,0.0026390604218499997,-0.006295035069514999,-0.005117903150615,-0.0056108153156450005,2.338562130925,-2.030626773835,15.619675159449999,1.39609014988,0.73654666543,0.6192121207715,1101488.0,1521531238.0,153323075.5,,,,,,1083866.5,1521531238.0,645985730.5,,0.5629999578,1.473999993505,8.724999618530001,0.0004999999655450001,-0.348999992013,-0.0625,436.0,444.0,570.5,667.0,688.5,502.0,535.0,550.0,579.0,657.0,8.0,0.12999993562700013,-1.00500000268,-0.14000129699499908,0.011999999987885,-0.04099997878049999,0.02449999749660001,8.86652487035841,0.3545525270323703,15.923773736823547,1.695580239168395,0.0068671014087357,0.00986415975599418
30,30,73.16726107689999,7317.5,1521531238.0,788326978.0,,1578372.0,1521531238.0,267182475.5,,0.5713924421430001,-0.6955528551694999,0.162330389926,0.001619192760945,0.99982785634,0.0122433901957,-0.013836235463299998,-0.005736486589970001,0.004815032701292301,-0.006287127076425001,0.008425819691089999,0.014011929347375,0.01649454175720945,1.823231041435,-1.80784493685,15.69103336335,1.3922591805450002,0.5889244675635,0.6398867368700001,1578725.0,1521531238.0,265298208.0,,,,,,1083880.5,1521531238.0,786795923.5,,-0.59200001359,1.108999998869,9.924998474119999,0.0005000000819599991,-0.35750000178849994,-0.0780000016093,444.0,447.5,559.5,657.0,715.5,521.0,533.5,555.0,569.5,650.0,8.0,-1.1549999713899999,-0.3649999946359999,1.199998855589998,1.1641499905994807e-10,-0.008500009775499917,-0.0155000016093,10.004296063435264,0.3659105102752724,15.899717065278525,1.641545823402114,0.009778536965545318,0.02322495445168655
31,31,73.2698251795,7325.5,1521531238.0,868205546.5,,1578381.0,1521531238.0,357180638.5,,0.5712154124135,-0.6938891709874999,0.161478348223,0.000951680153065,0.99979950887,0.01343599654875,-0.01481403706915,-0.0027760965059709995,-0.0008819649527649994,-0.0017134376258675,0.003374224443305001,0.009918278497835002,-0.0024644940381,2.4450596570950003,-2.522884130475,15.921331405649994,1.6027879715,0.7322450876234999,0.6455936133864999,1101501.5,1521531238.0,349623076.5,,,,,,1083888.0,1521531238.0,860287010.0,,-0.6870000123975,2.25400000215,9.43500061035,-0.01800000015645,-0.31299999356249997,-0.10550000146050001,434.0,441.5,557.0,646.0,690.5,524.0,532.5,566.0,573.0,655.5,8.0,-0.0949999988075,1.1450000032810002,-0.4899978637699984,-0.01850000023841,0.04450000822599992,-0.0274999998512,9.724799306105563,0.3307918473661688,16.304356926634455,1.8766734568323997,0.0033794145182425633,0.010762498307467627
32,32,73.3723892821,7338.5,1521531238.5,498232960.5,,1578394.0,1521531238.0,487179632.0,,0.571736971386,-0.6949851822769999,0.161878159011,0.0012524260952300002,0.999825909277,0.01264221503,-0.013665905284599999,-0.000473431100492,-0.0021655931790100003,0.0011717886868900002,-0.007417433954479999,-0.00532928274909,-0.0014972104169499998,2.4433312416099997,-2.72685408592,15.3653659821,1.7812415361400002,0.753819286823,0.6808720231059999,1578747.0,1521531238.0,485255088.5,,,,,,1083901.0,1521531238.5,490577262.0,,-1.652000015975,2.39899997562,9.310000610355,-0.0195000004023,-0.34850001335149994,-0.08050000295045,417.5,441.0,552.0,659.0,704.0,519.5,527.0,565.5,571.0,666.0,8.0,-0.9650000035775,0.14499997347000004,-0.12499999999499956,-0.001500000245849998,-0.03550001978899992,0.02499999851005,9.75502005639233,0.35820770482599584,15.795571294701624,2.0505247228709975,0.0025073929788948313,0.009255334684464125
33,33,73.4749533846,7346.5,1521531239.0,78242540.0,,1578401.5,1521531238.0,562178472.0,,0.5707947312070001,-0.6953038944215,0.1614562415225,0.001804184288835,0.9998115982595,0.0129397221945,-0.014350513238299997,0.0012071269349395,-0.0002818410875099998,-0.00232147832744,0.0006273376043940001,-0.00240575529486,0.011494839910084998,2.3186968565,-2.27920114994,15.4632382393,1.6159906387349998,0.7813716232775,0.6519569754600001,1101516.0,1521531238.0,560138202.0,,,,,,1083909.5,1521531239.0,76017634.0,,-2.0420000165700003,1.018999997153,10.399998855549999,-0.0010000000474950001,-0.3815000057220001,-0.08449999988080001,429.5,443.0,551.5,650.0,701.5,515.0,527.5,560.0,567.5,643.0,8.0,-0.3900000005950004,-1.3799999784670005,1.0899982451949979,0.018500000354805,-0.032999992370500164,-0.003999996930350011,10.64744576212112,0.39074736639654567,15.801355949398157,1.9097160144883896,0.0026317012483256666,0.011760635848759055
34,34,73.5775174872,7358.5,1521531239.0,198217034.0,,1578413.0,1521531238.0,677179886.0,,0.5705807710915001,-0.6956199741985001,0.1615832106435,0.0020493397884100003,0.999812074153,0.01295393047895,-0.01426103271545,-0.003848213080065,-0.007289810704625,0.0048372469062650005,-0.002895982822455,-0.0025083423530299995,-0.0149869744341,3.084612250325,-2.7721357345599995,15.343226432800002,1.70150858164,1.007333934305,0.644558340311,1578766.0,1521531238.0,675261142.5,,,,,,1083921.5,1521531239.0,196363300.5,,0.12800007462500002,0.8790000021469999,9.804999542235,-0.00900000007823,-0.3259999901055,-0.049499999731800005,420.0,442.0,549.5,645.0,689.5,506.0,520.0,546.0,560.5,657.0,8.0,2.1700000911950004,-0.13999999500600002,-0.5949993133149984,-0.008000000030735,0.05550001561650009,0.035000000148999996,9.845153175350143,0.32985942994500317,15.89384052499119,2.0797376187061256,0.009557669258298223,0.015468933400733405
35,35,73.68008158970001,7368.5,1521531239.0,298244595.0,,1578425.5,1521531238.0,802180116.0,,0.570474550031,-0.6954230347124999,0.16175370367449998,0.002394115911825,0.9998070382065,0.013250519244700002,-0.014299696986,-0.0012630581654699993,8.816705981500115e-05,-0.0040303330551500005,-0.0004266711121050006,0.0051246850134115,-0.004584364431171,2.2391250133500002,-2.501309275625,15.4965558052,1.6514485478399998,0.641675710678,0.6612642109394999,1101533.0,1521531238.0,803121909.0,,,,,,1083931.0,1521531239.0,292414896.0,,0.09299998879435,0.5589999645945001,10.17999954225,-0.017500000074490003,-0.3414999991655001,-0.0559999998659,442.0,445.0,563.5,697.0,701.5,531.5,540.5,544.5,579.5,663.5,8.0,-0.035000085830650014,-0.32000003755249984,0.3750000000149996,-0.008499999996260003,-0.01550000906000004,-0.006500000134099994,10.195759934332635,0.34650324589767484,15.856023169175023,1.8911108853016525,0.00422453238775981,0.006889182967694728
36,36,73.7826456923,7375.5,1521531239.0,368222951.5,,1578432.5,1521531238.0,872181482.5,,0.5707170281589999,-0.6952930811785001,0.1615876583335,0.00211408145356,0.9998091189865,0.0132407580057,-0.01420111209325,0.0052327350101,0.002928331926755,0.0028932047192664,0.0030123822240799986,-0.01165359040122,0.0023664294610050004,2.267047405245,-2.467586994175,15.375857353199999,1.645420014855,0.7007683217524999,0.6762801408765,624290.0,1521531238.0,860999936.0,,,,,,1083938.5,1521531239.0,365857691.5,,-0.6519999861720001,-0.6660000145434999,10.2450000763,0.0005000000237450003,-0.375999987125,-0.05100000090895,416.5,443.0,558.0,650.5,687.0,519.0,538.5,555.0,574.5,671.0,8.0,-0.7449999749663501,-1.224999979138,0.06500053405000017,0.018000000098235002,-0.034499987959499934,0.004999998956949997,10.287307060874932,0.3794433296432246,15.736755664920397,1.9120246062750297,0.00665787331711593,0.012267053611086588
37,37,73.88520979489999,7389.5,1521531239.0,508419990.5,,1578446.5,1521531239.0,12182927.5,,0.5704075353290001,-0.695445232353,0.1618161514575,0.00220991883912,0.9998071822454999,0.01323415602335,-0.01433719937535,0.00457445077384,-0.005878705223460001,0.00323220545684,-0.004994872335969999,-0.01624873164585,-0.00709652888716,2.091685533525,-2.60483443737,15.341226577750001,1.7459757327999998,0.540975511074,0.6979050636295001,624296.0,1521531239.0,12999936.0,,,,,,1083952.5,1521531239.0,506686333.0,,-0.866999989746,0.3890000224113,9.720000457765,-0.00899999961257,-0.32750000059600004,-0.040500000119200005,428.0,447.0,559.0,687.0,705.0,545.0,551.0,564.0,574.5,645.5,8.0,-0.21500000357399995,1.0550000369547998,-0.5249996185350003,-0.009499999636315001,0.04849998652899995,0.010500000789749995,9.766341121351811,0.33011740395359573,15.700749782323436,1.9565677194894044,0.008119847726518494,0.01842093244105146
38,38,73.9877738974,7396.5,1521531239.0,578227996.0,,1578453.5,1521531239.0,82181203.0,,0.5704799725165,-0.6953652782330001,0.161657332996,0.0025120894987050004,0.999806363449,0.01337481812815,-0.01421137703245,-0.00593826712726,-0.014087815438043,0.005814519984670001,-0.009555544845020001,-0.011525878829567,-0.02647870497824,2.3936150074,-2.568785786625,15.48196268085,1.648840904235,0.7245464920999999,0.678523004055,1101552.5,1521531239.0,74639101.0,,,,,,1083959.0,1521531239.0,571864448.0,,-1.30200000703,1.20899998546,9.799998474119999,-0.0270000007004,-0.32899999618500003,-0.0619999989867,420.0,445.0,565.0,661.0,725.0,527.0,549.0,558.0,574.5,639.5,8.0,-0.435000017284,0.8199999630486999,0.07999801635499892,-0.018000001087830002,-0.0014999955889999914,-0.021499998867499998,9.959761798150732,0.3358779501573487,15.87511328061785,1.9245875957525886,0.016356595090152054,0.030418351983691045
39,39,74.090338,7410.5,1521531239.0,718197464.5,,1578465.5,1521531239.0,201971105.5,,0.5700348576034999,-0.6963796530305,0.161890533403,0.00290172215364,0.999813232512,0.01299508840725,-0.01400678532805,-0.008667225744395,-0.006154621116390001,0.0030168796156200004,0.0034034024447999987,0.00555201301187,-0.00517747222634,2.498220682145,-2.35945999622,15.3596382141,1.5696631073949998,0.7930060327055,0.6441854536535,1101561.0,1521531239.0,209530596.5,,,,,,1083973.0,1521531239.0,711475370.0,,-0.801999992132,0.598999971151,9.95,-0.0040000001899899995,-0.34299999475500004,-0.0839999988675,434.0,442.5,553.5,657.0,694.0,521.5,563.5,566.0,569.0,667.0,8.0,0.500000014898,-0.610000014309,0.15000152588000049,0.02300000051041,-0.013999998570000005,-0.021999999880799998,10.000225245104163,0.3531585992343808,15.739334297183618,1.872878996978451,0.011049964968530925,0.00831950811885934
