,Unnamed: 0,Unnamed: 0.1,.header.seq,.header.stamp.secs,.header.stamp.nsecs,.header.frame_id,.endpoint_state.header.seq,.endpoint_state.header.stamp.secs,.endpoint_state.header.stamp.nsecs,.endpoint_state.header.frame_id,.endpoint_state.pose.position.x,.endpoint_state.pose.position.y,.endpoint_state.pose.position.z,.endpoint_state.pose.orientation.x,.endpoint_state.pose.orientation.y,.endpoint_state.pose.orientation.z,.endpoint_state.pose.orientation.w,.endpoint_state.twist.linear.x,.endpoint_state.twist.linear.y,.endpoint_state.twist.linear.z,.endpoint_state.twist.angular.x,.endpoint_state.twist.angular.y,.endpoint_state.twist.angular.z,.endpoint_state.wrench.force.x,.endpoint_state.wrench.force.y,.endpoint_state.wrench.force.z,.endpoint_state.wrench.torque.x,.endpoint_state.wrench.torque.y,.endpoint_state.wrench.torque.z,.joint_state.header.seq,.joint_state.header.stamp.secs,.joint_state.header.stamp.nsecs,.joint_state.header.frame_id,.joint_state.name,.joint_state.position,.joint_state.velocity,.joint_state.effort,.wrench_stamped.header.seq,.wrench_stamped.header.stamp.secs,.wrench_stamped.header.stamp.nsecs,.wrench_stamped.header.frame_id,.wrench_stamped.wrench.force.x,.wrench_stamped.wrench.force.y,.wrench_stamped.wrench.force.z,.wrench_stamped.wrench.torque.x,.wrench_stamped.wrench.torque.y,.wrench_stamped.wrench.torque.z,.tactile_values.tactile_values_0,.tactile_values.tactile_values_1,.tactile_values.tactile_values_2,.tactile_values.tactile_values_3,.tactile_values.tactile_values_4,.tactile_values.tactile_values_5,.tactile_values.tactile_values_6,.tactile_values.tactile_values_7,.tactile_values.tactile_values_8,.tactile_values.tactile_values_9,.tag,.delta_wrench.force.x,.delta_wrench.force.y,.delta_wrench.force.z,.delta_wrench.torque.x,.delta_wrench.torque.y,.delta_wrench.torque.z,.wrench_stamped.wrench.force.magnitude,.wrench_stamped.wrench.torque.magnitude,.endpoint_state.wrench.force.magnitude,.endpoint_state.wrench.torque.magnitude,.endpoint_state.twist.linear.magnitude,.endpoint_state.twist.angular.magnitude
0,0,45.690973,4569.5,1521541565.0,98850965.0,,2610974.0,1521541564.0,287199135.0,,0.6163426876100001,-0.18323067013500002,0.130414477126,-0.0751832655959,0.995515824542,-0.013738960559200002,0.0557401168164,-0.05773000207740001,0.0241679260858,-0.0668580048412,-0.0324341588515,0.0894670591054,0.0866340256948,-1.49018716812,0.5912652015690001,5.9947018623399995,0.36223748326300004,-0.520162284374,0.318107038736,2611326.5,1521541564.0,280226638.0,,,,,,2115426.0,1521541565.0,92438788.0,,2.8389997959099995,-1.00799997263,1.0350013732899999,-0.10000000149,-0.0680000036955,-0.0419999994338,-8.0,0.5,22.0,38.0,66.0,-164.5,-141.0,-141.0,-136.0,-134.5,4.0,0.0,0.0,0.0,0.0,0.0,0.0,3.1854688240055475,0.1280156269875956,6.205376922714574,0.7092086325329644,0.091579662603065,0.12869259393399737
1,1,45.79353710260001,4580.5,1521541565.0,208851933.0,,2610984.0,1521541564.0,387198238.0,,0.612481570971,-0.18202815103300002,0.124115251837,-0.07598279875289997,0.9957078661750001,-0.0133181013093,0.051137928280300005,-0.056168410898,-0.00864362548973,-0.0807486738987,-0.0369390180046,0.118269104948,0.0545591311627,0.820852518082,1.4980852603900001,3.19666624069,-0.3797070086,-0.299102574587,0.0591033399105,1822042.5,1521541564.0,388629338.0,,,,,,2115437.0,1521541565.0,202852924.0,,1.86900000572,-1.4279999893200002,1.8050018310499998,-0.059000000357599995,-0.07000000029799999,-0.04500000178809999,10.5,15.0,25.5,28.0,58.0,-176.0,-174.5,-156.0,-146.0,-140.0,4.0,-0.9699997901899996,-0.4200000166900002,0.7700004577599999,0.0410000011324,-0.0019999966024999982,-0.0030000023542999872,2.964856927572245,0.1020098046505619,3.624463182073515,0.4869630040291649,0.09874184007203769,0.13538379160584144
2,2,45.8961012051,4587.5,1521541565.0,279035448.5,,2610991.0,1521541564.0,457201793.0,,0.6116823188939999,-0.181919250583,0.118575799947,-0.0771530973619,0.99572026782,-0.0134211668515,0.04907565690809999,-0.014066122579000001,-0.00455298453776,-0.0951478466798,-0.0309564550748,0.08809431468389999,0.053678251088800005,1.90871179104,0.887663781643,4.69172048569,-0.0465795956552,0.419183641672,0.09669188410039999,1822048.0,1521541564.0,459131752.0,,,,,,2115444.0,1521541565.0,272357261.0,,1.25900011063,0.112000002339,1.9250007629400003,-0.108999997377,-0.0909999981523,-0.0610000006855,13.5,18.0,19.0,23.0,33.5,-186.0,-180.5,-155.0,-141.5,-138.5,4.0,-0.6099998950900001,1.539999991659,0.11999893189000033,-0.0499999970194,-0.02099999785430001,-0.015999998897400017,2.3028793317084313,0.1545412539600207,5.1423116208898785,0.43270533233100655,0.09628965780607626,0.10770452650829661
3,3,45.9986653077,4600.5,1521541565.0,408852934.5,,2611004.0,1521541564.0,587200680.5,,0.6162589128345,-0.18209880096700004,0.1092543336215,-0.0782943059345,0.9956339605915,-0.0129243385182,0.0491444997762,0.024687376217665,-0.017747237418429998,-0.08837177597435003,-0.026837314149505003,0.021574243769049997,0.0345977661371,2.12423592806,1.1760506629949998,3.236194849015,-0.273693472147,0.6901391446590001,0.06014661863448501,2611356.0,1521541564.0,575276972.0,,,,,,2115457.5,1521541565.0,407128548.0,,1.6589999675749998,0.7419999975714999,0.8249984741215001,-0.107499998063,-0.07349999994039999,-0.06700000166895001,11.0,12.5,13.0,23.0,53.0,-190.0,-155.0,-153.0,-149.0,-146.0,4.0,0.39999985694499984,0.6299999952324999,-1.1000022888185002,0.0014999993140000086,0.017499998211900014,-0.006000000983450007,1.9958625631823348,0.14644964936258162,4.045791707537985,0.7448609074315145,0.09345588140593059,0.048812855342041585
4,4,46.1012294103,4611.5,1521541565.0,518898010.0,,2611015.0,1521541564.0,697199011.0,,0.615173395334,-0.184798318558,0.10102344741800001,-0.07753505639210001,0.995896744509,-0.0136520033859,0.0446274815506,0.00596523854679,-0.010979103261,-0.05884214901750001,0.0116771690053,0.0529053908292,-0.03861566999569999,0.107831403613,1.55884873867,5.91128158569,-0.18652009964000002,-0.17750249803100002,0.123094439507,1822064.0,1521541564.0,696138269.0,,,,,,2115468.0,1521541565.0,512100954.0,,1.319000053408,-0.3629999963565,0.07500038147000004,-0.08999999985099999,-0.07050000131129999,-0.05900000222030001,2.0,11.0,13.0,35.5,93.0,-181.0,-162.5,-146.0,-143.0,-141.0,4.0,-0.3399999141669998,-1.104999993928,-0.7499980926515,0.017499998212000004,0.002999998629099998,0.007999999448650007,1.3700931338656404,0.12865166310650128,6.114318194776576,0.2853929316127209,0.06015416261850453,0.06653199699381902
5,5,46.2037935128,4620.5,1521541565.0,608863472.5,,2611024.0,1521541564.0,787200583.0,,0.615045873015,-0.184939212501,0.0939850573776,-0.07527927355399999,0.996146054576,-0.013008708345500001,0.043091094594099995,0.011329148684799999,-0.015631470741999998,-0.07762661090169999,-0.022602102976000002,-0.0217783331823,-0.0278568835902,3.22645545006,2.3679420948,4.5471906662,-0.618383347988,0.971734046936,0.09643355757000001,1822070.0,1521541564.0,786633532.0,,,,,,2115477.5,1521541565.0,609095574.5,,1.6340001106250002,-1.348000006005,0.8049999237059999,-0.1030000001195,-0.08300000056625,-0.049499999731800005,12.5,14.0,16.5,37.5,115.0,-143.5,-136.5,-129.5,-125.5,-122.0,4.0,0.3150000572170002,-0.9850000096485,0.7299995422359999,-0.013000000268499998,-0.012499999254950005,0.009500002488499998,2.266072649956011,0.14123827417546103,6.057566135860514,1.1558392855709094,0.07999114455715856,0.041966138951480055
6,6,46.3063576154,4628.5,1521541565.0,689278959.5,,2611034.0,1521541564.0,887197438.5,,0.61878901577,-0.1862966701445,0.0894088637156,-0.0760111252615,0.996035206438,-0.013312311504,0.0442526369318,0.0408948782141,-0.0062601914118,-0.05584316048285,0.0447635869196,-0.024226279907,-0.06374230425369999,1.1174201965315,2.003661870955,3.1953394413,-0.459066003561,0.2030199952425,0.08285760879515,2611386.5,1521541564.0,880279628.0,,,,,,2115485.5,1521541565.0,688324772.0,,2.7790000915500004,0.8320000011475,0.7550006866445,-0.105499997735,-0.07149999961255,-0.07899999991060001,20.0,22.5,37.0,41.0,84.5,-163.0,-142.0,-141.0,-131.0,-129.0,4.0,1.1449999809250002,2.1800000071525,-0.04999923706149989,-0.002499997615500002,0.01150000095369999,-0.029500000178800008,2.9975142280860014,0.1499449880874798,3.9336348246707877,0.5087475773200133,0.0694984865545415,0.08157066080161517
7,7,46.4089217179,4640.5,1521541565.0,809409498.5,,2611046.5,1521541565.0,12200316.5,,0.6232929525790001,-0.1869561831865,0.08347397178084999,-0.07498038417744997,0.99614729328,-0.013488895312250001,0.04343358544485,0.05121053796265,-0.01299107465564,-0.04542630995495,-0.016304216492549997,0.0022448097973320003,-0.00445943910473,0.7595360428075001,1.49175804853,5.337884187699999,-0.23624190315614998,0.22260338254275006,0.1288991346957,1822086.5,1521541565.0,12152038.5,,,,,,2115497.0,1521541565.0,802867512.0,,2.41900019646,1.4719999868399998,1.8649993896500001,-0.09899999946360001,-0.0410000011325,-0.082000002265,10.5,15.5,21.0,21.0,49.5,-180.0,-171.0,-150.0,-149.0,-148.0,4.0,-0.3599998950900005,0.6399999856924998,1.1099987030055,0.006499998271399993,0.030499998480050007,-0.0030000023543999828,3.390659026668024,0.13492961260641714,5.594215286970586,0.3492527589749491,0.06967665932904374,0.01705148801691313
8,8,46.5114858205,4648.5,1521541565.0,888922929.5,,2611053.5,1521541565.0,82199566.5,,0.6283627837375,-0.187252884467,0.08127382578839999,-0.0752035154864,0.99609676362,-0.01355309698815,0.04417926252314999,0.0815425545552,-0.0014725530656350006,-0.03122403927535,0.0038860249726665,-0.0259332992603,-0.008862545079288001,1.7994760870950002,1.7170276641849995,4.356545209884999,-0.24206617474550002,0.5194716155529999,0.182359933853,2611405.0,1521541565.0,65311542.0,,,,,,2115505.0,1521541565.0,881716879.0,,2.8389997959099995,1.14199994393,1.9450012207,-0.10800000280099999,-0.0540000014007,-0.0640000030398,16.0,16.0,18.5,69.0,85.0,-193.0,-165.0,-162.5,-158.0,-150.0,4.0,0.4199995994499997,-0.33000004290999985,0.08000183105000014,-0.009000003337400003,-0.013000000268200002,0.0179999992252,3.62589484977676,0.1366601666374881,5.01655104163959,0.6014166091787233,0.08732867366785939,0.027679991074689242
9,9,46.614049923100005,4661.5,1521541566.0,18855571.5,,2611067.0,1521541565.0,217197834.0,,0.64226923377,-0.186579015762,0.07612026057625,-0.07396314385135,0.9960867893315,-0.011970553431850002,0.046870949905,0.1362995393335,0.021547571096650002,-0.0314540331674,0.06288085138970001,-0.102973562772,-0.014385192700885,2.9353950023650004,1.5417738556849998,4.163791537285,-0.26831034570900003,1.101354479791,0.17049494385699998,2611420.0,1521541565.0,215307631.0,,,,,,2115518.5,1521541566.0,18288157.5,,2.823999929425,0.007000007479999987,2.245000457765,-0.110999997705,-0.06400000117719999,-0.0650000013411,7.0,8.5,14.0,28.0,62.0,-201.0,-170.5,-168.0,-166.0,-159.5,4.0,-0.014999866484999737,-1.13499993645,0.29999923706499976,-0.0029999949040000057,-0.009999999776499992,-0.0009999983013000008,3.607637960891057,0.14367323973355167,5.322665723859559,1.1463161246580233,0.1415316870710775,0.12150921722443181
10,10,46.7166140256,4669.5,1521541566.0,98913550.0,,2611073.5,1521541565.0,282678026.5,,0.6495204647015,-0.185238277217,0.07442531459394999,-0.07408847873855,0.995978063531,-0.01105465323685,0.04915598855935,0.11028612328080001,0.005333290285549998,-0.02240112968895,0.029074661510650003,-0.0658360073055,-0.0324568043293,0.9256824254965,0.8552301228045001,4.249208450319999,-0.0064332354814,0.445025458932,0.182503208518,2611425.0,1521541565.0,265341475.0,,,,,,2115526.0,1521541566.0,93741627.0,,1.9189999580400001,-0.027999998256599996,0.754998779297,-0.0750000029802,-0.0419999994338,-0.082000002265,13.0,16.0,36.5,47.5,64.0,-207.0,-182.0,-170.0,-156.0,-145.0,4.0,-0.904999971385,-0.03500000573659999,-1.490001678468,0.035999994724800005,0.022000001743399996,-0.0170000009239,2.062369509956897,0.11879815137841672,4.432164140698783,0.48103686629588066,0.11266447348174541,0.0789503638190426
11,11,46.819178128199994,4682.5,1521541566.0,228861569.5,,2611085.0,1521541565.0,397677348.0,,0.656648571061,-0.185510544927,0.0711842224991,-0.07185768659649999,0.996108348037,-0.009683596293309999,0.0501084804362,0.0414717339183,-0.0218687482748,-0.034613479343,-0.019679727224400003,-0.00198282350489,-0.0259002779592,1.6958456039399998,1.01685929298,4.21310472488,0.0110336244106,0.774415254593,0.30592370033300004,1822113.5,1521541565.0,404366404.5,,,,,,2115539.0,1521541566.0,224404134.0,,2.6890001773799996,-1.6080000560699999,1.07499847412,-0.0930000022054,-0.0670000016689,-0.0630000010133,16.5,20.0,25.0,47.0,65.0,-197.0,-179.5,-172.0,-163.0,-156.0,4.0,0.7700002193400002,-1.5800000578134,0.3199996948230001,-0.0179999992252,-0.025000002235099995,0.0190000012517,3.3124021274040865,0.13079373364772798,4.654046256423392,0.8327244669393414,0.05827726673004775,0.032589072571065233
12,12,46.9217422308,4691.5,1521541566.0,318867921.5,,2611094.5,1521541565.0,492678180.0,,0.6582761325905,-0.1864393293865,0.06698784944015,-0.07293569341214999,0.99611211919,-0.0107482914792,0.048222365705150004,0.026258671972,-0.010007354334505,-0.042616573995050006,-0.014977617516845,0.0229555449651,0.006010017008699999,2.445753932,1.3815979957550002,3.83168506622,-0.161914870143,0.959624722598,0.1945474892855,1822119.0,1521541565.0,490378759.0,,,,,,2115548.0,1521541566.0,314361588.0,,2.06900005341,-0.247999997064,1.51500091553,-0.0869999974966,-0.0579999983311,-0.0540000014007,19.0,21.0,24.0,30.5,93.0,-189.0,-173.0,-160.0,-159.0,-158.0,4.0,-0.6200001239700001,1.360000059006,0.4400024414099999,0.006000004708799994,0.009000003337799996,0.0089999996126,2.5763332458381747,0.1176817722593079,4.751035230816655,0.9924438316509427,0.0510474032011914,0.02806076220580071
13,13,47.0243063333,4702.5,1521541566.0,428878426.0,,2611105.0,1521541565.0,597201411.0,,0.658818787877,-0.188203481445,0.06054679036755,-0.0745096625278,0.996091759093,-0.0129308674813,0.0456299220048,0.020236439164095003,-0.02705432120995,-0.06835800855285,-0.06661643374349999,0.00037660798970000353,0.03317050143425,5.383978128435,2.6726146936449995,-0.2807581424710001,-0.6811977922915,1.756153583525,0.08465918432915,1032796.0,1521541565.0,606000128.0,,,,,,2115559.0,1521541566.0,425106841.5,,2.599000024795,0.8419999916105001,2.069999313355,-0.1089999973775,-0.08949999883780001,-0.08099999837595001,25.5,28.0,39.5,68.0,96.0,-204.0,-172.0,-162.0,-157.0,-155.5,4.0,0.5299999713850001,1.0899999886745002,0.5549983978249999,-0.021999999880899984,-0.031500000506700016,-0.02699999697525001,3.4276321669698846,0.16264147366881893,6.017384392135621,1.8855431627628656,0.0762513416241628,0.0744189038059525
14,14,47.1268704359,4710.5,1521541566.0,508902907.0,,2611113.5,1521541565.0,682683863.5,,0.6592796726055,-0.1885164584225,0.054496840527250005,-0.0743465400285,0.9961551142614999,-0.013258865095799998,0.04440269224815,0.013096699902525,0.00859252248176,-0.06593877949065001,0.008141311557739998,0.009149808279649998,-0.0405669754031,0.988117963073,1.642156124115,4.958667993544998,-0.2547411993145,0.28789058327649997,0.07464104332045,2611466.0,1521541565.0,675729553.0,,,,,,2115567.0,1521541566.0,504227777.0,,2.0590000629400005,0.071999995783,1.1750007629399999,-0.0710000023246,-0.0630000010133,-0.08500000089410001,20.0,23.0,30.0,60.5,69.0,-192.5,-168.0,-163.0,-155.5,-138.0,4.0,-0.5399999618549995,-0.7699999958275001,-0.8949985504149998,0.03799999505289999,0.02649999782450001,-0.004000002518149998,2.3717698141871315,0.12741664180854087,5.31614918104482,0.39159335019307784,0.06777372375524983,0.04237545797735127
15,15,47.2294345385,4720.5,1521541566.0,608896016.5,,2611124.0,1521541565.0,787677872.0,,0.6632808669029999,-0.188244482118,0.0483150031187,-0.073292621596,0.996246667361,-0.01260025777745,0.04429178975385,0.04443625674854999,-0.012887659900499998,-0.0612845171361,-0.025268154683150003,-0.0009130592867499996,0.025719523498600003,2.51061618328,1.6366701424109995,4.16659903526,-0.29894834756850003,0.8488415777699999,0.17684532701965,2611476.0,1521541565.0,775731701.0,,,,,,2115576.5,1521541566.0,600551752.0,,2.1090000152600004,-0.3179999973627,1.0650001525855,-0.1140000000595,-0.0794999971986,-0.06399999931455,34.5,46.0,61.5,66.0,96.0,-199.0,-181.0,-172.0,-156.0,-150.0,4.0,0.049999952319999874,-0.3899999931457,-0.11000061035450016,-0.04299999773490001,-0.016499996185299997,0.02100000157955001,2.3839526815137284,0.1530106188485159,5.132487729691776,0.9171566978186915,0.0767884413967294,0.03606670496937243
16,16,47.331998641000006,4733.5,1521541566.0,738999962.5,,2611138.5,1521541565.0,932680944.0,,0.670050024619,-0.184133709595,0.03901249494055,-0.0725446915345,0.99643572467,-0.009335172368805,0.0420198079148,0.06349198244615001,0.0597525410169,-0.0744106521898,0.1095038402945,0.03523818112515,-0.04750342380195,5.10701918602,2.208997964855,1.430371284485,-1.4804029464700001,0.9512108266355,-0.14614102244350002,2611491.5,1521541565.0,930748915.0,,,,,,2115590.0,1521541566.0,733432454.0,,3.9289999485000004,4.29200003929,-2.48499908447,-0.6320000290869999,0.275999993086,-0.155000001192,23.5,24.5,43.0,54.0,83.0,-202.0,-178.0,-168.0,-158.5,-156.0,4.0,1.81999993324,4.610000036652701,-3.5499992370555,-0.5180000290275,0.35549999028459994,-0.09100000187745,6.327205179413349,0.7068415899754066,5.745196166066846,1.76571575262455,0.11462348429632527,0.12445640088464678
17,17,47.4345627436,4741.5,1521541566.0,819965481.5,,2611147.0,1521541566.0,17698684.0,,0.6750786162100001,-0.178309446408,0.0322409791693,-0.0760054383136,0.996233258045,-0.0076750020318999985,0.0410312473162,0.06131692592,0.0945158821449,-0.07871003973410001,0.0357164106093,0.005770188273340001,0.13916568662999998,5.73162078857,1.41341924667,-0.7936457991600001,-1.61848092079,0.775103449821,-0.18792256712900002,2611500.0,1521541566.0,15731758.5,,,,,,2115598.5,1521541566.0,819196291.5,,3.2240000248,5.672000153735,-4.1350006103500005,-0.855499982834,0.4949999898675001,-0.210000000894,33.5,48.0,61.0,63.0,105.0,-149.5,-133.5,-127.5,-125.5,-122.0,4.0,-0.7049999237000001,1.3800001144449991,-1.6500015258800005,-0.22349995374700005,0.21899999678150006,-0.054999999702000014,7.724247015177283,1.010448024874748,5.956433873161801,1.8043227926626697,0.1374346671580755,0.1437916735931579
18,18,47.537126846199996,4753.5,1521541566.0,940057515.5,,2611159.0,1521541566.0,137682821.0,,0.682441323172,-0.172097331824,0.023148405162299997,-0.0859231779975,0.995363895977,-0.010480586762100001,0.041929457064900005,0.0627674859113,0.0772160779208,-0.0570546150195,0.020243098314,-0.028806182117300006,0.116752578545,2.51902413368,-3.24280929565,4.84749937057,1.6468446254700002,0.702924370766,0.434681713581,2611512.0,1521541566.0,135761500.0,,,,,,2115610.0,1521541566.0,934035705.0,,2.18900017738,1.9720001060499999,-1.37499847412,-0.372999995947,0.18999999761599998,-0.133000001311,51.0,55.5,60.5,74.0,86.0,-146.0,-136.0,-132.0,-130.0,-117.5,4.0,-1.0349998474200002,-3.7000000476849992,2.7600021362300007,0.482499986887,-0.3049999922515001,0.076999999583,3.251326959667885,0.43922431219055713,6.352916248597401,1.8425927611867785,0.1147053140535331,0.12194565902249951
19,19,47.6396909487,4760.5,1521541567.0,10723947.5,,2611166.0,1521541566.0,207679537.0,,0.6871803545649999,-0.16763830683550002,0.01965466473615,-0.08596781017315,0.9953328744615,-0.00783906943504,0.043128302719249986,0.05191807981765,0.05686141119365,-0.054758542450050005,0.07770958747255001,0.004095679801750999,-0.016871487889600002,4.5372607708,-1.9768666625,1.687633812425,0.704038888216,0.9057856798174999,0.2458456233145,2611518.5,1521541566.0,200747155.0,,,,,,2115617.5,1521541567.0,9695453.5,,3.7390001297,3.95700012036,-3.51499977112,-0.471499994397,0.286500006914,-0.14850000292100002,48.0,62.5,64.0,71.0,75.0,-145.5,-129.5,-122.0,-119.0,-118.0,4.0,1.5499999523200003,1.98500001431,-2.1400012969999995,-0.09849999845,0.096500009298,-0.01550000161000001,6.480215684172813,0.5713551868545783,5.229038629459973,1.1732683087792695,0.09448388786528182,0.07962538340128286
20,20,47.7422550513,4774.5,1521541567.0,149435996.5,,2611178.0,1521541566.0,327680809.0,,0.6913420145829999,-0.166381193106,0.0147159620335,-0.0822835962798,0.9956881154739999,-0.0046907576874700005,0.0425744439595,0.0424014539851,-0.01169163939,-0.0273503089329,0.016041003957499998,-0.0191343275795,-0.0468226468311,4.11594057083,-1.2100199461,2.10915565491,-0.0453331843019,0.862952888012,0.105701431632,2611531.0,1521541566.0,325742165.0,,,,,,2115631.5,1521541567.0,149504271.5,,2.3190000534050004,5.33700011559,-3.349998855595,-0.605499982834,0.2020000070335,-0.1314999982715,72.5,80.5,85.0,111.5,128.0,-145.5,-143.5,-141.0,-121.0,23.0,4.0,-1.420000076295,1.3799999952300004,0.16500091552499985,-0.13399998843699995,-0.08449999988050003,0.017000004649500022,6.714448883861421,0.6517104277199443,4.780549406627136,0.8705834693906471,0.0517939873962357,0.053064079716452855
21,21,47.8448191538,4784.5,1521541567.0,253888010.5,,2611187.0,1521541566.0,417677221.0,,0.692098081021,-0.165541526975,0.013482312332600001,-0.0823667947595,0.995673028825,-0.00409227247718,0.042827375564,-0.0157570935976,-0.015016667186499999,-0.0152700655559,-0.0375347151234,0.05591792025859999,0.0122262822362,3.36207342148,0.5741693377489999,2.88780784607,-0.388745486736,0.9338184595110001,0.14893424511,1032828.5,1521541566.0,421999872.0,,,,,,2115641.5,1521541567.0,249640492.5,,2.0539999485,3.6520000536,-1.779999160765,-0.505999997258,0.1110000014305,-0.08600000292064999,78.0,80.5,91.5,99.0,123.5,-160.0,-156.0,-148.0,-147.0,-47.5,4.0,-0.2650001049050004,-1.6850000619900003,1.56999969483,0.09949998557599993,-0.091000005603,0.04549999535085,4.552407845553439,0.5251218887506203,4.4690762217327205,1.022409594119496,0.026588741867849187,0.06844816011231536
22,22,47.9473832564,4794.5,1521541567.0,348861932.5,,2611197.5,1521541566.0,522701980.5,,0.692878725185,-0.166124618233,0.0136474581016,-0.08167559180335,0.9957022762745,-0.004233557477804999,0.0434524544921,-0.003924884227289999,0.014043668274035,-0.00044009854518,0.0102302915026725,0.010643243032812002,0.006487306199180001,4.178822755815,0.5963961184025,2.366270303725,-0.33598673343650004,1.328203082085,0.18257048726050001,1822191.5,1521541566.0,521364604.5,,,,,,2115650.5,1521541567.0,339981549.5,,1.4890000104899999,2.711999996375,-1.199999237065,-0.46299999952299997,0.07149999961260001,-0.08349999785425,79.0,85.0,92.0,102.0,110.0,-171.5,-157.0,-150.0,-149.5,-79.0,4.0,-0.5649999380099999,-0.9400000572250002,0.5799999237000002,0.04299999773500002,-0.03950000181789999,0.002500005066399996,3.318442884928683,0.4758713052334208,4.839161405125235,1.3821514009412859,0.014588455076471824,0.016125217152245536
23,23,48.049947358999994,4802.5,1521541567.0,429484963.0,,2611205.0,1521541566.0,597678472.0,,0.692318730512,-0.16516656256200002,0.0133056494502,-0.08264695389019999,0.9956389913299999,-0.00438823212247,0.0430490809976,0.0175503981435,-0.0046440967255100005,0.010302378610299999,-0.0104135210965,-0.0412145392021,-0.0026827566689400003,3.5967068672199995,0.592747867107,2.33953213692,-0.348680317402,1.0896348953200001,0.13595610857,2611558.5,1521541566.0,600748047.5,,,,,,2115658.5,1521541567.0,420215901.5,,2.01900010109,3.19200001545,-1.17500152588,-0.3955000042915,0.05849999934435,-0.1015000008047,63.0,66.5,71.0,79.0,123.0,-172.5,-163.0,-150.0,-143.0,-111.0,4.0,0.5300000906,0.4800000190750002,0.024997711184999938,0.06749999523150002,-0.01300000026825001,-0.018000002950449998,3.9554840528884148,0.41248606459033205,4.331404038224656,1.1521138104805813,0.02087398175771043,0.042594328808110475
24,24,48.1525114615,4814.5,1521541567.0,548854946.5,,2611217.0,1521541566.0,717682606.0,,0.6919348870640001,-0.165390310677,0.0132729638184,-0.0830176684774,0.9956293445479999,-0.00465104708542,0.042528140756999996,-0.012668602257999999,0.00426886256657,-0.0119422558793,-0.007271288510810002,0.027735204068,0.0203349065049,3.58249878883,0.388434827328,2.7707176208499997,-0.00660647079349,1.15160548687,0.248105242848,1822206.0,1521541566.0,727881119.0,,,,,,2115670.5,1521541567.0,540859853.5,,1.854000020025,1.23700003214,-0.8850006103515,-0.329500004649,0.0405000001192,-0.07550000026824999,58.5,60.5,64.0,83.5,123.0,-163.0,-160.5,-156.0,-153.0,-150.0,4.0,-0.16500008106500008,-1.9549999833099998,0.29000091552849994,0.06599999964250003,-0.017999999225150002,0.026000000536450005,2.3980640596300984,0.34045668316814104,4.545553357022491,1.1780471358880764,0.017925795554740123,0.03515140969952792
25,25,48.2550755641,4826.5,1521541567.0,669808983.5,,2611232.0,1521541566.0,867680155.0,,0.6920912822669999,-0.165963339729,0.013084156583200002,-0.0830472857891,0.9956159651469999,-0.00501400282237,0.0427417599534,-0.0042392290840399995,0.00906929120736,4.25658644269e-05,0.0072260695508,0.000297836292924,-0.0029855938135599997,3.802316427230002,0.524578630924,3.02438759804,-0.0713789090514,1.3134820461299999,0.217204645276,1822214.5,1521541566.0,858371278.5,,,,,,2115683.0,1521541567.0,664790030.0,,1.9489999294299998,2.50200007744,-1.81500091553,-0.358999997377,0.0189999993891,-0.0879999995232,54.0,59.0,60.0,77.0,94.0,-168.0,-164.0,-158.0,-154.0,-142.0,4.0,0.09499990940500004,1.2650000453,-0.9300003051785,-0.029499992728000024,-0.0215000007301,-0.012499999254950015,3.6541529026304644,0.370116195281367,4.886687354024542,1.3332321223600534,0.010011239587767463,0.007824228909608242
26,26,48.3576396667,4833.5,1521541567.0,740168571.0,,2611239.5,1521541566.0,942678677.5,,0.6919314465095,-0.1652093459805,0.01311456651765,-0.08309341541975,0.9956167393915,-0.0045448214678,0.0426819213349,0.004985119784865001,0.006830801677119997,0.004977264704545,-0.007824485931155,-0.01800023852505,0.023531064812105,3.1699479818350005,0.613026618958,3.06955873966,-0.2315205484625,1.02708208561,0.16727698594350002,2611592.5,1521541566.0,940729324.0,,,,,,2115689.5,1521541567.0,732170191.5,,2.88899998665,3.43700002022,-1.6150001525850002,-0.35199999809249993,-0.0010000000474950001,-0.07349999994039999,61.0,67.5,73.5,89.5,101.0,-169.0,-160.0,-156.5,-154.0,-152.5,4.0,0.94000005722,0.9349999427799998,0.2000007629449998,0.006999999284500069,-0.019999999436595,0.014499999582800016,4.771531782845584,0.3595931710258883,4.454948114098969,1.0660586123509843,0.009812463236145513,0.030642163406604025
27,27,48.4602037692,4843.5,1521541567.0,839198588.5,,2611248.5,1521541567.0,32677413.5,,0.6917186482640001,-0.1649486221105,0.01303274775295,-0.08370082283985003,0.9955749612645001,-0.004609303620185,0.042464927797800006,-0.00696814074915,-0.00970956958804,-0.00988666110001,-0.0007599623656099999,0.02128719681035,-0.01134304462558,3.128327250485,0.489657610655,3.1407126188300003,-0.15135714411714998,1.04019856453,0.185053244233,2611602.0,1521541567.0,35734486.0,,,,,,2115699.5,1521541567.0,831936870.5,,2.074000048635,2.881999953465,-0.9849990844725,-0.35199999809250004,0.034499999135750005,-0.07149999961260001,58.5,62.5,72.5,78.5,110.0,-179.0,-174.0,-164.0,-156.5,-154.0,4.0,-0.8149999380150001,-0.5550000667549999,0.6300010681125002,-1.1102230246251563e-16,0.035499999183245014,0.0020000003277999834,3.6847826435112703,0.36084137587323406,4.4598510867379195,1.0673175450289996,0.015510538185098765,0.024132694673774376
28,28,48.562767871800006,4855.5,1521541567.0,959158539.5,,2611261.5,1521541567.0,162189065.5,,0.6922857053625,-0.165430638959,0.0134485169863,-0.0832778309428,0.995579245082,-0.004784598160655,0.04317213974129999,0.007333620412355002,-0.005497103406050001,0.005416174885775,-0.0016944251530625,-0.01379062786878,-0.004598273561450001,3.040685772895,0.5845439732075,3.106200814245,-0.1848982051015,1.0176628231999998,0.1781627833845,2611613.0,1521541567.0,145750679.0,,,,,,2115711.5,1521541567.0,952211717.0,,1.7090000390999998,2.65199993439,-0.979999923706,-0.366499990225,0.039500001817900005,-0.0595000013709,56.0,60.0,63.0,64.0,69.0,-181.5,-176.0,-170.5,-163.0,-162.0,4.0,-0.3650000095350001,-0.23000001907499976,0.004999160766499977,-0.014499992132499973,0.00500000268215,0.011999998241700005,3.303662306609459,0.37339354994653606,4.385880199517033,1.0495555942190307,0.01064589519968219,0.014635457401818113
29,29,48.6653319744,4866.5,1521541568.0,69089412.0,,2611271.0,1521541567.0,256845812.0,,0.692111018536,-0.165805634717,0.013287027198999999,-0.0827076101994,0.995637928354,-0.004646020525029999,0.0429299584387,-0.00272523954318,-0.0020520346623,0.0036439484387699997,-0.00998246896192,-0.005631244205189999,0.023871767711,3.1450917720800002,0.5056595206260001,3.0749440193199997,-0.169255360961,1.03552508354,0.18167054653200002,2611624.0,1521541567.0,254911843.0,,,,,,2115722.5,1521541568.0,61317998.0,,2.29400019646,2.94200001545,-1.3549999237049999,-0.3544999957085,0.0364999994636,-0.0679999999702,48.0,49.0,54.0,57.5,106.5,-171.5,-166.5,-162.0,-155.0,-154.0,4.0,0.5850001573600001,0.2900000810600001,-0.3749999999990001,0.011999994516500023,-0.0030000023543000076,-0.008499998599299993,3.969108940997573,0.3628036616602932,4.427479477937404,1.0648773466140586,0.0049916066599249315,0.026480594621762638
30,30,48.767896076899994,4873.5,1521541568.0,139015912.5,,2611276.0,1521541567.0,306853040.0,,0.6914209873270001,-0.165172199341,0.0131056476315,-0.083547897269,0.9955890176919999,-0.00464470774871,0.042434460095100004,0.0036563283870799995,-0.0009758359841589999,-0.000217524951431,-0.00239183590481,-0.0052341491986099995,0.00970463684567,3.04843354225,0.308595359325,3.2589659690900006,0.0041910726577,1.06267440319,0.25424638390500004,1822246.5,1521541567.0,316461935.5,,,,,,2115729.5,1521541568.0,131275159.5,,1.96399991512,3.452000005915,-0.800001525879,-0.34950000047700003,0.016499999910600003,-0.06600000150505,50.0,52.5,54.0,55.5,68.5,-176.0,-164.0,-164.0,-160.0,-159.0,4.0,-0.3300002813399998,0.5099999904649999,0.5549983978260001,0.004999995231499965,-0.019999999552999997,0.001999998465149991,4.051370403806255,0.3560596867508865,4.47314624677067,1.092673636551195,0.0037905554008141936,0.011282604891388501
31,31,48.8704601795,4886.5,1521541568.0,268921017.0,,2611289.5,1521541567.0,441848704.0,,0.6919730979090001,-0.1648500413475,0.013173187662150001,-0.08408441224544999,0.9955197102035,-0.004611872595155,0.04300016487895,-0.00791217657947815,0.00641830202254,0.0025323011570349985,-0.0060995383250600005,0.004419551781450001,0.0237778258883,2.8727135658250003,0.496981203556,3.097438812255,-0.1254267841575,0.96411806345,0.1932320222255,1032869.0,1521541567.0,436999936.0,,,,,,2115742.5,1521541568.0,261801719.0,,1.76399998665,3.0520000297600003,-0.3850006103515,-0.36050000786799996,-0.0005000000237450001,-0.0920000001788,50.5,52.0,65.0,80.5,88.5,-178.0,-168.0,-157.5,-147.0,-141.5,-0.5,-0.19999992847000006,-0.3999999761549997,0.4150009155275,-0.011000007390999987,-0.016999999934345002,-0.02599999867375,3.5460718555222863,0.37205443916952663,4.25365733735413,0.9912588626933059,0.010498080216273086,0.02494236976917196
32,32,48.9730242821,4894.5,1521541568.0,348998427.0,,2611297.0,1521541567.0,516854636.0,,0.69110217718,-0.164868939637,0.0127046526824,-0.0839279195906,0.995573102595,-0.00453063402654,0.042068694522199995,0.00100526522996,-0.008731837993909999,0.0021720574938299997,-0.0154986504492,0.00221058618941,-0.00410704981988,1.6282072067299995,0.26032975316,4.76895856857,-0.165210932493,0.4896544218060001,0.16722337901599998,1822261.0,1521541567.0,522957241.5,,,,,,2115750.5,1521541568.0,341323008.0,,1.7390000104900003,2.167000039295,-0.08000030517585001,-0.36100000143100003,-0.0065000000758999995,-0.06600000336765001,52.5,55.5,65.5,70.5,77.0,-174.5,-169.5,-167.0,-158.5,-149.0,-1.0,-0.024999976159999937,-0.8849999904650003,0.30500030517565,-0.0004999935629999563,-0.006000000052155,0.025999996811149992,2.7796421092682024,0.36704121223467334,5.045968303226356,0.54315721803075,0.009053915544722062,0.016185262286113066
33,33,49.0755883846,4908.5,1521541568.0,488958477.5,,2611311.0,1521541567.0,656877964.0,,0.6917723991920001,-0.165085709832,0.013219183441000001,-0.0836486475205,0.995560369006,-0.004761313163189999,0.0428927188327,-0.0073720580654,0.0110265245874,-0.009864492789120001,0.021846592365900003,0.0145603665231,0.0008376377721769999,1.4781931638699999,0.224179729819,4.7192773819,-0.031708423048299995,0.572842657566,0.213352233171,2611664.0,1521541567.0,654945439.0,,,,,,2115764.5,1521541568.0,484466614.0,,1.663999962805,2.781999929625,-0.615000152588,-0.348999992013,-0.03100000042465,-0.07350000366569999,54.0,54.0,71.0,97.0,149.0,-182.0,-169.0,-166.0,-162.0,-156.0,-1.0,-0.07500004768500013,0.61499989033,-0.53499984741215,0.012000009417999946,-0.02450000034875,-0.007500000298049979,3.299491577854353,0.3580003421650045,4.950443473900761,0.6121056361597564,0.01652996378044327,0.026267461017886542
34,34,49.1781524872,4916.5,1521541568.0,568867921.0,,2611319.5,1521541567.0,741850481.5,,0.6907149579780001,-0.1652211764365,0.01257729627985,-0.08363678764014999,0.9955969350939999,-0.004550259932155,0.042078990467200005,0.0012106562451699998,-0.01172325289849,-0.003686753677505001,-0.0031601197148100005,0.002757424654525,-0.020128881123700003,1.4839046001449998,0.28118315339100003,4.7507245540600005,-0.08197427447910001,0.5531664788724999,0.1924738883975,1822277.5,1521541567.0,746971482.5,,,,,,2115772.5,1521541568.0,561969562.5,,1.2039999246604998,1.5370000440600002,-1.199999237065,-0.3379999995235,-0.034499999135699996,-0.07400000095364999,50.5,54.0,69.0,98.0,99.0,-183.5,-173.0,-164.0,-160.5,-156.0,-1.0,-0.4600000381445002,-1.2449998855649995,-0.5849990844769999,0.010999992489500066,-0.0034999987110500047,-0.0004999972879499992,2.291720559531531,0.34772151178693206,4.985019620486061,0.5914043732839892,0.01234878535502662,0.020561167345979153
35,35,49.28071658970001,4926.5,1521541568.0,668882489.0,,2611332.0,1521541567.0,866845984.0,,0.690346953917,-0.165412805537,0.012798197244599999,-0.08376291088160001,0.9955926138500001,-0.00464434444448,0.041923168697199996,0.0157269428961,0.00115931103429,0.0144022203809,-0.00202220803952,-0.028908715749699998,-0.0062665426644399995,0.8146486282350001,0.0903772711754,4.80107498169,0.016820581629899998,0.315363764763,0.220321878791,2611684.0,1521541567.0,854934371.0,,,,,,2115782.5,1521541568.0,661860767.0,,2.4340000629400005,1.75700001307,-1.67500152588,-0.298999994993,-0.0365000013262,-0.06400000117719999,49.0,57.0,60.0,70.0,118.0,-182.5,-174.5,-168.0,-159.5,-147.0,-1.0,1.2300001382795007,0.21999996900999985,-0.4750022888150001,0.03900000453049995,-0.0020000021904999915,0.009999999776449995,3.4375915208209706,0.3079435780355035,4.870538103581566,0.3850700798112689,0.021356607568418447,0.02964916067306626
36,36,49.3832806923,4938.5,1521541568.0,788865566.0,,2611343.5,1521541567.0,981848753.0,,0.690952338026,-0.16529617959499998,0.01314577306445,-0.08411699873709999,0.9955379844635,-0.00495434553992,0.0424723228219,-0.0006861533556799996,-0.0014026814433500002,0.0023640380223845,-0.0066067751553500025,-0.0013331285207999965,-0.0005698426141200006,0.9958374798295,0.225191734731,4.825798511505,-0.03899418958461,0.393751487136,0.212913677096,2611696.0,1521541567.0,974924592.5,,,,,,2115794.5,1521541568.0,781979863.0,,1.5340000867849999,1.9319999057799997,-0.5849994659425,-0.331000000238,-0.0295000001788,-0.058000000193699996,50.5,52.0,54.0,58.0,59.0,-175.0,-169.0,-166.0,-156.5,-154.0,-1.0,-0.8999999761550004,0.17499989270999985,1.0900020599375,-0.03200000524500002,0.007000001147399997,0.006000000983499988,2.535350917988144,0.33733551575630816,4.932619474201126,0.44932506533434324,0.0028331956216098068,0.006763980352661261
37,37,49.4858447949,4946.5,1521541568.0,868855476.0,,2611352.0,1521541568.0,66853131.0,,0.6908763568880001,-0.165368894976,0.0128250946101,-0.083473581152,0.9956043817829999,-0.0047369248431400005,0.04220945116219999,0.0153714984302,0.0038284246826399996,0.003786804192880001,0.0131718401612,-0.0200212722506,-0.0006911077829519999,0.953379452229,0.13482867181299998,4.86182165146,0.0419062264264,0.381651222706,0.22162415087200002,2611704.0,1521541568.0,54920632.0,,,,,,2115802.5,1521541568.0,861439902.5,,1.40400009155,2.9320000249900002,-0.469999694824,-0.3659999966625001,-0.019999999553,-0.0920000001788,53.5,56.0,61.5,65.5,71.0,-186.0,-185.0,-173.0,-163.0,-161.0,-1.0,-0.12999999523500014,1.00000011921,0.11499977111849995,-0.03499999642450008,0.009500000625799995,-0.0339999999851,3.2846217615957585,0.37791533122112064,4.956250691932417,0.4433182286529853,0.01628740880359739,0.023975536401350934
38,38,49.5884088974,4958.5,1521541568.0,988899946.0,,2611364.0,1521541568.0,186853025.0,,0.690892526719,-0.16584640718000002,0.0131530549732,-0.08358193616439999,0.9955839151549999,-0.00520457876437,0.0424221662748,-0.0053057261950100005,-0.016380198077499998,-0.0018588957195399998,-0.015309392450600003,0.0152749439594,0.0014755806786899998,0.9233340024950001,0.08669239282610001,4.98003339767,0.027925804257400003,0.395554989576,0.231093853712,1822307.5,1521541568.0,184972416.0,,,,,,2115814.5,1521541568.0,981530375.5,,1.7590001106250002,1.5719999510799998,-2.190000915525,-0.308999985456,-0.0475000012666,-0.06300000101325,52.0,53.5,56.0,60.0,86.0,-185.0,-183.0,-174.0,-169.0,-163.0,-1.0,0.35500001907500023,-1.36000007391,-1.7200012207010005,0.05700001120650011,-0.0275000017136,0.028999999165550006,3.218908082778168,0.318914159704151,5.06564841782826,0.45896401770221085,0.017318115163339053,0.021676686751176302
39,39,49.690973,4970.5,1521541569.0,108919024.0,,2611376.0,1521541568.0,306866627.0,,0.690884457697,-0.165057004122,0.0133571904251,-0.0838714151572,0.995560330559,-0.0048853888234799995,0.0424422774282,-0.0016387674282000002,-0.0101244561021,-0.0012926060551400002,0.00645588120536,0.00414070141136,-0.0330158420866,0.59647667408,0.105102486908,4.99696874619,0.00354110915214,0.25120753049899996,0.218309938908,2611729.0,1521541568.0,304918636.0,,,,,,2115826.5,1521541569.0,101701565.5,,1.503999996185,2.42699991055,-0.5000003814695,-0.32299999892700004,-0.0405000001192,-0.05199999921025,53.0,54.5,61.5,64.5,72.0,-186.0,-182.0,-172.0,-168.0,-162.0,-1.0,-0.25500011444000026,0.8549999594700004,1.6900005340555002,-0.01400001347100005,0.007000001147400001,0.011000001803000002,2.8986798608683633,0.32965625920701586,5.033540265645587,0.332831777718787,0.010337359453016219,0.033894979554545644
