,Unnamed: 0,Unnamed: 0.1,.header.seq,.header.stamp.secs,.header.stamp.nsecs,.header.frame_id,.endpoint_state.header.seq,.endpoint_state.header.stamp.secs,.endpoint_state.header.stamp.nsecs,.endpoint_state.header.frame_id,.endpoint_state.pose.position.x,.endpoint_state.pose.position.y,.endpoint_state.pose.position.z,.endpoint_state.pose.orientation.x,.endpoint_state.pose.orientation.y,.endpoint_state.pose.orientation.z,.endpoint_state.pose.orientation.w,.endpoint_state.twist.linear.x,.endpoint_state.twist.linear.y,.endpoint_state.twist.linear.z,.endpoint_state.twist.angular.x,.endpoint_state.twist.angular.y,.endpoint_state.twist.angular.z,.endpoint_state.wrench.force.x,.endpoint_state.wrench.force.y,.endpoint_state.wrench.force.z,.endpoint_state.wrench.torque.x,.endpoint_state.wrench.torque.y,.endpoint_state.wrench.torque.z,.joint_state.header.seq,.joint_state.header.stamp.secs,.joint_state.header.stamp.nsecs,.joint_state.header.frame_id,.joint_state.name,.joint_state.position,.joint_state.velocity,.joint_state.effort,.wrench_stamped.header.seq,.wrench_stamped.header.stamp.secs,.wrench_stamped.header.stamp.nsecs,.wrench_stamped.header.frame_id,.wrench_stamped.wrench.force.x,.wrench_stamped.wrench.force.y,.wrench_stamped.wrench.force.z,.wrench_stamped.wrench.torque.x,.wrench_stamped.wrench.torque.y,.wrench_stamped.wrench.torque.z,.tactile_values.tactile_values_0,.tactile_values.tactile_values_1,.tactile_values.tactile_values_2,.tactile_values.tactile_values_3,.tactile_values.tactile_values_4,.tactile_values.tactile_values_5,.tactile_values.tactile_values_6,.tactile_values.tactile_values_7,.tactile_values.tactile_values_8,.tactile_values.tactile_values_9,.tag,.delta_wrench.force.x,.delta_wrench.force.y,.delta_wrench.force.z,.delta_wrench.torque.x,.delta_wrench.torque.y,.delta_wrench.torque.z,.wrench_stamped.wrench.force.magnitude,.wrench_stamped.wrench.torque.magnitude,.endpoint_state.wrench.force.magnitude,.endpoint_state.wrench.torque.magnitude,.endpoint_state.twist.linear.magnitude,.endpoint_state.twist.angular.magnitude
0,0,42.07,4207.5,1521537104.0,503788113.5,,2164928.5,1521537103.0,832516040.5,,0.732273640913,-0.126904238941,0.0813988878537,-0.07262314607959999,0.9971620970695,-0.017720037498900002,0.008911673124085001,0.005384689436400999,0.008683135083514999,-0.0137188852415,0.02701766494725,-0.0009730790627499996,-0.005183937063271,1.0559734068799,0.6889842152600001,6.165164470675,0.491786301136,0.4265494570135001,0.3843943178655,2165281.5,1521537103.0,830585186.0,,,,,,1669831.0,1521537104.0,498048051.0,,-0.2610000610355,-2.09200002253,0.4070003509520001,-0.07100000046195,-0.1585000008345,-0.0645000003278,26.0,30.0,33.5,62.0,66.0,-108.0,-105.5,-96.0,-93.0,-91.0,4.0,0.0,0.0,0.0,0.0,0.0,0.0,2.147145642894563,0.1852660259530052,6.292776178713838,0.7560140189644788,0.01710554084133279,0.027527700694757976
1,1,42.1725641026,4215.5,1521537104.0,583672523.0,,2164936.5,1521537103.0,912514033.0,,0.734908683477,-0.12598537488949998,0.08006283061355,-0.0699783874098,0.9973568551395,-0.01568034130275,0.01166686772775,0.02651033932135,0.008989287211739999,-0.0277328155431,0.04922792680955,-0.05397004708845,-0.081336305885,5.34192204475,1.94430708885,2.8751732111000003,-0.2193883359435,2.24735271931,0.28148472309149997,1510799.0,1521537103.0,910792672.0,,,,,,1669839.0,1521537104.0,578532877.0,,0.37899980545,-2.3019999861700002,0.446999359131,-0.0500000007451,-0.135000005364,-0.0640000030398,31.5,32.0,38.0,41.5,46.0,-113.0,-107.0,-98.0,-92.0,-91.0,4.0,0.6399998664855,-0.20999996364000006,0.03999900817899993,0.020999999716849998,0.0234999954705,0.0004999972880000009,2.375426954448683,0.1575468245058733,6.3704852391136955,2.275512939157237,0.039404497629786844,0.1093240568937789
2,2,42.2751282051,4228.5,1521537104.0,713638543.5,,2164947.5,1521537104.0,21818452.5,,0.7362862924094999,-0.125414534694,0.07614029967580001,-0.069951166559,0.997360582634,-0.014538701777249996,0.012933108065850001,0.015810159245575002,-0.0060549935594799995,-0.049892358560900005,0.03200428058905,-0.0320615460978,-0.001042807331099998,3.4716747999199997,1.6579875350000002,2.89385521412,-0.069390937686,1.410196632146,0.2810505330565,2165301.0,1521537104.0,24918561.0,,,,,,1669851.5,1521537104.0,705636632.5,,-0.7309998512264999,-2.4169999957100003,-0.4430000305175,-0.07300000078975001,-0.10750000178825,-0.0525000002235,23.0,27.0,27.0,42.0,55.0,-102.0,-100.0,-98.0,-96.0,-85.0,4.0,-1.1099996566765,-0.11500000954000054,-0.8899993896484999,-0.02300000004465001,0.02750000357575,0.011500002816299995,2.5636885124355127,0.14014813778015303,4.814129888453827,1.4396037807953292,0.05268654026547195,0.04531339935751668
3,3,42.3776923077,4236.5,1521537104.0,793616532.5,,2164955.0,1521537104.0,96814689.0,,0.7367128614475,-0.124053961644,0.07159565534145,-0.07087848936044999,0.997298256666,-0.013205351573399998,0.0140683849318,-0.002878533057986,0.016683305625805,-0.06698275974069999,0.020402023200650002,-0.009064466236259998,0.03211121420784,1.333346784115,1.3509264588349998,4.87846267223,-0.190105810761,0.5594734996559999,0.2197930961845,2165308.0,1521537104.0,94904819.5,,,,,,1669859.5,1521537104.0,787578569.5,,-1.26599993706,-1.4470000118050002,-2.34299964905,-0.035499999183245,-0.048000000417250006,-0.060000002384199995,23.0,28.0,40.0,51.0,54.0,-104.0,-101.5,-98.5,-97.5,-93.0,4.0,-0.5350000858335,0.9699999839050002,-1.8999996185325,0.03750000160650501,0.059500001371,-0.0075000021607000015,3.0308764788832976,0.0846418942851021,5.234712407404228,0.6304441460056538,0.06908913620570367,0.03910929782967145
4,4,42.4802564103,4246.5,1521537104.0,894583940.0,,2164965.0,1521537104.0,196815783.5,,0.7372267426515,-0.122291270816,0.06576331804454999,-0.0695066346655,0.9973996380955,-0.01178918781195,0.014953771235450001,0.003806994297480001,0.012649611158700004,-0.060174369514200014,0.030738360539700003,0.009160271482509998,-0.017267558378794998,1.3783113062380001,1.2812622189549998,5.460872173309999,-0.4143332839015,0.5551520287989999,0.14352777600299998,2165318.0,1521537104.0,194906289.5,,,,,,1669870.0,1521537104.0,889262185.0,,-0.9609998703,-0.902000010014,-0.373000335693,-0.0680000036955,-0.10400000214600001,-0.07400000095369999,28.0,29.5,37.0,72.0,85.0,-114.0,-114.0,-102.0,-96.0,-93.0,4.0,0.3050000667599999,0.5450000017910002,1.969999313357,-0.032500004512254994,-0.056000001728749985,-0.013999998569499987,1.369764220298137,0.14462365328708723,5.7760280317755095,0.7074362640638477,0.06160730974875333,0.0364269948618736
5,5,42.582820512800005,4256.5,1521537104.0,993618011.0,,2164975.0,1521537104.0,296812178.0,,0.7367843290260001,-0.121837001752,0.0587010728314,-0.070134994723,0.997387530503,-0.011341952331,0.0130597331694,-0.0021038238975800002,0.0137335760144,-0.0820832311857,0.012741063640399999,0.0210243620697,0.0370165694949,1.4330055713699998,1.38161492348,3.8568699359900003,-0.522001028061,0.592507123947,0.08980519324539997,1510825.5,1521537104.0,297435924.0,,,,,,1669879.5,1521537104.0,985619841.5,,-1.3560000896450002,-1.64700001478,-0.8280002593995001,-0.0625,-0.09400000050645,-0.08450000360610001,24.0,27.0,31.5,56.0,82.0,-96.5,-95.5,-94.0,-93.0,-88.0,4.0,-0.3950002193450002,-0.7450000047659999,-0.4549999237065001,0.005500003695499993,0.010000001639550005,-0.010500002652400016,2.288433901463664,0.14100532154725054,4.340254654683711,0.794741931672496,0.08325078994832665,0.044436301829667645
6,6,42.6853846154,4269.5,1521537105.0,123610019.5,,2164988.0,1521537104.0,426810678.0,,0.7363091955159999,-0.123191218935,0.0464188772231,-0.070810721684,0.9973634149200001,-0.0125627377475,0.00970762045285,-0.0107506448887,-0.026914730402099997,-0.110517089738,-0.0461325887153,0.0736600524718,-0.0103524655968,2.43138337135,0.8758577704430001,4.723320961000001,-0.20565508306,1.00107145309,0.143386811018,2165341.0,1521537104.0,424883661.0,,,,,,1669892.5,1521537105.0,115397787.5,,-1.0110000610349998,-1.732000014745,-0.3730003356935,-0.061499997973450016,-0.1260000020265,-0.056499999016550013,23.5,25.0,26.0,48.0,65.0,-101.5,-98.0,-95.5,-92.0,-85.5,4.0,0.34500002861000034,-0.08499999996500017,0.4549999237060001,0.0010000020265499843,-0.03200000152005,0.02800000458955,2.0398711785102797,0.15116381891935157,5.384098144828402,1.0319873279038128,0.11425412991353004,0.08752823896124201
7,7,42.7879487179,4276.5,1521537105.0,193634509.5,,2164995.0,1521537104.0,496811407.0,,0.735071650357,-0.123463353202,0.0389584081381,-0.071659941761,0.997318854682,-0.012752096268,0.0075722443313300004,-0.0226909805865,-0.000427611458495,-0.11595899157600001,0.011428894053200002,0.043167293097500004,0.03649405378119999,1.8817299604400004,1.0501660108600002,8.74737644196,-0.31040877103799996,0.8440266251559999,0.13242328167,1510839.5,1521537104.0,498461776.0,,,,,,1669900.0,1521537105.0,189316788.0,,-0.951000118256,-1.24200004339,0.356999206543,-0.052999999374199996,-0.137999996543,-0.07199999690060001,23.0,25.5,30.5,39.0,52.0,-101.5,-99.0,-98.0,-91.5,-85.0,4.0,0.059999942778999886,0.4899999713550001,0.7299995422365,0.008499998599250012,-0.011999994516499995,-0.01549999788405,1.6044979794864247,0.16442931166072436,9.008903979493839,0.9089942104534001,0.11815900803095461,0.05767018964794428
8,8,42.8905128205,4289.5,1521537105.0,323639988.5,,2165010.5,1521537104.0,651826496.0,,0.7347354158505001,-0.1241687825425,0.02824908116905,-0.07124287529859999,0.9973664672825,-0.012657365195799998,0.00491438983772,0.006504381189844999,-0.01964945541956,-0.06543276380379999,-0.0327831389537,0.02482061821895,-0.020981565134035,1.999698877335,1.374319314955,4.6080875396700005,-0.4087916314605,0.8014340400695001,0.140078924596,2165362.0,1521537104.0,634907134.0,,,,,,1669912.5,1521537105.0,315603072.0,,-2.015999937055,-0.972000002861,-1.912999343875,-0.07750000059605,-0.07699999958275,-0.0479999985546,18.0,20.5,27.0,39.0,55.0,-105.5,-104.5,-102.0,-95.0,-88.0,4.0,-1.0649998187990002,0.2700000405290001,-2.269998550418,-0.02450000122185,0.060999996960249984,0.023999998346000008,2.9442496907418922,0.11932832810935068,5.2078805624491,0.9105104192980058,0.06862838080526135,0.0461630086097324
9,9,42.993076923100006,4297.5,1521537105.0,403710961.0,,2165018.5,1521537104.0,731814834.5,,0.7361519938240001,-0.124282715563,0.023978810092900003,-0.07028347445975,0.9974412754045,-0.01219915261825,0.0047176414652600005,0.0258080996211,-0.0033643295328999994,-0.054710964846350005,0.01666669056845,0.003519643829045,-0.0291497388545,4.731866121295,1.9751496315,4.8860764503450005,-0.55993694067,1.7765391469049998,0.16327846795349998,2165371.5,1521537104.0,729901945.5,,,,,,1669921.0,1521537105.0,399748396.0,,-0.610999965668,-2.09200000763,-0.9929992675779999,-0.06499999761580001,-0.107000000775,-0.0599999986589,13.5,16.0,19.0,27.0,39.0,-119.0,-111.0,-104.0,-97.0,-93.0,4.0,1.4049999713870005,-1.120000004769,0.920000076297,0.012500002980249987,-0.030000001192250006,-0.012000000104300005,2.394959819157862,0.13883083121184578,7.082761900225785,1.8698343713040644,0.06058602473901973,0.033762016267891076
10,10,43.0956410256,4309.5,1521537105.0,523698568.0,,2165030.5,1521537104.0,851818456.0,,0.7418708837495,-0.125862339667,0.01935126958135,-0.06755377245555,0.997615038245,-0.012999247830700002,0.0056224031007050005,0.06853702364059999,-0.00420782767402,-0.035527172887650005,0.016119009336625002,-0.03916009496875,-0.07351283873219999,3.01498103142,1.048013150693,4.948302984234999,-0.053353559225785004,1.1847398281100001,0.28660199046150003,2165382.0,1521537104.0,834895530.0,,,,,,1669932.5,1521537105.0,516499032.0,,-1.485999965665,-1.1420000195550002,-0.797999572754,-0.052999999374199996,-0.107500001788,-0.06350000202655001,13.0,20.0,28.0,32.0,59.0,-113.0,-109.0,-104.0,-102.5,-95.0,4.0,-0.8749999999970001,0.9499999880749996,0.19499969482400006,0.011999998241600009,-0.0005000010129999899,-0.003500003367650009,2.036949498818164,0.1356373863485177,5.8884755758716425,1.2200802283164274,0.07731241450527453,0.08483792170027603
11,11,43.198205128199994,4318.5,1521537105.0,613759994.0,,2165039.5,1521537104.0,941818011.0,,0.748605980368,-0.125189685082,0.0158550182342,-0.0667004089381,0.9976725281479999,-0.0117815951669,0.007845812526100001,0.09747186465405,0.004958768631230001,-0.0433552124264,0.012829510776515,-0.0951495160991,0.12425022425245,5.2842798233,1.7951203584650002,3.3127417564400004,-0.629283994436,1.95065951347,0.2404070049525,2165392.0,1521537104.0,934871516.0,,,,,,1669941.5,1521537105.0,605656791.0,,-1.98600008488,-1.1019999980925,-1.0229999542255,-0.0430000014603,-0.0959999971093,-0.0784999988973,14.0,16.0,17.5,28.0,30.5,-117.0,-106.5,-104.5,-99.0,-93.5,4.0,-0.5000001192150001,0.040000021462500264,-0.22500038147149992,0.0099999979139,0.011500004678699991,-0.014999996870749988,2.4910096826958767,0.13125261672609623,6.4900175883561495,2.0637021129936794,0.10679432676885875,0.15702275308833977
12,12,43.3007692308,4330.5,1521537105.0,734772085.5,,2165049.5,1521537105.0,41915566.5,,0.7580214706935,-0.12487659943900001,0.01197131401315,-0.06768338138060001,0.997555165003,-0.010767370364350002,0.01365473050975,0.0883636051726,-0.007409900041000002,-0.0413723581279,0.02568274077045,-0.1210469666577,-0.06023324764365001,4.1652956008899995,1.233675956725,3.9767012596099995,-0.1714242547752,1.7684708237650002,0.3361614197495,2165402.0,1521537105.0,34970820.0,,,,,,1669954.0,1521537105.0,730455534.0,,-1.0359999179835,-1.532000005245,0.26199989318850003,-0.05700000002980001,-0.1219999976455,-0.05000000074505,27.0,28.0,28.5,29.0,42.5,-107.0,-105.0,-98.0,-96.0,-91.0,4.0,0.9500001668965,-0.4300000071525001,1.284999847414,-0.013999998569500002,-0.0260000005362,0.02849999815225,1.8678768134337136,0.14364191415949668,5.889464892261324,1.8082809045503108,0.09785042337557853,0.13762272861781857
13,13,43.4033333333,4340.5,1521537105.0,833630084.5,,2165059.0,1521537105.0,136931879.5,,0.761306938389,-0.1265687526215,0.009706500546235002,-0.0668185776117,0.9976071602735,-0.0114376408596,0.0135714976923,0.0002953717667535,-0.0274881032004,-0.02833913432885,-0.03853641132129999,0.08066339252425,0.008570167807500001,3.4607726335500004,2.046418547635,4.366375446319998,-0.8301612436770001,1.4707272648790002,0.220142558217,2165411.0,1521537105.0,125009926.0,,,,,,1669963.5,1521537105.0,824926570.5,,-0.551000022888,-0.49200001358971995,-1.1230003356945,-0.08150000125170001,-0.1359999999405,-0.05949999950825,24.0,26.5,31.5,53.0,57.0,-104.0,-101.0,-97.0,-93.0,-87.0,4.0,0.48499989509549996,1.03999999165528,-1.3850002288830001,-0.02450000122190001,-0.014000002294999994,-0.0094999987632,1.3441706709212267,0.16934727671068364,5.935487396285104,1.7031350868619122,0.03948150955251129,0.08980582201224127
14,14,43.5058974359,4350.5,1521537105.0,933802008.0,,2165069.0,1521537105.0,236920474.0,,0.7624184420129999,-0.12642102954,0.00730908247276,-0.0653140211322,0.9977362916,-0.010539610075100002,0.012053534243100001,0.035981280982699995,0.0010150231590000001,-0.00364206821043,0.0153626709133,-0.0350872006951,-0.0312783268849,4.17714071274,1.65944123268,1.61679828167,-0.994681537151,1.53370928764,0.193251103163,1510892.0,1521537105.0,238503373.0,,,,,,1669973.5,1521537105.0,926092042.0,,0.08899984359700003,0.6329999566094999,-6.208001327515,-0.3584999889135,0.08449999988074999,-0.1114999987185,28.5,32.0,33.0,42.5,59.0,-102.0,-101.0,-99.0,-95.0,-92.0,4.0,0.6399998664850001,1.12499997019922,-5.0850009918204995,-0.27699998766179995,0.22049999982125,-0.05199999921025001,6.240824496783732,0.38483079625343375,4.776639657998039,1.838206062501152,0.03617937967984995,0.049451562593382604
15,15,43.6084615385,4361.5,1521537106.0,43652415.0,,2165080.0,1521537105.0,346919413.0,,0.7653427690865,-0.1253883231965,0.007396773367160002,-0.06591706319175,0.9976632085535,-0.01210588030385,0.013281242101900001,0.057242074253149984,0.01584339079887,0.008169343513800002,-0.0026301110948500003,-0.11187002860015,0.03512326406475,8.88570213318,2.791320562365,-3.8083912134149998,-1.1364082694050002,2.7323119640350004,0.2083649039265,2165433.0,1521537105.0,345018337.0,,,,,,1669984.5,1521537106.0,35423297.5,,0.3139999866485,-0.28700000047685,-7.0630008697500015,-0.4169999957085,0.3115000128745,-0.10500000044694999,62.0,63.0,67.5,72.5,85.0,-104.0,-102.0,-99.5,-97.5,-89.5,4.0,0.2250001430515,-0.9199999570863501,-0.8549995422350012,-0.058500006795,0.22700001299375006,0.0064999982715500115,7.075800045081704,0.5309861152003527,10.062356409703337,2.9665414807093407,0.059953367463849105,0.11728369222501392
16,16,43.711025641000006,4369.5,1521537106.0,123667955.0,,2165088.0,1521537105.0,426922518.0,,0.770079741011,-0.123696222698,0.006995541317390001,-0.0671783488484,0.997500128004,-0.012243436093899999,0.018184123592099997,0.0776515115256,0.046060606918400006,-0.03847846197719999,0.013892771599,-0.18799961055,0.09086641497680001,7.1213741302499995,1.82689547539,0.147221982479,-0.6939526796340001,2.84173607826,0.216438531876,1510904.5,1521537105.0,424509796.5,,,,,,1669993.0,1521537106.0,119149393.0,,-1.1610001564,1.06799989939,-3.77299804688,-0.303999990225,0.0750000029802,-0.0879999995232,93.0,98.0,106.0,108.0,125.0,-109.0,-98.0,-96.0,-90.0,-89.0,4.0,-1.4750001430485,1.35499989986685,3.2900028228700013,0.11300000548349998,-0.23650000989430006,0.017000000923749994,4.089506010512538,0.3252460521204113,7.353447551531149,2.9332371022705224,0.09814239037252237,0.20926912825447924
17,17,43.8135897436,4380.5,1521537106.0,233863949.5,,2165099.0,1521537105.0,536917987.0,,0.775127528803,-0.120858194925,0.00548988875986,-0.0678271528657,0.997427983075,-0.0103313704277,0.0207402675465,0.0524166819519,0.0522431666376,0.013974181149899999,0.0829938850225,-0.047072523858900005,0.0162136534393,5.44926643372,1.76690030098,-3.8856496810900003,-1.15918827057,1.25160682201,0.174059823155,2165452.0,1521537105.0,535015922.0,,,,,,1670003.5,1521537106.0,227840987.5,,0.7739997863765,4.1380000710500005,-10.6280014038,-0.75799998641,0.4375,-0.148000001907,139.0,146.0,150.0,161.5,170.0,-99.5,-89.5,-87.0,-82.5,-80.0,4.0,1.9349999427765,3.0700001716600003,-6.855003356920001,-0.45399999618500003,0.3624999970198,-0.06000000238379999,11.431383734985694,0.8876227971171269,6.922045563518455,1.7147985029051633,0.07531357610670802,0.09678166154506951
18,18,43.9161538462,4388.5,1521537106.0,313952445.5,,2165109.5,1521537105.0,641917454.0,,0.7811400978475,-0.1168898538935,0.005076159084425,-0.06961343220204999,0.997265016595,-0.00891946093094,0.02316882003715,0.0702280021995,0.059506567121,-0.0023984836386725,0.054334972141800005,-0.053432353309349985,0.057510909901,6.472700119015,1.5282056927649998,-7.835077047345001,-0.9997290074815001,1.065603613855,0.13153258711100002,856377.0,1521537105.0,636999936.0,,,,,,1670011.5,1521537106.0,307772698.0,,1.4389999866499998,3.5530000329,-12.913001251199999,-0.909500002861,0.6534999907015,-0.1564999967815,149.5,160.5,172.5,179.0,189.0,-59.5,-58.0,-57.0,-49.5,-43.5,4.0,0.6650002002734998,-0.5850000381500005,-2.284999847399998,-0.15150001645099995,0.2159999907015,-0.008499994874500011,13.469971473943767,1.1308159629416403,10.277144146499484,1.4670616795939064,0.09208016370111444,0.09547151583308149
19,19,44.0187179487,4401.5,1521537106.0,443842530.0,,2165122.5,1521537105.0,771920597.0,,0.793191314232,-0.107112351219,0.0041689850098800005,-0.06873064475325,0.9971142502325,-0.0022716897814,0.032145226274900005,0.106819662116,0.09332134664780001,-0.0130691136396,0.10624889064995,-0.18473214938700006,0.021855797086650003,4.021225333215,0.540382891893,-6.411258697509999,-1.4967169165600005,0.5915568619964999,0.1921579912305,2165475.5,1521537105.0,770009991.5,,,,,,1670024.5,1521537106.0,437638443.5,,1.48900017738,6.448000252245,-14.108000946049998,-1.29599994421,0.638000011444,-0.08049999922515,99.5,105.5,123.0,139.0,145.0,54.5,58.0,63.0,80.0,93.0,4.0,0.05000019073000028,2.8950002193449995,-1.194999694849999,-0.3864999413490001,-0.015499979257500018,0.07599999755635001,15.582988143322734,1.4467688550249196,7.5872593824607275,1.620810211864968,0.14244337712249044,0.21422527779834658
20,20,44.1212820513,4411.5,1521537106.0,543731450.5,,2165132.5,1521537105.0,871935079.5,,0.8070368352214999,-0.096006809419,0.0020550197962349998,-0.0725583922452,0.9963004123125,0.0034263932005700005,0.04591347815195,0.180668384375,0.118549854546,-0.0362075176122,0.146278795557,-0.382429648522,0.09000071039810001,7.214437484739999,1.127077281475,-8.32445049286,-1.5888193845749998,2.17523300648,0.266897842288,1510935.5,1521537105.0,870997046.5,,,,,,1670034.5,1521537106.0,536261285.0,,-1.025999927522,4.81799989939,-11.3830005646,-1.094500005245,0.0845000036062,0.01299999980254,90.5,108.0,109.0,117.0,124.0,56.0,62.0,65.0,69.0,91.5,4.0,-2.515000104902,-1.6300003528549991,2.7250003814499983,0.20149993896500007,-0.5535000078378001,0.09349999902768999,12.403164948329968,1.097834009350056,11.073160679215118,2.706883840784324,0.21910298367933806,0.41922553592360007
21,21,44.223846153800004,4423.5,1521537106.0,663795471.0,,2165144.5,1521537105.0,991950136.0,,0.8134989583999999,-0.08703589694604999,-0.0007346324126849999,-0.07640009866740001,0.9955055879125,0.006889226246335,0.0555344649104,-0.07940493583674997,0.04183570325895,-0.007263471432045002,0.005527991946249998,0.1637906147375,0.036455253836985,6.9565770626050005,-0.1161881238225,1.0648975372335,-0.24399306625145,3.486561656,0.580248475075,856391.0,1521537105.0,990000128.0,,,,,,1670046.5,1521537106.0,659106394.0,,-2.861000084875,-0.6570000052445002,-2.687998962405,-0.376999989152,-0.2394999936220001,-0.010000000474994998,189.5,199.5,238.0,262.0,262.5,-50.0,-48.0,-46.5,-39.5,-30.0,4.0,-1.835000157353,-5.474999904634499,8.695001602195,0.7175000160930001,-0.32399999722820005,-0.023000000277535,3.9802398061469093,0.44675411444668994,7.0385702293069,3.5429271923502905,0.09004514378717729,0.16788957592228582
22,22,44.3264102564,4429.5,1521537106.0,725852489.0,,2165148.0,1521537106.0,26968891.5,,0.809955702324,-0.08727276639599997,-0.0005669536495589999,-0.07737290221724999,0.9956618040905,0.005416134049615,0.0513845643934,-0.0938374660349,-0.011703435124299999,0.01070243336655,-0.10545971781749999,0.2103607248625,0.03649086058815,12.393260955799999,1.196676909925,-0.9106370806675,-0.5616306066515,5.134773015975,0.6030368208885,2165501.0,1521537106.0,25053233.0,,,,,,1670053.0,1521537106.0,723185578.5,,-1.941000127795,2.272999823095,-4.893000793455,-0.5419999957085,-0.1620000004765,-0.01749999960885,196.0,213.5,245.0,257.0,263.5,-64.0,-62.0,-57.0,-52.0,-37.0,4.0,0.9199999570800002,2.929999828339501,-2.2050018310500006,-0.1650000065565,0.07749999314550005,-0.007499999133855002,5.733713147397712,0.5659631131873435,12.484158467353375,5.200478465608721,0.095168180110398,0.2381280528482248
23,23,44.428974358999994,4443.5,1521537106.0,864117502.5,,2165162.0,1521537106.0,167001278.0,,0.8010117675524999,-0.09060250838375,0.001012554335579,-0.07618022978160001,0.9963122827299998,0.0017979680670449996,0.0394343727551,0.0019521750992999992,0.00581019311206,-0.016140887718925,0.0385451287531,-0.02371045046945,-0.0073114620357449985,11.97189998625,1.342677831649,-3.2207278013250003,-0.264328196645,4.431146621705,0.5481840372089999,1510955.5,1521537106.0,162536577.0,,,,,,1670066.5,1521537106.0,857808028.0,,-0.7610000610375001,1.0029999613775,-4.76299972534,-0.5115000009535,-0.0300000011921,-0.032500000670550006,190.0,194.0,215.0,235.0,240.0,-76.0,-75.0,-74.5,-73.5,-71.0,4.0,1.1800000667575001,-1.2699998617175,0.1300010681149999,0.03049999475499998,0.13199999928439998,-0.015000001061700003,4.926590748074297,0.5134087076497069,12.470054555237605,4.4727436230170845,0.017265502829998905,0.04584070122890179
24,24,44.5315384615,4450.5,1521537106.0,935133456.5,,2165168.5,1521537106.0,232015364.0,,0.802884622326,-0.08988979359799999,0.00045746169645000004,-0.07486757976644999,0.9963176428895,0.00413281786435,0.0415659974372,0.04126038425145,0.01548700619309,-0.008478806653091498,0.07688621697004999,-0.09509672216250001,-0.014761514244,9.049342155455001,1.132551908495,-1.807051360605,-0.5135082900525,3.5542937517150004,0.543784528971,2165521.0,1521537106.0,225114986.0,,,,,,1670074.0,1521537106.0,934005396.0,,-1.38099994659,0.898000061512,-4.90299911499,-0.612999975681,-0.07000000029799999,-0.0260000005364,137.0,147.0,157.0,175.5,188.0,-79.0,-78.0,-75.0,-75.0,-60.0,4.0,-0.6199998855525,-0.10499989986550007,-0.1399993896499998,-0.10149997472749994,-0.039999999105899985,0.006500000134150006,5.17232687332789,0.6175313516369183,9.297241628127937,3.632133870245031,0.04487935863693486,0.12317783578547375
25,25,44.6341025641,4461.5,1521537107.0,43814539.5,,2165178.5,1521537106.0,332001009.5,,0.8079633720135,-0.09020067768440004,0.00011080282226749998,-0.0751524271879,0.9960121758630001,0.004715223575314999,0.0478487765713,0.03734412912425,0.0013273816089800006,-0.0032234737298449997,0.0135201114486,-0.0954501876822,0.00716057263432,8.367391109465,0.959581851959,-0.4473840892315,-0.272402435541,3.950762867925,0.537376046181,2165533.0,1521537106.0,345053997.5,,,,,,1670084.5,1521537107.0,37138724.0,,-2.05099990368,-0.06700009107550009,-3.49800033569,-0.34199999272799997,-0.244999989867,-0.02249999996275,112.5,117.5,122.0,140.0,142.5,-77.5,-75.0,-75.0,-71.0,-69.0,4.0,-0.6699999570900002,-0.9650001525875,1.4049987793,0.27099998295299993,-0.17499998956899998,0.003500000573650002,4.055501937564183,0.4213018396103984,8.434108360263135,3.996436330091193,0.03750648883688683,0.09666853439770948
26,26,44.7366666667,4474.5,1521537107.0,175361990.5,,2165193.0,1521537106.0,476997263.0,,0.806859617631,-0.0920785297642,0.000773009282885,-0.0735696194774,0.99621536589,0.00450891445978,0.0460665338879,-0.00456269297011,-0.030152473058500006,-0.0101746006384,-0.025833616409299997,0.0210578292224,-0.029719241428099997,8.150005340580003,0.505311727524,-1.57315516472,0.115204483271,3.3979034423799996,0.6079879999159999,1510977.5,1521537106.0,475026601.0,,,,,,1670097.5,1521537107.0,167643035.5,,-2.161000037195,1.1479999423004998,-4.16300125122,-0.37799999117849997,-0.167499996722,-0.06050000153485,84.0,87.0,89.0,96.5,115.0,-89.0,-88.0,-80.0,-79.0,-77.0,4.0,-0.11000013351499982,1.2150000333759998,-0.6650009155299998,-0.035999998450500004,0.07749999314499997,-0.038000001572100005,4.828913381490501,0.41785223754161344,8.315812898673292,3.4537905675859166,0.03214828606370781,0.04465468866092689
27,27,44.8392307692,4482.5,1521537107.0,253748059.0,,2165200.5,1521537106.0,551997208.0,,0.807247359117,-0.0929404789791,-0.00010156382651388499,-0.07282627303705,0.9962649352605,0.0046335356561,0.04616214589885,0.014338724153715,-0.0238967805198,-0.004860007533569999,0.00011928681474000019,-0.0210078597253,-0.013184754888,7.63893055916,0.9075562953945,-1.0601567327965,-0.1593118682505,3.2663874626200005,0.514465451241,2165553.5,1521537106.0,550056044.5,,,,,,1670105.5,1521537107.0,246600743.5,,-0.28599991798400004,-0.41699999570825,-0.693000030518,-0.2014999985695,-0.0384999997914,-0.0905000008643,76.5,77.5,90.0,95.5,115.0,-85.0,-83.0,-82.0,-76.5,-67.0,4.0,1.875000119211,-1.5649999380087498,3.470001220702,0.17649999260900004,0.12899999693060002,-0.02999999932945,0.8578659521192598,0.22422031478856816,7.765362246223447,3.310489696079297,0.028289128703340792,0.024802865984371494
28,28,44.941794871800006,4493.5,1521537107.0,363755464.0,,2165214.5,1521537106.0,691998497.5,,0.7977115575920001,-0.0991516507828,-0.0031449606826950004,-0.07313079246965,0.996721340147,-0.0003902038874230501,0.03461508641945,-0.09630179055894998,-0.04820655726115,-0.02751621643535,-0.1025239062145,0.2026504721325,0.014714552306935,9.658278942110002,1.588877499105,0.09229824133238496,-0.052998065948535,3.37736904621,0.4580621123315,1510993.0,1521537106.0,691027179.0,,,,,,1670116.5,1521537107.0,358725507.0,,-1.815999889375,-1.2820000089685,-0.5279991149905,-0.209499999881,-0.0815000012517,-0.0669999998063,77.0,81.0,86.5,91.0,99.0,-79.0,-77.0,-75.5,-70.5,-66.0,4.0,-1.5299999713909997,-0.8650000132602499,0.16500091552749996,-0.008000001311499999,-0.0430000014603,0.023500001058,2.2847675344848537,0.23456662193971736,9.788534251670201,3.4087022997095726,0.11115326893415878,0.2275848924041275
29,29,45.0443589744,4505.5,1521537107.0,484285473.0,,2165226.5,1521537106.0,812003777.5,,0.7948028652455,-0.100992779538,-0.005717150645670001,-0.07278447180530001,0.9968298343305,-0.0003611563029455,0.032126862735749995,-0.021058778719950003,-0.019736750662,-0.02145694233725,-0.01722073924785,0.0504406237426,-0.011041884757395,9.035038948055,1.639670073985,1.4531043171899998,-0.29262774437649997,3.5227191448250004,0.427401691675,856423.0,1521537106.0,796999936.0,,,,,,1670128.5,1521537107.0,478953925.5,,-0.01599993705749997,-0.9920000135905,-1.4480010986299998,-0.16899999976149999,-0.0815000012517,-0.09899999946375004,63.5,69.5,76.5,85.5,90.0,-78.0,-75.5,-74.0,-72.0,-70.0,4.0,1.7999999523175,0.2899999953779999,-0.9200019836394998,0.04050000011949997,0.0,-0.031999999657450026,1.7552855057178256,0.2121420515061467,9.296878987113308,3.560597334176123,0.03596403567918717,0.054430998546605554
30,30,45.146923076899995,4515.5,1521537107.0,583612561.0,,2165236.5,1521537106.0,912005703.0,,0.7944732163154999,-0.10176485046299999,-0.006049846239435,-0.0727529700222,0.996841784971,-0.000825285811671,0.03182339402745,-5.748627383999998e-05,-0.0107722201041645,0.006834661779515001,-0.019037648869650002,0.00213938863786,-0.0007663477652000011,9.659435749055001,1.73339039087,1.251679956915,-0.29336126148700004,3.676855444905,0.435891494155,856427.0,1521537106.0,897999872.0,,,,,,1670138.5,1521537107.0,577004770.5,,-0.6760000228884999,-0.967000007629,-0.3829986572265,-0.20600000023850001,-0.099999997765,-0.07099999859930001,69.0,71.5,75.0,81.5,88.0,-83.0,-82.0,-78.5,-73.0,-64.5,-1.0,-0.660000085831,0.02500000596150009,1.0650024414034998,-0.037000000476999965,-0.018499996513300004,0.028000000864450026,1.2404648391377486,0.2397436119114806,9.893232229753073,3.7142062661012067,0.012757610759253043,0.019172802276274523
31,31,45.2494871795,4525.5,1521537107.0,684790014.5,,2165244.5,1521537106.0,992005547.0,,0.7947439281124999,-0.1016477355385,-0.0054967735144949995,-0.07319413830839999,0.9967993771795001,-0.0010236446599694998,0.0321310599641,0.01543307170705,0.008732322888795,0.013596212252149999,0.006116051246435001,-0.04251887090965,0.01110630010588,8.219106674195,1.441406309605,1.0141009390365,-0.07843998819589999,3.257080793385,0.453294828534,856431.0,1521537106.0,999000064.0,,,,,,1670148.5,1521537107.0,676787529.5,,-0.3709999561311,0.2479999661445,-0.8079998016359999,-0.1039999984205,-0.07000000029805001,-0.09950000047675,51.5,57.0,59.0,66.0,83.0,-79.5,-76.0,-76.0,-74.0,-56.0,-1.0,0.30500006675739993,1.2149999737735,-0.4250011444094999,0.10200000181800001,0.029999997466949993,-0.028500001877450002,0.923043135558012,0.16005077259439973,8.40593643716871,3.2894078992975775,0.02234480147494343,0.04436902487459433
32,32,45.3520512821,4536.5,1521537107.0,793713926.5,,2165255.0,1521537107.0,97093714.0,,0.794679534911,-0.10200072236400001,-0.006002243276590001,-0.07284207054530001,0.996827328719,-0.000585347553643,0.0320775130901,0.0024635168043899997,-0.0136700986534,0.013026054455500001,-0.0160528246761,-0.0017174106124500002,-0.014182879111799999,8.42385578156,1.00430619717,1.47766542435,0.0391417294741,3.44911551476,0.480055570602,2165608.5,1521537107.0,100149606.0,,,,,,1670159.5,1521537107.0,789068592.5,,0.328999853134,0.05299997329710999,-0.07300109863295,-0.2004999965425,-0.1330000050365,-0.08750000223515,50.5,56.5,66.0,72.0,80.0,-84.5,-80.5,-76.5,-74.0,-73.0,-1.0,0.6999998092650999,-0.19499999284739006,0.7349987030030499,-0.096499998122,-0.06300000473845,0.011999998241600002,0.3411437540587628,0.2560185546877468,8.611241041366533,3.4825828432372394,0.01904254728015272,0.021489456465748354
33,33,45.454615384600004,4544.5,1521537107.0,873783945.5,,2165263.0,1521537107.0,177105468.0,,0.7952542008305,-0.1026966485615,-0.005296948920405001,-0.07252635699415,0.9968367453575,-0.0009890113454035,0.0324865645995,0.0013171547486299994,-0.0011179755880499976,-0.0013096740308095,-0.006402141183770001,-0.003900577544770001,-0.007977319757699997,8.719325542450001,1.18688380718,1.070498764515,0.012135438621045002,3.41000699997,0.4891541153195,2165616.0,1521537107.0,175169797.0,,,,,,1670167.5,1521537107.0,868533479.0,,-0.17600002288849995,-0.9820000231270001,-0.44800109863250004,-0.164499998093,-0.08499999716880001,-0.0785000026226,61.5,70.5,74.0,80.0,85.0,-79.5,-78.0,-77.0,-75.0,-70.0,-1.0,-0.5049998760225001,-1.03499999642411,-0.37499999999955,0.0359999984495,0.048000007867699986,0.008999999612550005,1.0936201524542735,0.20111563664479504,8.864609336671032,3.4449334909761213,0.0021679511328189798,0.010947125076305589
34,34,45.5571794872,4554.5,1521537107.0,973642587.0,,2165273.0,1521537107.0,277101150.5,,0.7955713341335,-0.1027666799325,-0.005310193528635,-0.07225465329070002,0.9968454235335,-0.00065889094099,0.032825056357000004,-0.0025736055535900003,0.0032734508783040005,-0.0002089109379399996,-0.0033968726782000014,0.00422190679496,0.0045840696776995,8.42722415924,1.040369153025,1.269737839695,0.03294517472385,3.382231473925,0.4824160784485,1511033.5,1521537107.0,279588653.5,,,,,,1670177.5,1521537107.0,968475061.5,,0.09399995803815,-0.6770000457765,-0.17299957275404998,-0.159500002861,-0.103000000119,-0.08799999952314999,41.5,43.0,48.5,56.0,70.0,-80.0,-79.0,-74.5,-72.5,-68.5,-1.0,0.26999998092664995,0.3049999773505,0.27500152587845,0.0049999952320000105,-0.01800000295019999,-0.009499996900549992,0.7050488679982693,0.20926837040806573,8.585610589014482,3.4166211965174154,0.004169240935485678,0.007097671152373507
35,35,45.6597435897,4565.5,1521537108.0,83627462.0,,2165284.0,1521537107.0,387115294.0,,0.795349081803,-0.101883091922,-0.00531430531874,-0.0725151330238,0.99682982713,-0.00023908866405500002,0.0327382660255,-0.008165753308979999,-0.013649989288299998,-0.00214988981764,-0.017915454423900003,0.0184447870068,-0.00260344660246,7.47863912582,0.901851415634,1.9815201759299998,0.00174982845783,2.981954813,0.46520027518299994,2165637.0,1521537107.0,385186477.5,,,,,,1670188.5,1521537108.0,78585264.5,,-1.0909999847399998,-1.957000007855,-0.278001022339,-0.14000000059599998,-0.0929999984801,-0.07750000059605,41.0,44.5,53.0,56.0,82.0,-85.5,-83.0,-79.5,-77.5,-74.5,-1.0,-1.18499994277815,-1.2799999620785,-0.10500144958495,0.01950000226500001,0.010000001638899995,0.01049999892709999,2.257745460823403,0.18508173863611274,7.7890821896899025,3.0180240000211787,0.016050662319724213,0.0258447598006427
36,36,45.7623076923,4575.5,1521537108.0,183738470.0,,2165294.0,1521537107.0,487105610.0,,0.795663170397,-0.103297290767,-0.0051889136684700006,-0.0719041713252,0.996870357307,-0.000978197214308,0.032837843999099996,-0.00906617181208,0.007955153173149999,0.00575083252278,-0.0014315298749200001,0.0127369282727,0.0141264070031,7.423843860630001,1.07466852665,1.5460054874399998,-0.0335458964109,2.9150066375700003,0.465496361256,1511048.5,1521537107.0,491095601.5,,,,,,1670198.5,1521537108.0,178686021.0,,-1.62599995136,-0.762000054121,-0.217999649048,-0.127499997616,-0.0765000022948,-0.08149999752645,56.5,60.0,65.0,70.0,71.5,-82.0,-81.5,-80.0,-77.5,-66.0,-1.0,-0.5349999666200003,1.194999953734,0.06000137329099998,0.01250000297999998,0.016499996185299997,-0.003999996930399999,1.8088791477841135,0.16956045924682964,7.658883931512504,2.952130736702856,0.013362335426095866,0.01907443300399584
37,37,45.8648717949,4587.5,1521537108.0,303653478.0,,2165308.5,1521537107.0,632093027.0,,0.7957622663799999,-0.1036966452525,-0.0049124013265,-0.07155952696074999,0.9968926979445,-0.001067807128964,0.0329056608281,-0.0030933385194750005,-0.02380636542935,-0.0013253104722835002,-0.01987374135525,0.00923453893497,-0.010240018162285,7.99253988266,1.1993117332449998,1.7182499766350001,-0.0912363305686,3.109739899635,0.443282842636,1511058.5,1521537107.0,621088259.5,,,,,,1670210.5,1521537108.0,298893321.0,,-0.340999984741,0.752999961376,0.366999435425,-0.150499999523,-0.09549999982114998,-0.11950000002999997,45.5,48.0,53.5,54.0,78.0,-86.5,-84.0,-77.0,-76.0,-75.0,-1.0,1.284999966619,1.515000015497,0.584999084473,-0.023000001907,-0.01899999752635,-0.038000002503549984,0.9044216478102947,0.21459438443126289,8.262652442867003,3.1424999586273628,0.02404304943221144,0.024188846122971175
38,38,45.967435897399994,4597.5,1521537108.0,403668999.0,,2165318.5,1521537107.0,732108219.5,,0.7961797225660001,-0.1037685825825,-0.004905875741985,-0.07149730438535001,0.9968863728919999,-0.0010881707649185,0.03323238345375,-0.0033930214525999987,0.00685439863995,-0.00208373089631,0.0059053341316850005,0.005326779657199996,0.00714091829614,7.970465421680001,1.171703338625,1.76930987835,-0.03492471575735,3.16468346119,0.45748388767250003,1511065.5,1521537107.0,722076092.5,,,,,,1670220.5,1521537108.0,399250198.5,,-0.4360000133515,-1.64200001769,-0.3679992675780001,-0.1215000003575,-0.0785000026226,-0.07099999859930001,46.0,47.5,48.0,48.0,58.0,-82.5,-82.0,-79.0,-78.0,-77.5,-1.0,-0.0950000286105,-2.394999979066,-0.7349987030030001,0.0289999991655,0.01699999719855,0.048500001430699984,1.7382990337322326,0.16113814042529256,8.248131012391136,3.197769949946399,0.007926998785252153,0.010688323855280141
39,39,46.07,4607.5,1521537108.0,503630518.5,,2165328.5,1521537107.0,832104003.5,,0.7966652922499999,-0.10347837517899999,-0.00479067710609,-0.0715824931161,0.996861846834,-0.0006409854396515,0.03378468791755,0.0015137577351200006,-0.002739506014150001,0.00030146555264499997,-0.009155637116045,-0.0035603260261649994,-0.00030786661263985,7.573586702345,1.057410895825,1.83918273449,0.0013942271471000002,2.9892598390550003,0.462180122733,1511072.5,1521537107.0,822575030.5,,,,,,1670230.5,1521537108.0,498948184.5,,0.3990000247955,-0.17199999094,0.7120006561280001,-0.142000004649,-0.09300000220535001,-0.09849999845015,44.0,44.0,47.0,49.5,63.5,-83.0,-82.0,-80.5,-78.5,-76.5,-1.0,0.8350000381470001,1.4700000267500002,1.0799999237060005,-0.02050000429150001,-0.01449999958275,-0.027499999850849985,0.8341042806489319,0.19625302908538939,7.865108166541166,3.024778801020986,0.0031443977422761287,0.00982834646644424
