,Unnamed: 0,Unnamed: 0.1,.header.seq,.header.stamp.secs,.header.stamp.nsecs,.header.frame_id,.endpoint_state.header.seq,.endpoint_state.header.stamp.secs,.endpoint_state.header.stamp.nsecs,.endpoint_state.header.frame_id,.endpoint_state.pose.position.x,.endpoint_state.pose.position.y,.endpoint_state.pose.position.z,.endpoint_state.pose.orientation.x,.endpoint_state.pose.orientation.y,.endpoint_state.pose.orientation.z,.endpoint_state.pose.orientation.w,.endpoint_state.twist.linear.x,.endpoint_state.twist.linear.y,.endpoint_state.twist.linear.z,.endpoint_state.twist.angular.x,.endpoint_state.twist.angular.y,.endpoint_state.twist.angular.z,.endpoint_state.wrench.force.x,.endpoint_state.wrench.force.y,.endpoint_state.wrench.force.z,.endpoint_state.wrench.torque.x,.endpoint_state.wrench.torque.y,.endpoint_state.wrench.torque.z,.joint_state.header.seq,.joint_state.header.stamp.secs,.joint_state.header.stamp.nsecs,.joint_state.header.frame_id,.joint_state.name,.joint_state.position,.joint_state.velocity,.joint_state.effort,.wrench_stamped.header.seq,.wrench_stamped.header.stamp.secs,.wrench_stamped.header.stamp.nsecs,.wrench_stamped.header.frame_id,.wrench_stamped.wrench.force.x,.wrench_stamped.wrench.force.y,.wrench_stamped.wrench.force.z,.wrench_stamped.wrench.torque.x,.wrench_stamped.wrench.torque.y,.wrench_stamped.wrench.torque.z,.tactile_values.tactile_values_0,.tactile_values.tactile_values_1,.tactile_values.tactile_values_2,.tactile_values.tactile_values_3,.tactile_values.tactile_values_4,.tactile_values.tactile_values_5,.tactile_values.tactile_values_6,.tactile_values.tactile_values_7,.tactile_values.tactile_values_8,.tactile_values.tactile_values_9,.tag,.delta_wrench.force.x,.delta_wrench.force.y,.delta_wrench.force.z,.delta_wrench.torque.x,.delta_wrench.torque.y,.delta_wrench.torque.z,.wrench_stamped.wrench.force.magnitude,.wrench_stamped.wrench.torque.magnitude,.endpoint_state.wrench.force.magnitude,.endpoint_state.wrench.torque.magnitude,.endpoint_state.twist.linear.magnitude,.endpoint_state.twist.angular.magnitude
0,0,45.628716,4563.5,1521541877.0,418411969.5,,2642204.0,1521541876.0,586717016.0,,0.769199334745,-0.14692760172299998,0.11304629981599999,0.9783978433249999,-0.200453430459,0.0130163555952,-0.0488534224058,-0.008857599311549998,-0.0018177967945799999,-0.0494594041119,-0.00881455458509,-0.00468328760516,0.0404082706751,2.63334918022,-1.23776495457,4.42785024643,1.3812651634200002,1.32087814808,1.05268621445,1843826.5,1521541876.0,580903503.0,,,,,,2146624.5,1521541877.0,409963924.0,,-0.41299993991850004,3.65800006799,0.206999206543,-0.08650000020865001,-0.1060000024735,-0.048000000417250006,-89.0,-87.0,-80.5,-78.0,28.0,-231.0,-214.0,-207.0,-197.0,-186.5,4.0,0.0,0.0,0.0,0.0,0.0,0.0,3.6870560233466705,0.14499051900222462,5.298343872620692,2.1819167719796284,0.05027916174574301,0.041622804978500946
1,1,45.7312801026,4573.5,1521541877.0,518417000.0,,2642216.0,1521541876.0,706730547.5,,0.768767101266,-0.147413636196,0.1067878760335,0.9789885360574999,-0.1980656367385,0.01282945201085,-0.0467630849995,0.0224589013664,0.00696172557605,-0.06048103774045,-0.016675323702764998,-0.048371916296499985,0.03473310402775,6.930786609649999,2.4211010336900003,2.455782532695,-0.15938517451249998,2.653858780865,0.8102860748765001,1843835.5,1521541876.0,701385789.0,,,,,,2146634.5,1521541877.0,509779337.0,,-2.022999984025,1.4630000006425,-0.937999343874,-0.06000000238415,-0.0675000008196,-0.02999999932945,-88.5,-83.5,-81.5,-77.0,35.0,-240.5,-214.0,-206.0,-199.5,-182.0,4.0,-1.6100000441065,-2.1950000673475003,-1.1449985504170002,0.02649999782450001,0.0385000016539,0.0180000010878,2.666972198271508,0.09516433342650496,7.741343623152791,2.779376474277533,0.06489086067963384,0.06184090250141973
2,2,45.8338442051,4581.5,1521541877.0,598402976.5,,2642224.5,1521541876.0,791712107.0,,0.7720319819545001,-0.14619235633,0.101250049036,0.9789886113045,-0.1974339734295,0.016232657428299997,-0.04834520194564999,0.01900601153385,0.033958448218500005,-0.0693593050765,0.011511316037920001,-0.047759041593050014,0.0413701934779,4.04433143139,0.7250634431865001,5.500733137130001,0.19934824854155,1.776550769805,0.6920824050905001,1843841.0,1521541876.0,786885088.0,,,,,,2146643.0,1521541877.0,595433641.5,,-0.31799991130800004,-0.667000039294,0.29699935913099995,-0.028500000014900002,-0.0915000028909,-0.028500000014900002,-94.0,-87.5,-84.0,-80.0,-30.0,-235.5,-219.0,-203.5,-200.5,-191.0,4.0,1.705000072717,-2.1300000399365,1.234998703005,0.031500002369250005,-0.0240000020713,0.0014999993145500025,0.7963803207854386,0.09998375133357075,6.865886597482849,1.9169899366786392,0.07953060970801358,0.0642256129531703
3,3,45.936408307700006,4593.5,1521541877.0,718446969.0,,2642236.5,1521541876.0,911715412.0,,0.770469076538,-0.1401453593395,0.09132057790925,0.9781056957355,-0.201233439705,0.0154965433246,-0.05073243860365,-0.032049456025800005,0.05620645020705002,-0.08563286181629999,0.061140037756000014,0.0292522634255,-0.009417220994950001,5.83552360535,3.1947176456449995,3.0746731758099997,-0.8337743580339999,2.4244986176450003,0.6549699306485001,1843849.5,1521541876.0,902882302.0,,,,,,2146654.5,1521541877.0,710919731.0,,0.38700001239799997,0.8730000026525,-0.998000717161,-0.07349999994039999,-0.0485000014305,0.01450000004844,-87.5,-86.5,-86.0,-86.0,94.0,-251.5,-211.5,-201.0,-199.0,-198.0,4.0,0.7049999237060001,1.5400000419464999,-1.295000076292,-0.0449999999255,0.043000001460400006,0.04300000006334,1.3812687811143736,0.0892454487993761,7.328927051215487,2.646197051833296,0.10732809370932109,0.06842867223311935
4,4,46.0389724103,4604.5,1521541877.0,828627466.5,,2642247.0,1521541877.0,16708236.0,,0.7670617518880001,-0.135737348048,0.0823717146411,0.9782426172669999,-0.20070855728599998,0.0126382418719,-0.05096794714930001,-0.0348153309453,0.0329300239756,-0.0994776063779,-0.0121503854556,0.0536051532013,0.0735425815288,5.69021844864,1.06609535217,4.402151107790001,-0.0162263512611,2.3532691001900004,0.694306671619,2642600.0,1521541877.0,14810787.0,,,,,,2146665.5,1521541877.0,820990139.0,,-0.982999992373,1.37299998216,-0.03300056457514998,-0.07799999788405,-0.1319999992845,-0.015499999746690004,-93.0,-91.0,-88.0,-87.5,-28.0,-229.0,-211.0,-209.0,-196.0,-195.0,4.0,-1.3700000047710001,0.4999999795074999,0.9650001525858499,-0.004499997943650011,-0.08349999785399999,-0.029999999795130006,1.6889366398059333,0.15410467051055654,7.272831612857416,2.453609689139444,0.11041869370057211,0.09181315599833552
5,5,46.141536512799995,4612.5,1521541877.0,908419489.5,,2642254.5,1521541877.0,91738227.0,,0.7657218288605,-0.1349504812035,0.07530209321994999,0.9787400709665,-0.1986647197,0.011639576418000001,-0.049645093318300006,-0.007599883349189998,0.01353400649855,-0.0942705198323,0.0016767765659449995,-0.0036183148731635,0.035079838423050014,5.82874417305,1.6943269372,3.7418448925,-0.24201676994600002,2.343480348585,0.6934961676595,1843862.0,1521541877.0,88907821.5,,,,,,2146673.5,1521541877.0,900247076.0,,0.232000041008,0.893000000343,-1.053001022339,-0.056499999016550013,-0.10599999874839999,-0.01849999977275,-89.5,-84.0,-82.0,-80.0,-62.0,-232.0,-216.5,-210.5,-194.0,-177.5,4.0,1.215000033381,-0.4799999818169999,-1.0200004577638502,0.021499998867499988,0.026000000536099983,-0.0030000000260599967,1.400030061351288,0.12153394429180146,7.130666561024586,2.4558927492253364,0.0955398266079448,0.035305790544339244
6,6,46.2441006154,4623.5,1521541878.0,18458485.5,,2642263.0,1521541877.0,176774100.0,,0.7637752590539999,-0.131669320777,0.067388374574,0.978670244318,-0.199156270893,0.0111292648462,-0.0491677955034,-0.0238116633819,0.0280255087354,-0.09646470045450001,-0.027852580032900004,0.0204005870804,-0.012372548299700002,5.757678985599999,1.83304464817,3.2527227401700003,-0.100821554661,2.26992201805,0.704599499702,1045120.0,1521541877.0,185999872.0,,,,,,2146684.5,1521541878.0,10235775.5,,1.7220000505450002,1.723000006005,0.0969985961914,-0.04000000096855,-0.1735000014305,-0.0415000002831,-94.0,-92.5,-86.0,-85.0,22.0,-240.0,-204.0,-195.0,-194.0,-190.0,4.0,1.490000009537,0.8300000056619999,1.1499996185304,0.016499998048000016,-0.06750000268209999,-0.02300000051035,2.4379134362059114,0.18282368718895484,6.862297370984702,2.3789013028902133,0.1032369259842006,0.03667465227023281
7,7,46.3466647179,4635.5,1521541878.0,138458490.0,,2642275.0,1521541877.0,296756423.0,,0.7592165001360001,-0.129854818792,0.0586103995758,0.978905383018,-0.198557900195,0.008715855503040002,-0.047360798466600004,-0.0452957864792,0.00866803347452,-0.057020408799099996,-0.028077021970199997,0.055784577436300005,0.013383759541700001,5.16387033463,-0.05490100383759999,5.5275182724,0.583440184593,2.15218520164,0.769968390465,1843877.5,1521541877.0,304916138.0,,,,,,2146697.0,1521541878.0,134422383.0,,0.802000212669,0.818000004813,-0.41299972534199997,-0.0340000018477,-0.137999996543,-0.0209999997169,-91.0,-91.0,-87.0,-75.0,79.5,-231.0,-202.0,-202.0,-187.0,-181.0,4.0,-0.919999837876,-0.9050000011920001,-0.5099983215334001,0.0059999991208499965,0.03550000488750002,0.0205000005662,1.2177426337809465,0.14366975728949155,7.564524387217613,2.3590580564011954,0.07333600818630066,0.06386989323563717
8,8,46.449228820500004,4644.5,1521541878.0,228620409.5,,2642284.5,1521541877.0,391765016.0,,0.754308590495,-0.128040639445,0.05329062622505,0.978915818904,-0.198893407558,0.006618370265659999,-0.04605797949035,-0.042887398552550006,0.044312425333900014,-0.06156913825745,0.0015541016620500038,0.0324100488696,-0.0054832760195550004,7.034309148789999,2.292385220525,2.8531959056850003,-0.1967160925265,2.7109105587,0.7391305565835,1045128.5,1521541877.0,392499968.0,,,,,,2146705.5,1521541878.0,220843706.5,,-0.548000049591,2.70800002031,0.02699890136700001,-0.08150000125165,-0.10650000348665,-0.044999999925499995,-90.5,-90.0,-87.5,-82.0,60.0,-227.0,-210.5,-198.0,-195.0,-191.0,4.0,-1.35000026226,1.890000015497,0.439998626709,-0.047499999403949986,0.03149999305635,-0.0240000002086,2.7630231821368643,0.1414549431443469,7.929518401280735,2.8167440881282553,0.08714171664216126,0.032907336805224355
9,9,46.5517929231,4652.5,1521541878.0,309471964.0,,2642293.0,1521541877.0,476773221.5,,0.7521405555199999,-0.12535750780600002,0.049681547038050014,0.9790876326075,-0.1978925789415,0.006026042551574999,-0.046789815005,-0.035214510009550004,0.026310170667050003,-0.0583848157937,-0.01537102724875,0.023941460672675,0.027687272844,4.5495905876150005,0.5115358382465001,4.8460016250599995,0.2768590822815,1.8880194425549999,0.6693863272664999,1843889.0,1521541877.0,482421873.5,,,,,,2146714.0,1521541878.0,304643528.0,,-0.9180000543594999,3.17800004892,-0.5130001068104999,-0.0530000012368,-0.095999997109,-0.0294999992475,-92.0,-90.0,-88.0,-81.0,56.5,-216.0,-204.5,-195.0,-192.0,-191.5,4.0,-0.3700000047685,0.4700000286100003,-0.5399990081774999,0.028500000014849994,0.010500006377649999,0.015500000678000003,3.347473303900593,0.11355725221944792,6.666646471713475,2.022213248408481,0.07308264849474379,0.0396994596356318
10,10,46.65435702560001,4666.5,1521541878.0,448431491.5,,2642307.0,1521541877.0,616764990.0,,0.748232244128,-0.122779306173,0.040908233033300004,0.9789645991429999,-0.198792339726,0.004852280559325,-0.04567419154084999,-0.02123124358255,0.007300960009870003,-0.06514413637125001,-0.04564090220745,0.013667835321879998,0.0428530718592,3.7615207433699993,0.990033268928,5.686810493465001,0.048158802092050014,1.30671465397,0.5805809795855,1045137.0,1521541877.0,599000064.0,,,,,,2146727.5,1521541878.0,441191013.5,,-0.6880000352860001,3.622999982165,0.4119991302489999,-0.06600000150505,-0.132500004023,-0.04849999956785,-94.5,-90.0,-84.5,-81.0,55.5,-242.0,-208.0,-203.5,-191.5,-186.0,4.0,0.2300000190735,0.4449999332449997,0.9249992370594998,-0.013000000268250005,-0.036500006914,-0.01900000032035,3.7106894511191664,0.15577066868586995,6.889776321838808,1.4306979873388153,0.06890448624497036,0.06408032025876434
11,11,46.7569211282,4674.5,1521541878.0,528443455.0,,2642317.5,1521541877.0,721761831.5,,0.7485788545225001,-0.12117865663650006,0.032027619406800004,0.9791086478835,-0.1979629257155,0.007195263185515,-0.045877911596400006,0.01544182948265,0.0052195707133650005,-0.10315916175815,0.015295336266935003,-0.0901515323878,0.0257813789137,6.4268569946300005,0.6471484005454999,1.241971492765,0.5191873908039999,2.538324594495,0.8224430680275001,2642670.0,1521541877.0,714849696.0,,,,,,2146735.5,1521541878.0,520718088.0,,-0.5429999351504999,3.848000006005,-0.4130016326889999,-0.036500000860525,-0.09549999795845,-0.0429999995977,-91.0,-90.0,-83.5,-80.0,49.5,-237.0,-210.0,-204.0,-187.0,-177.5,4.0,0.14500010013550013,0.22500002384000028,-0.8250007629379998,0.029500000644525,0.037000006064549985,0.0054999999701500005,3.9080075901143934,0.1109121257495522,6.5776732261943565,2.7182825265109143,0.10443900933486115,0.09500487146498827
12,12,46.8594852308,4684.5,1521541878.0,629736542.5,,2642327.5,1521541877.0,821765863.0,,0.7473767774015001,-0.1211357447185,0.0226068700239,0.978965316719,-0.1985478614585,0.00825956264883,-0.046232250316699995,-0.0310141221555,-0.0006490260127000012,-0.10095775806315,0.03850349434395002,0.010128354964900005,-0.05307380970045,3.4186353683499995,1.151400268075,2.9387057423600003,0.07385890930885,1.2989679574950002,0.576669424772,2642680.0,1521541877.0,814858417.0,,,,,,2146745.5,1521541878.0,621687343.5,,-2.427999996395,4.0930000107749995,0.04699935913100002,-0.08300000056635001,-0.1080000028015,-0.07100000232455,-89.5,-84.0,-80.5,-74.0,-2.5,-228.0,-206.0,-194.0,-191.5,-188.5,4.0,-1.8850000612445,0.2450000047700005,0.4600009918199999,-0.04649999970582501,-0.01250000484305,-0.02800000272685001,4.759206027317687,0.15360338872962476,4.652825141700079,1.4231375613586674,0.1056161252886081,0.06634705665746739
13,13,46.9620493333,4696.5,1521541878.0,748412966.5,,2642339.5,1521541877.0,941761598.0,,0.743290138469,-0.121940423559,0.01203989764525,0.9793570738055,-0.1969441013935,0.007212749140444999,-0.04494949986655001,-0.03752053944095,-0.023285497718250003,-0.08237775290704999,-0.053882555488,0.0582942898796,0.0345624118626,3.425670981405,1.2904800176600002,4.608431100845,0.06956630200155,1.131419152022,0.5554029792545,2642691.0,1521541877.0,924847458.5,,,,,,2146757.5,1521541878.0,739535890.0,,0.05200009346,2.06799997501,0.1569999694825,-0.0679999999702,-0.1144999973475,-0.0365000013262,-91.5,-89.0,-88.0,-86.0,-9.0,-226.0,-205.0,-204.0,-191.0,-179.0,4.0,2.480000089855,-2.0250000357650006,0.11000061035150001,0.01500000059615002,-0.006499994546000004,0.03450000099835001,2.07460282868281,0.13808149581076137,5.885422462326346,1.2623079011481815,0.09346710361373939,0.08658010355875204
14,14,47.0646134359,4706.5,1521541878.0,848944425.0,,2642349.5,1521541878.0,41757935.0,,0.7407961052644999,-0.123173371323,0.0038013171974000002,0.9794114703355,-0.196816703973,0.006710665762685,-0.0443993468563,-0.026441455667350004,-0.00839489689605,-0.07834934912465,0.009087476350450005,0.026252303616999997,-0.06670250783195,4.679528236385,0.9908708631995,2.381715774535,0.342234954238,1.661375403405,0.6401054263115,2642701.0,1521541878.0,24825450.0,,,,,,2146767.5,1521541878.0,841722105.0,,0.0569999694824,1.647999988125,0.841999435425,-0.0645000003278,-0.10949999839050001,-0.043500000610949996,-95.5,-94.0,-93.0,-89.0,-28.0,-225.0,-203.5,-198.0,-187.0,-177.5,4.0,0.004999876022399999,-0.4199999868849997,0.6849994659424999,0.003499999642399998,0.004999998957000013,-0.006999999284750008,1.8515172174832764,0.13432330305259157,5.343442674281356,1.8130162579896627,0.08311585516590705,0.07225641994100242
15,15,47.167177538500006,4717.5,1521541878.0,958584904.5,,2642357.5,1521541878.0,122191576.5,,0.7388091614175,-0.124287385373,-0.0007807736592855001,0.97918000349,-0.1981484148655,0.00557106270109,-0.04372935885865,-0.03047758594275,-0.005620697128620001,-0.05824579802459999,-0.0069127148743,0.0558600892124,-0.00668782332225,3.50297701359,0.9152921736235,4.91893219948,0.248113140464,1.217744052412,0.6168141663075,2642710.0,1521541878.0,115250501.0,,,,,,2146778.5,1521541878.0,952530213.0,,-0.053000044822849986,1.448000000045,-0.4280010223387,-0.082499999553,-0.1060000024735,-0.03299999982115,-93.0,-92.0,-91.0,-89.0,-17.0,-225.0,-195.0,-193.5,-183.5,-176.0,4.0,-0.11000001430525,-0.19999998808000008,-1.2700004577636999,-0.0179999992252,0.003499995916999996,0.010500000789800006,1.5108599802776286,0.1383157635225389,6.107741129412535,1.3874150148435487,0.0659776361249165,0.05668211512055885
16,16,47.269741641,4728.5,1521541879.0,68426489.5,,2642369.0,1521541878.0,237193090.5,,0.739018151145,-0.121293807049,-0.004954625294105,0.978750057158,-0.199327240806,0.007508039869400002,-0.04754140976905,0.04312425926084999,0.06855349578455,-0.004029173930499,0.15058925732200001,-0.1134863964125,-0.08420066236679999,4.31879711151,1.4850994348500002,2.002860486505,-0.4140369296075,1.7155622243900002,0.5810492932795001,1843941.0,1521541878.0,230653087.5,,,,,,2146789.5,1521541879.0,61963201.0,,-1.27300001383,1.118000001835,-0.16299972534200002,0.034000001149259995,-0.1340000033375,-0.0555000007153,-86.0,-84.5,-79.0,-76.0,-41.0,-219.0,-193.5,-186.0,-178.0,-176.5,4.0,-1.21999996900715,-0.3299999982099999,0.2650012969967,0.11650000070226,-0.02800000086400001,-0.022500000894150003,1.7020640263444287,0.14897063822108703,4.986880683371315,1.8580093126928556,0.08108956630566928,0.20650917203478994
17,17,47.372305743599995,4735.5,1521541879.0,138767003.5,,2642376.0,1521541878.0,307190855.0,,0.740586387687,-0.1213525036165,-0.0055000517910900005,0.9788140705655,-0.1989180820045,0.0101350077515,-0.047444895532,0.00509261090943,-0.006517751995685,-0.020710446301249998,-0.07027630022164999,-0.047955610008600005,0.0817981520645,3.417442083355,0.4503785520794501,1.7851094603530002,0.2880107164385,1.39430677891,0.578965127468,1843947.0,1521541878.0,307643377.0,,,,,,2146796.5,1521541879.0,131400050.5,,-1.422999989985,0.8430000033230001,-1.297999954226,0.034500000998400004,-0.07999999821185,-0.06300000101325,-77.0,-75.0,-73.5,-73.0,52.0,-215.0,-188.5,-187.5,-184.0,-177.5,4.0,-0.14999997615499994,-0.274999998512,-1.135000228884,0.0004999998491400093,0.054000005125650015,-0.007500000297949999,2.102470417929961,0.10751395216647514,3.8817994562703424,1.536958745484678,0.022301084344691875,0.1180230341302387
18,18,47.4748698462,4746.5,1521541879.0,249122976.5,,2642387.0,1521541878.0,417190137.0,,0.742056351761,-0.118721246301,-0.00689780567103,0.97865896814,-0.19919161585,0.012159896869099998,-0.0490047055088,0.019906874747599997,0.053010376801699996,-0.00648777664681,0.07218444418389999,-0.0546493336578,0.026594596943200002,4.51126432419,1.5276463031799998,0.09741153568029999,-0.189669832587,1.79711556435,0.626239538193,2642739.0,1521541878.0,405248057.0,,,,,,2146807.5,1521541879.0,242185364.5,,-1.94299997091,-1.0970000464465,-3.447999572755,0.22399999946350002,-0.09899999946375004,-0.04000000096855,-74.0,-73.0,-72.0,-67.5,33.0,-219.5,-189.0,-183.5,-179.0,-176.0,4.0,-0.519999980925,-1.9400000497694998,-2.149999618529,0.18949999846510002,-0.01900000125190003,0.0230000000447,4.106989048266205,0.24814713323138457,4.763895258883488,1.9125310340537698,0.056995394170877886,0.09436321443206239
19,19,47.5774339487,4757.5,1521541879.0,358773469.0,,2642397.5,1521541878.0,522189654.0,,0.743843713165,-0.115164937998,-0.00797592187058,0.978412644416,-0.19972501163400005,0.012268804156299998,-0.0516533177003,0.009537515597365,0.049065607482350004,-0.007677719198980001,0.06602300774280001,0.0204056110843675,-0.0176304558906,4.111862301825,1.90429085493,-1.807486593725,-0.562081158161,1.4993978142750002,0.5585234463215001,2642750.0,1521541878.0,515267250.5,,,,,,2146818.5,1521541879.0,352654831.0,,-0.6629999399185,-0.4470000106845,-5.117999649045,0.3170000016685,-0.1260000020265,-0.08999999985095,-69.5,-67.0,-62.5,-57.0,7.0,-211.0,-191.0,-186.0,-178.0,-171.5,4.0,1.2800000309914998,0.6500000357619999,-1.67000007629,0.09300000220500003,-0.02700000256274997,-0.0499999988824,5.180086711388973,0.3527959772186724,4.878600520214298,1.695900195737681,0.050570202822219405,0.07131801658797506
20,20,47.679998051300004,4768.5,1521541879.0,468716978.5,,2642409.0,1521541878.0,637189698.0,,0.7477401353640001,-0.11156149559699999,-0.00922529082291,0.978059663011,-0.20066745084050008,0.0133012713785,-0.0543580904245,0.035674917213049995,0.03972657899835,-0.012292433964525,0.054017207110199986,-0.021180448032840003,-0.037369616666525,6.325778484345,0.6096906363965,-3.4548026323300003,-0.0013364553452000073,2.2660791873900004,0.8421517014500001,2642762.5,1521541878.0,640285736.0,,,,,,2146829.5,1521541879.0,462510159.5,,-1.9129999995249998,-2.9169999796900004,-5.283000564575,0.4249999970195,-0.2740000039335,-0.142999999225,-77.0,-75.5,-74.5,-59.0,7.0,-223.5,-193.0,-187.5,-180.0,-176.0,4.0,-1.2500000596065,-2.4699999690055003,-0.1650009155299994,0.10799999535099997,-0.148000001907,-0.052999999374050005,6.330762422093715,0.5254997615608241,7.233454038940594,2.417506185698424,0.05479055329016418,0.06901418906761927
21,21,47.7825621538,4777.5,1521541879.0,563263535.0,,2642419.5,1521541878.0,742197137.5,,0.7488206565485,-0.1080706122905,-0.00977179601313,0.9784576549474999,-0.198190833661,0.01516545027245,-0.055768894044349995,-0.01774538417118,-0.0006019709812000017,-0.006229984088654999,-0.02647312574550001,0.0246035003371,0.0367150496169,6.104034662245,0.379127025604,0.968315631151,0.183173902333,2.785462379455,0.947481870651,1843977.0,1521541878.0,743142956.5,,,,,,2146838.5,1521541879.0,552266942.0,,0.3920000076295001,0.43300001435,-2.458001708985,0.2335000038145,-0.08150000125149999,-0.07300000265239999,-63.5,-62.0,-61.0,-53.0,27.5,-219.0,-200.5,-200.0,-187.0,-175.0,4.0,2.3050000071545,3.3499999940400005,2.82499885559,-0.191499993205,0.192500002682,0.06999999657260003,2.526445214086743,0.2578633404976683,6.191979620522272,2.9478933564610728,0.01881684697790432,0.051518477112063046
22,22,47.88512625640001,4788.5,1521541879.0,668694972.5,,2642430.0,1521541878.0,847191356.0,,0.7488399167420001,-0.1104987236285,-0.008733606547575,0.9789439764815,-0.1967730492665,0.01585031095955,-0.05193869694185,0.016079215002605,-0.03712289666435,0.008639111777290499,-0.07697169904234999,-0.03077611655675,0.021624055946225,5.22492003441,0.2070082426075,-0.47663210332350003,0.6847154498100001,2.181568324565,0.9322986900805,1843985.0,1521541878.0,855632069.0,,,,,,2146849.5,1521541879.0,663799153.0,,-1.7929999947550002,2.1380000274600004,-1.983001327515,0.1044999994335,-0.08999999985115001,-0.09400000050665,-66.5,-63.0,-60.0,-56.0,9.0,-219.5,-196.0,-187.0,-187.0,-175.5,4.0,-2.1850000023844998,1.7050000131100005,0.4750003814699999,-0.129000004381,-0.008499998599650019,-0.02099999785425,3.423183805105511,0.16690191715513247,5.250697090901839,2.4692623290123854,0.041367678979518846,0.08567036593447137
23,23,47.987690359,4798.5,1521541879.0,770563006.0,,2642441.5,1521541878.0,962191211.0,,0.7490895107365001,-0.1101416279145,-0.00902958988437,0.9786323399765,-0.19794348708749998,0.015550629792149996,-0.053433275013150004,-0.006142713660475,0.002233126618145,-0.003362640618598,0.043787377414,0.0327601233615,-0.06082227744735001,4.599295139315,0.7881570756434999,0.541580438614,0.159364923835,2.055077910425,0.8510182797904999,1843992.0,1521541878.0,954121519.5,,,,,,2146859.5,1521541879.0,762196890.0,,-2.31299997568,-0.6170000273735,-3.9180007934599996,0.30300000309950004,-0.0924999974666,-0.0760000012815,-60.5,-60.0,-59.0,-59.0,16.0,-214.5,-193.5,-188.0,-185.0,-166.0,4.0,-0.5199999809249998,-2.7550000548335003,-1.934999465945,0.19850000366599999,-0.0024999976154499864,0.017999999225149985,4.591447281503705,0.32579326513052115,4.697660771692953,2.230016706081661,0.007350315471943979,0.08179186718335264
24,24,48.090254461499995,4809.5,1521541879.0,878509997.5,,2642452.0,1521541879.0,67191745.0,,0.7486003436800001,-0.11010030098300001,-0.008628723757670001,0.978657607791,-0.19787230751899998,0.0151019292811,-0.053364485963,0.0027971900424499994,-0.0040358836638,0.00264643697348,-0.0031768711259699996,-0.00849203141527,-0.00442346464904,4.6811800003099995,0.38541865348800003,0.409123182297,0.582127928734,2.10627937317,0.8883620500560001,1844000.0,1521541879.0,66127733.0,,,,,,2146870.5,1521541879.0,873078043.0,,-1.6529999494549998,0.4829999908805001,-2.65299949646,0.15450000017850002,-0.0925000011921,-0.062499998137350014,-70.0,-68.5,-61.0,-60.0,58.0,-211.5,-192.0,-186.0,-182.0,-167.0,4.0,0.6600000262250001,1.1000000182540002,1.265001297,-0.14850000292100002,-3.725500019591266e-09,0.013500003144149987,3.1629265170575507,0.19061151602897386,4.714803867824371,2.3589134904089306,0.005578194845638786,0.010088317362685466
25,25,48.1928185641,4818.5,1521541879.0,968652009.5,,2642460.0,1521541879.0,147777165.0,,0.74933244918,-0.110335687673,-0.008494702049029999,0.978541463961,-0.198284010137,0.0156287398769,-0.0538126111928,-0.00665283439288,0.008871719055530001,-0.0070348449038800005,-0.009125643684139999,0.00606563596706,0.0172601725495,5.05240488052,0.457044124603,0.649036586285,0.44412773847599996,2.32516288757,0.9183056950570001,1844005.0,1521541879.0,145638646.0,,,,,,2146879.5,1521541879.0,963165445.5,,-1.0780000209829999,0.3179999973626,-2.848001098635,0.237000003457,-0.0619999989867,-0.055000001564600005,-68.0,-65.0,-60.0,-41.5,2.0,-206.5,-192.5,-188.5,-183.5,-156.5,4.0,0.5749999284719998,-0.16499999351790012,-0.19500160217500007,0.08250000327849999,0.03050000220540001,0.007499996572750009,3.061750855538074,0.25107369771657645,5.114384899366973,2.5390780317648343,0.013132275023048654,0.020444629338124215
26,26,48.2953826667,4830.5,1521541880.0,88522433.5,,2642470.0,1521541879.0,246798029.0,,0.7487809235755,-0.10992142264,-0.008814975826025,0.978671275109,-0.197752450514,0.01535317262415,-0.05348432036115,0.0036971280691750017,-0.0048911053652300005,0.00390709806603,0.0007206168522749996,-0.005993778763250003,-0.01146806016175,4.211283683775,0.323984891176,0.7429047226909999,0.5790403187275,1.978466510775,0.9057468175885,1844012.5,1521541879.0,251438158.5,,,,,,2146891.5,1521541880.0,81785465.0,,-1.637999963765,1.0980000060035,-2.88800010681,0.222499996424,-0.06550000049175,-0.052000001072899996,-63.0,-62.0,-61.0,-55.0,24.0,-225.0,-195.0,-191.0,-181.0,-167.0,4.0,-0.5599999427819999,0.7800000086408999,-0.039999008174999684,-0.014500007032999999,-0.003500001505050005,0.0030000004917000033,3.497026238307685,0.23769833525853915,4.288564317103854,2.2516648779385315,0.0072702876800879584,0.01295997979875304
27,27,48.397946769200004,4840.5,1521541880.0,188645481.5,,2642481.0,1521541879.0,356799100.0,,0.748425735922,-0.11029924761399999,-0.00904110793851,0.978722953256,-0.197603939835,0.0150184869989,-0.053183726651800003,0.0157760462073,0.021729806148900004,0.010940694121399999,0.0183880532096,-0.039945997573,0.021764671178000003,3.621550321580002,0.258869469166,1.0578150749200002,0.540488362312,1.84658968449,0.8910564780239999,1045206.0,1521541879.0,359000064.0,,,,,,2146901.5,1521541880.0,182842326.0,,0.39700012207035,2.2229999464,-2.8130012512199998,0.24399999529150002,-0.0540000014007,-0.066000001505,-66.5,-66.0,-65.5,-64.0,-14.0,-212.5,-191.0,-185.0,-180.5,-168.5,4.0,2.03500008583535,1.1249999403965,0.07499885558999964,0.02149999886749998,0.011499999091050005,-0.0140000004321,3.607258501685672,0.25847243189978236,3.7817473298107194,2.120377980381828,0.02899598070529213,0.049066323832417554
28,28,48.5005108718,4850.5,1521541880.0,289350986.0,,2642490.0,1521541879.0,446797491.0,,0.748140518184,-0.1098224501,-0.00912362235052,0.97868293081,-0.197770966273,0.014800207719700004,-0.053360281976,0.0034824112792199995,0.0201734094328,0.0043394880020600005,0.00251317443377,-0.0146659394139,0.0190438547738,3.4523918628699994,0.247316300869,1.1632190942799998,0.544674515724,1.75817167759,0.880127847195,1045209.0,1521541879.0,420000000.0,,,,,,2146911.5,1521541880.0,282548310.5,,0.04699997901950001,1.3280000101775,-3.14800033569,0.232999995351,-0.0230000000447,-0.024500000756200003,-70.0,-68.5,-64.0,-63.5,-14.0,-227.5,-200.5,-198.0,-187.0,-174.0,4.0,-0.3500001430508499,-0.8949999362224998,-0.3349990844699997,-0.010999999940499966,0.031000001356000003,0.0415000007488,3.416972217997042,0.23541080661829444,3.6514727972126666,2.0402115094682984,0.020926652684580146,0.024167627712961933
29,29,48.603074974399995,4861.5,1521541880.0,398555993.5,,2642501.0,1521541879.0,556796220.0,,0.748348874703,-0.109768120592,-0.00886627354521,0.978722665792,-0.19744906911899998,0.015210127447899999,-0.053707174502699996,0.00442092989503,-0.00235787972912,0.0059713741917899995,0.0103849426579,-0.008392385906890001,-0.009918241048,2.34275889397,-0.061629831790899994,2.3204398155200003,0.464429944754,1.36055409908,0.8130468726160001,1045214.0,1521541879.0,560999936.0,,,,,,2146922.5,1521541880.0,393520901.0,,-0.4829999923705,0.1679999839514,-2.543000793455,0.2180000022055,-0.04399999883025,-0.026999999769000003,-69.0,-66.0,-64.0,-59.0,-52.0,-215.0,-201.0,-198.0,-191.0,-178.0,4.0,-0.52999997139,-1.1600000262261,0.6049995422349999,-0.014999993145500018,-0.02099999878555,-0.0024999990128000004,2.5939094091256027,0.224029017866405,3.2979930880601622,1.6516197647092543,0.007794968100777619,0.016632819385307744
30,30,48.7056390769,4871.5,1521541880.0,500237941.5,,2642512.0,1521541879.0,666798372.0,,0.7478655242465,-0.11086366660999998,-0.00846307881841,0.9788310958840001,-0.19719826374850002,0.015218275982200003,-0.05263878376085,-0.010107441037665,-0.00828650940729,-0.0018206516183905,-0.01800030243605,0.0277128166503,0.0007990940507486,2.923402309415,0.2206745743755,1.7483004927599999,0.5037690550089999,1.41976046562,0.8014733195305,1045218.5,1521541879.0,667000064.0,,,,,,2146932.5,1521541880.0,493838108.5,,0.17199997901925002,1.39799998812,-2.55300102234,0.1380000039935,-0.0210000006482,-0.014999999664735,-66.0,-64.0,-61.0,-58.0,-41.0,-216.0,-198.0,-192.0,-190.0,-184.5,4.0,0.65499997138975,1.2300000041686,-0.010000228885000071,-0.07999999821199999,0.02299999818205,0.012000000104265005,2.9157850022995917,0.14039231146815861,3.4134341861904445,1.7064180385947105,0.01319626366827096,0.033055251410091475
31,31,48.8082031795,4878.5,1521541880.0,568586945.0,,2642521.0,1521541879.0,756795459.0,,0.7484230938680001,-0.110959408862,-0.00867390414585,0.978660717268,-0.197867690657,0.0155293980916,-0.0532016472102,-0.0008528963103999999,-0.00651898650789,-0.00416457364542,-0.005682941044020001,0.00988453553482,-0.021128522180000005,2.22769618034,0.23339354991900002,2.0974719524400003,0.45464408397699996,1.23926091194,0.7863447666169999,2642873.0,1521541879.0,744890762.5,,,,,,2146939.5,1521541880.0,563865056.5,,-0.8629999279989999,0.997999995203,-2.56299934387,0.17099999636399998,-0.0255000013858,-0.0645000021905,-63.5,-62.5,-61.0,-57.0,-40.0,-189.0,-186.0,-183.0,-178.0,-174.0,-1.0,-1.0349999070182498,-0.3999999929170001,-0.00999832152999991,0.03299999237049997,-0.004500000737600002,-0.049500002525765,2.882661704541398,0.18453048287407237,3.0686302175918305,1.536491764684598,0.007782563257338331,0.024008629930916063
32,32,48.910767282100004,4890.5,1521541880.0,688538431.5,,2642532.5,1521541879.0,871871012.0,,0.7474794585754999,-0.1108775459895,-0.00900652473651,0.9788375883495,-0.197198044347,0.015002514785450003,-0.05258123058565002,-0.0061586793510700006,-0.007725420061630002,-0.002698716970125,-0.02928313502595,0.003515778417450001,0.011572673181850002,2.59732747078,0.277572453022,2.0270512104,0.46761122345899997,1.440119385715,0.80649754405,1045226.5,1521541879.0,869500032.0,,,,,,2146951.5,1521541880.0,684027237.5,,1.4370002031349998,1.3680000167345,-2.22300109863,0.2069999948145,-0.030499999411400008,-0.019499999470985,-66.0,-65.5,-64.0,-62.0,-16.5,-200.0,-190.0,-180.0,-167.0,-167.0,-1.0,2.3000001311339995,0.3700000215314999,0.3399982452399999,0.035999998450500004,-0.004999998025600007,0.045000002719515,2.9796186860244065,0.21014161367198747,3.306371586305626,1.7155297694810352,0.010241802564137427,0.031682636560149746
33,33,49.0133313846,4902.5,1521541880.0,808408021.5,,2642545.0,1521541879.0,997093129.0,,0.7474856645669999,-0.1107121722,-0.00917576932533,0.978722504208,-0.197639566825,0.014725165501600001,-0.0531416115895,0.00114822164999,-0.0021029260712,0.00189191546945,0.00569342043221,-0.00776064477784,-0.008036645253430001,2.16840434074,-0.07156059145930001,2.33629202843,0.5890839695929999,1.36103212833,0.8241851329800001,2642898.0,1521541879.5,495186399.0,,,,,,2146963.5,1521541880.0,802677900.5,,-0.658000063896,1.2780000206065,-2.45300064087,0.22599999606600002,-0.017500000074499998,-0.04649999924005,-69.5,-67.0,-64.0,-57.5,-39.5,-215.0,-201.0,-192.0,-185.0,-180.0,-1.0,-2.095000267031,-0.0899999961279998,-0.22999954223999985,0.019000001251500004,0.01299999933690001,-0.026999999769065,2.843142676839484,0.23139684127870927,3.188315973252281,1.696676018279034,0.0030528765389354743,0.012539151108236973
34,34,49.1158954872,4910.5,1521541880.0,888447046.0,,2642553.0,1521541880.0,77109114.5,,0.7475972205875,-0.111141805021,-0.00875525453901,0.978867319519,-0.197040411456,0.01505391272195,-0.052602335884349996,-0.004401157318130001,0.004186913874375,-0.0048031056238500005,0.00010576509194999696,0.0075266829486599985,0.007632768802709998,2.081903100015,-0.305821657181,2.063670754435,0.7815371155740001,1.25384986401,0.8424776196479999,1045234.5,1521541880.0,72500096.0,,,,,,2146971.5,1521541880.0,884190229.0,,-0.2729999542235,0.8730000007900001,-2.43799934387,0.218499995768,-0.039499999955300014,-0.0335000008345,-64.0,-63.0,-63.0,-62.0,-60.5,-223.5,-213.5,-206.0,-191.0,-184.5,-1.0,0.3850001096725,-0.4050000198165,0.015001296999999969,-0.0075000002979999925,-0.02199999988080001,0.012999998405550002,2.603939088591729,0.2245545550706915,2.94730120390898,1.7007963676188234,0.007744046562632655,0.010720135356419124
35,35,49.218459589700004,4920.5,1521541880.0,988448500.0,,2642561.5,1521541880.0,162165874.0,,0.7475634200050001,-0.1110825789065,-0.008828885275674998,0.9787355713735,-0.1976074181285,0.014856964411399998,-0.0529827713528,0.0015833957222950007,-0.011898563125515,-0.00103642990735,-0.003310643070360501,-0.0060632390438918994,-0.0048485928218999965,2.19824552536,-0.1448373049499,2.042864322665,0.6792532205580001,1.3136830329899998,0.8341495990755001,2642914.5,1521541880.0,160245002.5,,,,,,2146981.5,1521541880.0,983901692.0,,-0.907999944687,-0.226999982074,-2.93799934387,0.247000001371,-0.057499999180449984,-0.025499999523150005,-67.5,-67.0,-62.5,-60.5,-37.0,-240.0,-216.0,-204.5,-197.0,-191.0,-1.0,-0.6349999904635001,-1.099999982864,-0.5,0.028500005603000006,-0.017999999225149985,0.008000001311349994,3.0834774258933275,0.2548833077286671,3.0044227191738417,1.6979262653136729,0.012048117422157577,0.00843990980966511
36,36,49.321023692299995,4933.5,1521541881.0,118402480.5,,2642574.0,1521541880.0,287167238.0,,0.748040614189,-0.11179329671800001,-0.008577652488430001,0.978572783479,-0.198374473356,0.0150920004488,-0.0530575845481,0.0125124370746,-0.017780906570299997,0.00290353764004,-0.0047568504883,-0.0123395221592,-0.0359908861347,2.3530864715599997,0.020436406135599997,1.8405089378400001,0.574084758759,1.3133430481000001,0.8093016147609999,1844085.0,1521541880.0,282609431.5,,,,,,2146994.5,1521541881.0,114450318.0,,0.2470000267030001,-0.832000001149,-3.883000946045,0.254999995232,-0.0679999999702,-0.061500001698699985,-71.0,-65.0,-61.5,-53.0,-9.0,-232.0,-223.0,-211.5,-197.5,-195.0,-1.0,1.1549999713899999,-0.605000019075,-0.945001602175,0.007999993861000004,-0.010500000789750004,-0.03600000217554999,3.978810043479028,0.27098200636427383,2.9874582406459433,1.6460292755254204,0.021935182945092828,0.03834364769354069
37,37,49.423587794899994,4942.5,1521541881.0,208417892.0,,2642583.0,1521541880.0,377166085.0,,0.7473634429095,-0.1115164215605,-0.00886897090525,0.97841288328,-0.1990363162535,0.0142670356445,-0.053747732713350004,-0.004011008998845,-0.0010840705018849992,0.0009332777769199998,0.0070647039056699985,0.0026924165619000013,0.0035221323233795,2.321349143985,0.0736305117607,1.886353850365,0.4901377707720001,1.323849439625,0.7963013052944999,1844091.0,1521541880.0,373633484.0,,,,,,2147003.5,1521541881.0,204129086.0,,0.5569999694825001,-0.921999974923,-3.41800079346,0.24899999052299998,-0.04700000025335,-0.033000001683800004,-74.0,-72.0,-69.0,-68.0,8.0,-238.0,-225.5,-211.5,-203.0,-190.0,-1.0,0.30999994277950005,-0.08999997377400004,0.4650001525850005,-0.006000004709000001,0.020999999716849998,0.02850000001489999,3.583721856374279,0.2555366811543888,2.9920585136873403,1.620773933016723,0.004258451532043719,0.008340537412000323
38,38,49.5261518974,4952.5,1521541881.0,308422922.5,,2642592.0,1521541880.0,467166783.0,,0.747152294141,-0.111626426355,-0.00863510074812,0.978443593425,-0.198957732462,0.014092472134200004,-0.0535290333157,-0.00894247466736,-0.0236416717105,-0.00864153944243,-0.0352662288296,0.0214371390449,-0.000715598497773,1.96243739128,-0.191783666611,2.16569805145,0.7313972711560001,1.2376344203899998,0.833608984947,2642946.0,1521541880.0,475264427.0,,,,,,2147013.5,1521541881.0,303955669.5,,0.3870000123975,0.017999992891999994,-4.372998809815,0.254999995232,-0.038999998942,-0.04050000011924999,-71.5,-68.0,-67.5,-66.0,45.0,-249.5,-225.5,-223.0,-203.0,-197.0,-1.0,-0.1699999570850001,0.939999967815,-0.9549980163550004,0.006000004709000001,0.008000001311350001,-0.0074999984354499815,4.390126604095055,0.26112496528569473,2.92885464636382,1.6618016929143207,0.026712781554501297,0.04127674778252402
39,39,49.628716,4963.5,1521541881.0,418430447.0,,2642603.0,1521541880.0,577167466.5,,0.7473762995395,-0.1124602313045,-0.00904915233879,0.9783825930995,-0.199280215659,0.014183432395549997,-0.0534201261476,0.005018863247355,-0.010408566279985002,0.00028372532374999976,-0.0038945284940949997,-0.009768563603005,-0.004217912979999999,2.26012790203,-0.11796605587005,1.918939590455,0.620227009058,1.3149409294149998,0.8216194212435,1844106.0,1521541880.0,584624137.5,,,,,,2147024.5,1521541881.0,414128885.0,,-0.7929999351510001,-0.4719999868425,-4.693000411989999,0.27799999713900003,-0.0489999987185,-0.048000000417250006,-69.0,-68.0,-66.5,-65.5,-38.0,-248.0,-228.0,-219.0,-207.0,-201.0,-1.0,-1.1799999475485,-0.4899999797345,-0.3200016021749992,0.023000001907000026,-0.0099999997765,-0.00750000029800002,4.782874214493531,0.2863372108611681,2.9672248441410143,1.6699729530684981,0.01155888144933707,0.011330621208218213
