,Unnamed: 0,.header.seq,.header.stamp.secs,.header.stamp.nsecs,.header.frame_id,.endpoint_state.header.seq,.endpoint_state.header.stamp.secs,.endpoint_state.header.stamp.nsecs,.endpoint_state.header.frame_id,.endpoint_state.pose.position.x,.endpoint_state.pose.position.y,.endpoint_state.pose.position.z,.endpoint_state.pose.orientation.x,.endpoint_state.pose.orientation.y,.endpoint_state.pose.orientation.z,.endpoint_state.pose.orientation.w,.endpoint_state.twist.linear.x,.endpoint_state.twist.linear.y,.endpoint_state.twist.linear.z,.endpoint_state.twist.angular.x,.endpoint_state.twist.angular.y,.endpoint_state.twist.angular.z,.endpoint_state.wrench.force.x,.endpoint_state.wrench.force.y,.endpoint_state.wrench.force.z,.endpoint_state.wrench.torque.x,.endpoint_state.wrench.torque.y,.endpoint_state.wrench.torque.z,.joint_state.header.seq,.joint_state.header.stamp.secs,.joint_state.header.stamp.nsecs,.joint_state.header.frame_id,.joint_state.name,.joint_state.position,.joint_state.velocity,.joint_state.effort,.wrench_stamped.header.seq,.wrench_stamped.header.stamp.secs,.wrench_stamped.header.stamp.nsecs,.wrench_stamped.header.frame_id,.wrench_stamped.wrench.force.x,.wrench_stamped.wrench.force.y,.wrench_stamped.wrench.force.z,.wrench_stamped.wrench.torque.x,.wrench_stamped.wrench.torque.y,.wrench_stamped.wrench.torque.z,.tactile_values.tactile_values_0,.tactile_values.tactile_values_1,.tactile_values.tactile_values_2,.tactile_values.tactile_values_3,.tactile_values.tactile_values_4,.tactile_values.tactile_values_5,.tactile_values.tactile_values_6,.tactile_values.tactile_values_7,.tactile_values.tactile_values_8,.tactile_values.tactile_values_9,.tag,.delta_wrench.force.x,.delta_wrench.force.y,.delta_wrench.force.z,.delta_wrench.torque.x,.delta_wrench.torque.y,.delta_wrench.torque.z
0,69.342279,6935.5,1521531699.0,741793394.0,,1624466.0,1521531699.0,206721529.5,,0.6658042919525,-0.34626280991850006,0.1373081711735,0.0012002895345569998,0.999921059374,0.001053963059136,-0.0124350186607,-0.045305930938849985,-0.18775009439800003,0.00197801897426,-0.004886150956225001,0.0508765247105,0.0072609997446499985,2.760110616685,-2.88627791405,15.989174365999999,1.4317477941499999,1.447539627555,0.5621457695959999,1624819.0,1521531699.0,204807992.0,,,,,,1129927.0,1521531699.0,734961631.0,,-0.0499999940395,2.41100001633,9.7930015564,-0.14000000059599998,-0.375,-0.06599999964240001,377.0,441.5,448.5,502.0,689.0,410.0,413.0,768.0,798.0,838.0,7.0,0.0,0.0,0.0,0.0,0.0,0.0
1,69.4448431026,6943.5,1521531699.0,820863008.0,,1624475.0,1521531699.0,296720253.5,,0.6612668411945001,-0.3620338813335,0.13780755393900002,0.0019190287112699999,0.999875220202,-0.00180569904911,-0.015553975346299998,-0.03712279319405,-0.19660000101,-0.00108547227192175,-0.1381482432075,0.039739193733550005,-0.003512721295850001,5.158359527589999,1.539446473125,14.08652877805,-0.19670377671735,2.048215985295,0.5449659228325,1133665.5,1521531699.0,292891061.0,,,,,,1129935.0,1521531699.0,814716067.0,,-0.15000001788150005,1.521000015735,9.6829990387,-0.10900000110255,-0.28200000524549995,-0.0440000016242,389.5,451.0,483.0,509.0,668.0,398.0,424.0,763.0,807.0,835.0,7.0,-0.10000002384200005,-0.890000000595,-0.11000251769999991,0.03099999949344999,0.09299999475450005,0.02199999801820001
2,69.5474072051,6952.5,1521531699.0,910889029.0,,1624483.0,1521531699.0,376722199.5,,0.658420766809,-0.375549623408,0.137618319278,0.0015866393484649998,0.9998364520084999,-0.005637836187255001,-0.01710965350905,-0.03900262366415,-0.16199588391300002,-0.002559047731305,-0.042697501871150005,0.039851950643050006,-0.0154477889353,3.817698717115,-0.5402410924440001,14.62548828125,1.5335631370550002,1.5149947404850002,0.62969148159,1133672.0,1521531699.0,383884807.0,,,,,,1129943.5,1521531699.0,901752056.0,,-0.11999998688685,-0.6689999818804999,10.90799942015,-0.00199999997858,-0.377000004053,-0.056499999016550013,387.0,445.5,461.5,502.0,700.0,402.5,413.0,770.0,813.0,821.5,7.0,0.030000030994650054,-2.1899999976155,1.2250003814500001,0.10700000112397,-0.09499999880750004,-0.012499997392350012
3,69.6499713077,6964.5,1521531700.0,30868410.5,,1624497.5,1521531699.0,521719459.0,,0.6547665064020001,-0.390259296944,0.138957366433,0.0050215278314000005,0.9998514000765,-0.0002995170221675,-0.0164850511881,-0.02045631595455,-0.09358120680774999,0.016014708741340002,0.0681491185337,-0.024146683459650004,-0.1088354500245,3.9900075197199993,2.4374840259550004,15.28257274625,-0.8213475048540001,1.731101214885,0.4507242292165,1624850.5,1521531699.0,519789303.5,,,,,,1129955.5,1521531700.0,21821994.0,,0.7999999701949999,0.33100001812,9.42300071716,-0.11749999970215,-0.370499998331,-0.061499999836099994,387.0,464.5,490.5,502.0,665.0,416.5,420.0,766.5,816.0,837.0,7.0,0.9199999570818499,1.0000000000005,-1.4849987029899996,-0.11549999972357,0.006500005721999991,-0.005000000819549981
4,69.7525354103,6974.5,1521531700.0,130897044.5,,1624507.5,1521531699.0,621716206.5,,0.653787230769,-0.4006546199095,0.14132066525999998,0.005999541513654999,0.999874906713,-0.001545515277835,-0.0145488779449,-0.01374923473551,-0.09297667876735,0.027209520549750003,-0.043396790433,-0.017425290508117003,0.030427250363849998,5.37294769287,2.1801674366,14.777609348299999,-0.314547106624,2.11204302311,0.4785937815905,1624860.5,1521531699.0,619792789.5,,,,,,1129966.5,1521531700.0,130771650.0,,1.5750000059600002,1.396000015735,9.462999725345,-0.0590000022203,-0.360500007868,-0.07099999859930001,379.0,429.0,447.5,504.0,673.0,417.0,429.5,765.5,821.0,838.5,7.0,0.7750000357650003,1.0649999976150002,0.03999900818499924,0.058499997481849995,0.009999990462999986,-0.009499998763200013
5,69.8550995128,6986.5,1521531700.0,250883459.5,,1624519.5,1521531699.0,741736151.0,,0.6533730985224999,-0.412123806409,0.144607942378,0.001138791048875,0.9999316711475,-0.0016888857042550002,-0.011503883470050002,-0.006172984871165001,-0.0928436264578,0.029226308284749997,0.09109638375630001,-0.07637099691095,0.059904752183550014,1.3040231466299999,-1.9549844265,15.398963928199999,1.606808006765,0.7253316640855,0.6663955152034999,642521.0,1521531699.0,737999872.0,,,,,,1129978.0,1521531700.0,245404946.0,,0.180000025034,-0.0589999675751,8.67299880981,-0.0799999982119,-0.365999996662,-0.08500000089410001,372.0,436.0,450.0,504.0,661.0,426.5,438.0,748.5,807.0,838.5,7.0,-1.3949999809260003,-1.4549999833101002,-0.7900009155349998,-0.020999995991599997,-0.005499988793999988,-0.014000002294800001
6,69.9576636154,6996.5,1521531700.0,350892901.0,,1624529.5,1521531699.0,841719605.0,,0.651134952006,-0.4237953441285,0.14684208475649999,-0.00029598005935,0.9999552586435001,0.00380891109495,-0.008636633552565,-0.03396107556805,-0.151438989859,0.010034278998615,0.09961862668275,-0.0462554288965,0.061104803827,2.813004016875,-1.894769549365,13.427617073099999,0.640350669622,1.5335311889649998,0.582153439522,642525.0,1521531699.0,839000064.0,,,,,,1129987.5,1521531700.0,341543991.0,,-0.4049999833105,1.165999996664,9.022999191285,-0.1805000007155,-0.4214999973775,-0.1034999974075,376.0,433.0,448.0,489.0,655.5,439.0,454.5,772.5,815.0,879.0,7.0,-0.5850000083445,1.2249999642391,0.35000038147500057,-0.10050000250359999,-0.055500000715499986,-0.018499996513399994
7,70.0602277179,7003.5,1521531700.0,421066045.5,,1624536.5,1521531699.0,911719969.0,,0.6476584503980001,-0.4358212762745,0.147944106962,-0.00388002670704,0.999950062563,0.004439500215585,-0.00803389797749,-0.0707509623791,-0.19284465860350003,0.008245731296065,-0.017230724735299997,0.0211591653824,0.15052642198799998,2.4850615263,-6.5485229492200006,16.222558975200002,2.231920957565,1.400082409385,0.6202296316625,1133709.0,1521531699.0,911899190.0,,,,,,1129995.0,1521531700.0,414880756.5,,0.5450000345705001,1.445999990403,8.923000717165001,-0.39999999105949996,-0.43250000476800005,-0.055999999865900006,407.0,421.0,490.0,497.5,628.0,415.5,422.0,786.0,832.0,882.5,7.0,0.9500000178810001,0.2799999937390001,-0.09999847411999951,-0.21949999034399997,-0.011000007390500055,0.047499997541599996
8,70.1627918205,7014.5,1521531700.0,530867576.0,,1624545.0,1521531699.0,996879438.0,,0.642462546897,-0.454351529951,0.149650084388,-0.00890469479607,0.999922747878,0.00073472435562,-0.008640883466139998,-0.0873038140811,-0.246695281409,0.0316101870047,-0.119675307234,0.0599520395548,0.0400930117456,-0.403637707233,-3.16942739487,15.7591638565,1.67241489887,0.125168710947,0.601626157761,1133715.5,1521531700.0,7966155.5,,,,,,1130006.0,1521531700.0,524858376.0,,1.679999905825,0.14100008010899998,9.93800010681,-0.032500000670550006,-0.3955000042915,-0.061499999836099994,374.5,426.0,484.5,493.5,652.5,420.0,424.0,782.0,825.5,848.0,7.0,1.1349998712544997,-1.3049999102940002,1.0149993896449985,0.36749999038895,0.03700000047650004,-0.005499999970199988
9,70.2653559231,7023.5,1521531700.0,621165036.5,,1624554.0,1521531700.0,86887549.0,,0.6349917034375,-0.475891479442,0.1520561170655,-0.0074021824718499985,0.999902877236,-0.004813167821675001,-0.0107509208067,-0.0742432083763,-0.247338122291,0.036457668577900004,-0.1139330815803,0.013423772595549999,-0.037132648250308514,4.236036181445,0.270030900836,14.855788707750001,0.4033496752385,1.759157299995,0.416704311967,1133721.0,1521531700.0,88976777.5,,,,,,1130015.5,1521531700.0,621081117.5,,0.8699999630449999,1.0010000050049999,9.66300048828,0.0230000000447,-0.353499993682,-0.115499999374,371.0,409.0,473.0,498.0,724.5,421.0,428.0,754.0,831.0,840.0,7.0,-0.80999994278,0.8599999248959999,-0.2749996185299999,0.055500000715250006,0.04200001060949998,-0.05399999953790001
10,70.3679200256,7034.5,1521531700.0,730902075.5,,1624565.0,1521531700.0,196891197.0,,0.6266764840169999,-0.502010867589,0.1554518702,-0.0020200441747,0.999929377414,-0.003704498887,-0.0111101887035,-0.0950872042679,-0.234689464526,0.0324488769239,0.06958741409130001,0.0374926195725,-0.0555433003166,3.2394971847500003,-1.30709207058,14.8360595703,0.95506387949,1.32449269295,0.469831943512,1133729.0,1521531700.0,204483669.0,,,,,,1130026.0,1521531700.0,725303814.0,,1.3100000798720002,0.5760000526925001,9.333000564575,-0.07250000233754,-0.3334999978545,-0.08749999850989999,386.5,447.5,472.5,509.0,683.0,418.5,420.5,747.0,832.0,851.0,7.0,0.44000011682700024,-0.42499995231249976,-0.32999992370499953,-0.09550000238224,0.019999995827500006,0.02800000086410001
11,70.4704841282,7047.5,1521531700.0,861191034.0,,1624578.0,1521531700.0,326881723.0,,0.6180623753555,-0.5314912447775,0.15988890729150002,0.003953483455255,0.9999398205345,0.0014375470288349999,-0.01009140637293,-0.0826795726496,-0.2481681709265,0.038005775264,0.017404367083600002,0.031841333964964996,-0.01995797706875,5.1737129688299985,-0.6006285995245,15.4946870804,0.28259896487,2.016803860665,0.5418329238890001,1133737.5,1521531700.0,329986770.0,,,,,,1130038.5,1521531700.0,852260530.5,,-0.04000001847750001,1.8009999871254998,9.272999191285,-0.2924999967215,-0.3910000026230001,-0.0685000009835,382.0,430.0,452.0,525.0,672.0,420.0,424.0,770.5,846.0,880.0,7.0,-1.3500000983495002,1.2249999344329998,-0.06000137328999955,-0.21999999438396,-0.05750000476850009,0.018999997526399998
12,70.5730482308,7054.5,1521531700.0,932770490.0,,1624585.0,1521531700.0,396878473.5,,0.6138724215610001,-0.550558802803,0.163047355157,0.00232586835754,0.9999474515145,-0.00015339055277474998,-0.00998090436968,-0.07411765528845,-0.299083434107,0.0378051777446,-0.0412873536895,0.0113674451196,0.035300905981505,3.22244977951,-2.33330988884,15.175697326649999,1.066777348519,1.2491421401525,0.5457620024684999,1133743.0,1521531700.0,405483756.5,,,,,,1130046.5,1521531700.0,932022640.0,,1.6950000107299998,0.9310000419615001,8.858000183105,-0.1195000000299,-0.2615000009535,-0.06350000202655001,383.5,416.5,445.5,520.5,634.0,412.5,422.5,770.5,829.5,864.5,7.0,1.7350000292074998,-0.8699999451639997,-0.4149990081800006,0.17299999669160002,0.1295000016695001,0.004999998956949983
13,70.6756123333,7068.5,1521531701.0,70923447.0,,1624601.5,1521531700.0,561880341.5,,0.6038583835410001,-0.6014313690549999,0.168874184978,-0.00186793506829,0.999973107108,-0.00204319418886,-0.006770763927045001,-0.06135312394435,-0.35469207164850003,0.03882163165595,-0.006746721471180001,-0.07496873007475,0.0974488234076,1.80841058493,-4.219493389129998,14.0738968849,1.826884269715,0.888377040626,0.622045814991,1133754.0,1521531700.0,560987184.0,,,,,,1130059.5,1521531701.0,62472755.0,,0.040000009536999996,0.8960000157330001,8.958000564575,-0.0784999988973,-0.349000006914,-0.09899999946365,378.0,423.5,447.0,512.5,656.0,399.0,419.5,762.5,834.5,868.0,7.0,-1.655000001193,-0.03500002622849996,0.10000038147000012,0.041000001132599995,-0.0875000059605,-0.03549999743709999
14,70.77817643590001,7076.5,1521531701.0,150992512.0,,1624609.5,1521531700.0,641876314.5,,0.5982714122465,-0.6275737414585,0.1699059223185,-0.0049057981976,0.999967378592,-0.00336030846725,-0.00546139617713,-0.1026756019745,-0.34808365030050004,0.00354546240091,-0.02602970454475,0.004758749338344999,0.008013183361975,0.8505816012604999,-2.6243184804900004,14.20414447785,1.4593243598949999,0.763163924217,0.4908292591575,642556.5,1521531700.0,634000000.0,,,,,,1130067.0,1521531701.0,137598342.0,,0.3499999672185,1.015999979527,9.64800109863,-0.04549999907615,-0.442000001669,-0.1064999997615,391.0,449.0,459.5,501.0,676.0,395.0,438.5,765.5,827.0,857.5,7.0,0.3099999576815,0.11999996379399991,0.6900005340550006,0.03299999982115,-0.09299999475499998,-0.007500000297850001
15,70.8807405385,7088.5,1521531701.0,271281003.5,,1624621.5,1521531700.0,761878871.0,,0.585246388204,-0.6647273784915,0.16903156226750002,-0.001888486413865,0.9999622233495,-0.0050091045613600005,-0.006836712464675,-0.1399533277935,-0.3095837310855,-0.009367628963774998,-0.0249943941247,0.05459975918825,-0.055387348770850005,1.624287962915,-1.1209830045705,15.2406377792,1.0853035450005,1.1936146020899998,0.504634797573,1133768.0,1521531700.0,761987134.5,,,,,,1130080.0,1521531701.0,267427679.0,,0.150000053644,0.420999991894,9.478001022335,-0.00150000001304,-0.493499994278,-0.08700000122189999,367.0,423.5,455.0,489.0,680.0,395.5,441.5,732.5,777.5,833.0,7.0,-0.19999991357450003,-0.5949999876330001,-0.17000007629500047,0.04399999906311,-0.05149999260900001,0.019499998539600008
16,70.983304641,7098.5,1521531701.0,375217437.5,,1624632.0,1521531700.0,866880881.0,,0.5701597393035001,-0.6860235570675001,0.16970469568149998,0.0026310856511849996,0.999928840705,0.00645631868406,-0.009556814225665,-0.1619457473295,-0.18544534053599998,0.0023216358262920004,0.236783605458,0.11073649049870002,0.0024887285894499983,4.95351541042,-4.38770377636,14.65889310835,0.971559464929,2.2986766695950003,0.5275224745275,1133775.0,1521531700.0,862970299.0,,,,,,1130090.0,1521531701.0,369367878.0,,0.010000023244999934,4.300999987125,9.458000564575,-0.5850000083444999,-0.4720000028615,-0.1140000000597,377.5,394.0,499.0,510.0,655.5,413.5,489.0,715.0,784.5,812.5,7.0,-0.14000003039900005,3.8799999952310005,-0.020000457760000145,-0.58350000833146,0.021499991416499997,-0.026999998837800007
17,71.0858687436,7108.5,1521531701.0,473170041.5,,1624640.5,1521531700.0,952190010.0,,0.5574295618745,-0.7034059246994999,0.16940598304450002,-0.0007982390177189999,0.999823190887,0.01291339435515,-0.0136416191544,-0.1592410164505,-0.22814772704599998,-0.013337826814169998,0.12232621892100001,0.0841358372215,0.08566268553914999,2.411064743995,-5.2119820117949995,14.9773039818,0.9133689701555,1.283936858175,0.4918703138830001,1624993.5,1521531700.0,950304322.0,,,,,,1130100.0,1521531701.0,467375172.5,,0.6800000250335001,5.876000094415,8.37799873352,-0.7039999961850001,-0.4729999899865001,-0.1085000000895,432.0,442.5,488.0,591.0,637.0,455.5,524.0,661.0,721.0,744.0,7.0,0.6700000017885002,1.5750001072899993,-1.0800018310550001,-0.11899998784050014,-0.0009999871250001013,0.005499999970199995
18,71.1884328462,7119.5,1521531701.0,581025004.0,,1624650.0,1521531701.0,47193533.0,,0.544010647333,-0.7231240823039999,0.167723462923,-0.0025760264645100003,0.999731814947,0.0142138506732,-0.0181005171204,-0.166087155324,-0.201755495295,-0.0326128231277,0.0384780163756,0.135713632294,-0.00094735320628,2.38178300858,-4.92302417755,16.0558834076,1.44790124893,0.7384856939319999,0.458861708641,642573.0,1521531701.0,52000000.0,,,,,,1130110.5,1521531701.0,573245328.5,,0.4699999868870001,4.131000059845,10.102999115,-0.3910000026225,-0.2759999930855,-0.12400000169849999,449.5,467.0,491.0,514.5,550.0,449.0,488.0,506.5,596.0,671.0,7.0,-0.21000003814649998,-1.7450000345699994,1.7250003814799992,0.3129999935625001,0.19699999690100012,-0.015500001608999989
19,71.2909969487,7126.5,1521531701.0,651019453.5,,1624657.0,1521531701.0,117188328.0,,0.534500452057,-0.7375959109010001,0.164651985419,-0.00186789420541,0.999694796942,0.0159206256652,-0.0187978088525,-0.131562001388,-0.224658697302,-0.0291385128507,-0.0071453413416,-0.0145858016775,0.0223394495973,3.2348356246900005,-7.480230808260001,15.8293018341,2.20987534523,0.940928459167,0.511881828308,1625010.0,1521531701.0,115295268.0,,,,,,1130117.5,1521531701.0,643053565.5,,0.464999961853,5.1710000515,8.558000946045,-0.459499999881,-0.1599999964235,-0.10900000110279999,433.5,454.0,561.5,576.0,587.0,431.5,465.0,483.0,535.0,658.0,7.0,-0.0050000250340001,1.0399999916549998,-1.544998168954999,-0.06849999725849998,0.115999996662,0.015000000595700003
20,71.3935610513,7140.5,1521531701.0,791208505.0,,1624671.0,1521531701.0,257189301.0,,0.5204339449409999,-0.764753148136,0.161506335592,-0.002010964902,0.999746807395,0.0149233050397,-0.016720409398700002,-0.0946132653977,-0.184282899961,-0.0281889156709,-0.00203626144765,-0.0341593147454,-0.0229243988605,2.15701580048,-7.39066028595,15.5308218002,2.45636224747,0.6455367207530001,0.593882977962,1133803.0,1521531701.0,265622415.0,,,,,,1130131.5,1521531701.0,782302343.5,,0.015000003576249997,2.7810000062,8.808000946045,-0.4790000021455,-0.3509999960665,-0.08999999985095,334.0,407.0,458.0,681.0,799.0,420.0,429.5,457.0,463.0,574.0,7.0,-0.44999995827675005,-2.3900000453,0.25,-0.019500002264499994,-0.19099999964300002,0.019000001251849988
21,71.4961251538,7146.5,1521531701.0,851506471.0,,1624677.0,1521531701.0,317189361.0,,0.51689101705,-0.7755432609440001,0.160156353877,0.00497917453868,0.999844722074,0.0114786537794,-0.0124088705984,-0.0714688059645,-0.18416020203,-0.0413227042339,-0.179097357678,-0.176766838821,-0.268595571587,-1.4026018381099998,2.1537759304,13.3443307877,-0.7057575583460001,-0.510752022266,0.492989838123,1133807.0,1521531701.0,320627728.5,,,,,,1130137.5,1521531701.0,844903190.0,,2.1950000107300003,2.945999997855,7.9879993438699985,-0.44649998843649996,-0.16550000384424998,-0.08500000089410001,338.5,368.0,442.5,712.0,843.0,383.5,405.0,429.0,469.5,533.0,7.0,2.18000000715375,0.1649999916549998,-0.8200016021750018,0.03250001370900002,0.18549999222225003,0.004999998956849994
22,71.59868925640001,7160.5,1521531701.0,992300987.0,,1624692.0,1521531701.0,467189429.0,,0.4984701073800001,-0.787033929488,0.15569696399900002,0.021621231674000003,0.999464947258,0.009632510734790002,-0.0225733533118,-0.0927861857618,-0.0614237462015,-0.0171192515937,-0.045720212122300014,0.16118640620400002,-0.0646292946339,4.33615446091,-0.299043655396,15.387247085599999,0.745316445827,1.4327675104100002,0.359277784824,1133817.0,1521531701.0,461144078.5,,,,,,1130152.5,1521531701.0,993339382.5,,1.6499999344350005,1.7359999895115,9.85300102233,-0.06949999928475001,-0.2970000058415,-0.08500000089410001,412.0,428.0,560.5,765.0,1020.5,374.5,399.5,450.5,542.0,557.0,7.0,-0.5450000762949998,-1.2100000083435,1.8650016784600014,0.3769999891517499,-0.13150000199725,0.0
23,71.70125335899999,7168.5,1521531702.0,71452021.0,,1624700.5,1521531701.0,552189680.0,,0.49413391489950004,-0.7874592455735001,0.1535615900815,0.02379793038495,0.999319806786,0.010898872554799998,-0.025972477566150003,-0.05464802973275,0.014131888522250002,-0.02387957262735,0.06784364275235,0.08653314655739999,-0.0402719734737,6.903804779050001,-2.8737423419950003,15.9855980873,1.8706228137,1.93826162815,0.37656886875650003,642593.0,1521531701.0,558000128.0,,,,,,1130160.0,1521531702.0,66519144.0,,1.02000005841,-0.239000034332,10.2829994202,0.105999998748,-0.217999994755,-0.0590000003576,412.5,434.0,495.0,734.5,949.0,393.5,454.5,540.5,548.5,560.0,7.0,-0.6299998760250005,-1.9750000238435,0.4299983978699995,0.17549999803275002,0.07900001108649998,0.026000000536500006
24,71.8038174615,7181.5,1521531702.0,200929522.0,,1624713.5,1521531701.0,682189704.0,,0.4946747658215,-0.7833713839775001,0.1526201455555,0.02235113187045,0.9992905382895,0.014463509269099999,-0.02663621788755,0.031512384341599996,0.04356098158725,-0.008002974310635,0.07004877985345,-0.0364357213749,0.026873850432349997,5.68115925789,-2.756776332855,15.351996421800001,1.682667911055,1.6464222669600002,0.47658243775349995,1133832.5,1521531701.0,682122283.0,,,,,,1130172.5,1521531702.0,192408500.0,,1.5550000250350002,1.146000015734,9.808000946045,-0.016499999910600003,-0.288499996066,-0.06350000202655001,345.0,470.0,489.0,649.0,981.0,440.0,475.0,502.5,580.0,672.0,7.0,0.5349999666250003,1.385000050066,-0.4749984741549991,-0.12249999865859999,-0.07050000131100001,-0.00450000166895001
25,71.9063815641,7190.5,1521531702.0,290903091.0,,1624723.0,1521531701.0,777190729.0,,0.499635195213,-0.778448715264,0.151484996412,0.019009865141,0.999371182145,0.016841876994,-0.0247430092057,0.0616264933689,0.059315251396,-0.0143740247735,0.0488695181057,-0.0468622465668,0.0985420635977,5.538230896,-2.85351204872,15.6159677505,1.5384538173700002,2.21708393097,0.475177794695,1133839.0,1521531701.0,778138727.5,,,,,,1130181.5,1521531702.0,281496813.0,,1.524999934435,0.7660000205040001,9.257999801635,-0.016999999992550002,-0.42499999702,-0.08350000157955001,333.0,466.0,479.0,604.5,1009.0,449.0,475.0,506.0,593.0,702.0,7.0,-0.030000090600000195,-0.37999999522999994,-0.5500011444100004,-0.0005000000819499993,-0.136500000954,-0.019999999552999997
26,72.0089456667,7201.5,1521531702.0,400907516.0,,1624734.0,1521531701.0,887192217.0,,0.504480047569,-0.774079259489,0.151079670234,0.0144399458656,0.999442299294,0.0163491595291,-0.0252840528497,0.0515152624828,0.0464819654691,-0.00156514024434,-0.00692746162765,0.0165915875962,0.122065455533,3.4903318882,-2.82212400436,15.528342247000001,1.7908213138599998,1.26605093479,0.55775642395,1625087.0,1521531701.0,885274139.0,,,,,,1130192.5,1521531702.0,395216082.0,,-0.7350000038740001,-0.22899992466,9.298000717165001,0.024000000208650004,-0.4759999960665,-0.0815000012517,318.0,471.5,497.0,574.5,1077.0,482.0,482.0,548.0,569.0,740.0,7.0,-2.259999938309,-0.994999945164,0.04000091553000118,0.04100000020120001,-0.05099999904649999,0.002000000327850013
27,72.1115097692,7209.5,1521531702.0,481042027.0,,1624739.0,1521531701.0,937572580.0,,0.5077250096379999,-0.771505803018,0.151150122063,0.0108764386787,0.999496680935,0.016275851359,-0.0249636644664,0.059846579682,0.0564677171474,-0.0008584709993869999,0.0032481308490300005,-0.0138083434349,0.140794421286,3.06257033348,-2.84048938751,15.7930622101,1.86743271351,1.21998071671,0.523815333843,1133850.5,1521531701.0,948867278.5,,,,,,1130200.5,1521531702.0,474138342.5,,-0.469999995828,0.16599999666195006,9.4030002594,0.0439999997616,-0.4820000082255,-0.08100000023845,310.0,484.5,506.0,551.5,1073.0,473.0,492.0,555.0,559.0,765.5,7.0,0.2650000080460001,0.39499992132195005,0.10499954223499941,0.01999999955295,-0.006000012158999979,0.0005000010132499982
28,72.2140738718,7222.5,1521531702.0,610891937.5,,1624751.5,1521531702.0,62572390.0,,0.514718254975,-0.7644654453040001,0.150943308462,0.003782992016575,0.9995414035905,0.0171902555169,-0.024629683869600003,0.06763158773975,0.06541782911470001,0.009523130373634999,0.013231304421250001,-0.019394263744330002,0.1412123195735,3.3012626171149995,-3.156462430955,15.6415729523,1.858888804915,1.14506477118,0.5708765387535,1625106.0,1521531702.0,75635116.0,,,,,,1130213.5,1521531702.0,603185530.0,,-0.7200000032775,1.1510000109649998,9.39800109863,-0.04350000061095,-0.40399999916550006,-0.06250000186265,298.0,449.0,517.0,528.0,1050.0,457.0,509.0,533.0,569.5,801.0,7.0,-0.2500000074495,0.9850000143030497,-0.004999160769999733,-0.08750000037255001,0.07800000905999993,0.018499998375799992
29,72.3166379744,7230.5,1521531702.0,691043495.5,,1624760.0,1521531702.0,147574703.0,,0.519291386187,-0.758996119717,0.150886999894,-0.0014377483606900002,0.999535128351,0.0189098992062,-0.023872071203900003,0.0471655189659,0.0675144354465,-0.00829246928475,0.0479095790534,-0.0201762461354,0.11638629002,1.20313084126,-3.52465319633,15.6690473557,2.0707581043200003,0.289546608925,0.587937533855,642617.0,1521531702.0,166000128.0,,,,,,1130221.5,1521531702.0,685301119.5,,0.06999998092650002,0.12100003957749995,9.438000106810001,0.010500000324085,-0.416000008583,-0.08599999919535,288.5,455.5,506.0,526.0,1044.5,455.0,528.0,530.0,584.0,814.5,7.0,0.7899999842040001,-1.0299999713874999,0.03999900818000057,0.054000000935035,-0.012000009417499957,-0.023499997332699987
30,72.41920207689999,7239.5,1521531702.0,781156420.5,,1624770.5,1521531702.0,252580900.5,,0.5239217362390001,-0.75426470979,0.151439548378,-0.004502589552649999,0.9995314884954999,0.0217248140229,-0.0210796745071,0.05481093761265,0.04867083791945,0.008218980036229999,0.0824482864602,-0.0930167292426,0.1216405589155,1.7518486380549998,-3.835872530935,15.82321596145,1.9910611510250005,0.6319749951364999,0.605200916529,1133872.0,1521531702.0,244813377.0,,,,,,1130231.0,1521531702.0,777376438.0,,0.889999943972,-0.479000043869,9.62299957275,-0.00400000018999,-0.416000008583,-0.0680000036955,317.0,419.0,496.0,527.0,1036.0,426.5,492.0,547.0,587.5,795.0,7.0,0.8199999630454999,-0.6000000834465,0.18499946593999894,-0.014500000514075,0.0,0.01799999549985
31,72.52176617949999,7252.5,1521531702.0,910896062.5,,1624783.0,1521531702.0,377580176.0,,0.52620490385,-0.75156022352,0.151945349972,-0.00329752630796,0.999514133725,0.025308429295900003,-0.017891512265400002,-0.0190300051932,0.0109691175604,-0.017279304652,0.0405456299626,0.0313488682017,-0.00261882994279,2.15425395966,-3.62913799286,15.4560203552,1.6104490756999998,1.03392469883,0.6069708466529999,1133881.5,1521531702.0,385315042.0,,,,,,1130243.5,1521531702.0,904678830.5,,0.644999998808,0.7760000109649999,8.22799911499,-0.131999999285,-0.48900000751,-0.10500000044715001,274.5,434.0,475.0,528.0,1034.5,466.0,495.0,544.0,599.0,804.5,-1.0,-0.24499994516400003,1.255000054834,-1.3950004577600001,-0.12799999909501,-0.07299999892699999,-0.03699999675165001
32,72.6243302821,7263.5,1521531703.0,20912885.0,,1624796.5,1521531702.0,512582620.0,,0.5249299844795001,-0.7544146924974999,0.15167620055499995,-0.00421810244093,0.99956530737,0.021720741261050003,-0.01948139513905,-0.013557259681150001,-0.0287489021488,-0.0011542218851769998,-0.07571663018285,0.04736525960705,0.0410082614714,1.491469085215,-3.2055175304400003,15.77619838715,1.86489379406,0.587937027216,0.604147851467,1625149.5,1521531702.0,510626609.5,,,,,,1130254.5,1521531703.0,15044284.0,,1.0400000393395,-0.7839999914155,9.79299964905,0.01549999974665,-0.446999996901,-0.08150000125170001,268.0,454.0,474.0,529.0,1046.0,412.5,470.5,572.5,624.5,800.0,-1.0,0.39500004053149995,-1.5600000023804999,1.5650005340599993,0.14749999903165,0.042000010608999994,0.023499999195449997
33,72.7268943846,7271.5,1521531703.0,100912451.0,,1624803.5,1521531702.0,582589163.5,,0.5226919904915,-0.756102678442,0.15163102015149998,-0.004608909066470001,0.9995492386865,0.01982626934305,-0.0220660305552,-0.02066946054515,-0.03568170097265,0.007168577068475001,-0.08292610376040001,0.03825290482665,0.00660654115108,2.058766007425,-2.875918745995,15.791013717650001,1.7894448041900004,0.65323972702,0.6347933113575001,1133895.5,1521531702.0,586352190.5,,,,,,1130262.5,1521531703.0,92819313.5,,0.8449999868875001,-0.1639999866485,9.048000717165001,0.0034999999916150003,-0.396500006318,-0.08900000154969999,266.0,445.0,469.0,532.5,1043.0,428.0,431.0,576.5,601.0,816.0,-1.0,-0.1950000524519998,0.620000004767,-0.7449989318849983,-0.011999999755034999,0.05049999058300003,-0.007500000297999979
34,72.8294584872,7281.5,1521531703.0,201004981.5,,1624814.5,1521531702.0,692582832.5,,0.5200423763775,-0.7587046911859999,0.15147203207850002,-0.0034858174628249997,0.9995473101225,0.018468991403550003,-0.0234861903365,-0.008113630167865,-0.027228085582750004,0.004363208476480999,-0.0175396000599,-0.02499840400575,-0.0401839848206,1.90995264053,-1.91207766533,15.462703227999999,1.617360949515,0.39732199907300003,0.586618959904,1625167.0,1521531702.0,685629222.0,,,,,,1130272.5,1521531703.0,196695407.5,,4.00500019193,-0.10900003910089999,10.438000106799999,0.06900000199675001,-0.3425000011925,-0.09049999713895003,296.0,435.0,462.0,550.5,1038.0,425.0,441.5,568.0,576.0,816.0,-1.0,3.1600002050424996,0.0549999475476,1.3899993896349976,0.065500002005135,0.05400000512549996,-0.0014999955892500416
35,72.9320225897,7293.5,1521531703.0,320868491.5,,1624826.5,1521531702.0,812599522.0,,0.5190253568200001,-0.7590904958410001,0.151689080138,-0.00224933175784,0.9995464692560001,0.019376754767,-0.02293834372665,-0.013583091979115,-0.0014403886338650005,-0.011950974243438505,0.038544733214300006,-0.005153955498504999,-0.040034476000600006,3.0559201240499996,-3.0524162054049997,15.795381069200001,1.844059586525,0.9284659028055,0.5947352051735,1133911.0,1521531702.0,802312595.0,,,,,,1130284.5,1521531703.0,315115978.5,,0.7149999916550001,-0.11400003433215,9.622999572755,-0.0019999999203700004,-0.3909999877215,-0.0869999974966,278.0,436.0,446.0,556.5,1029.0,411.0,514.0,563.0,606.0,768.0,-1.0,-3.2900002002749997,-0.004999995231250012,-0.815000534044998,-0.07100000191712001,-0.048499986529000005,0.003499999642350024
36,73.0345866923,7301.5,1521531703.0,400891542.0,,1624834.5,1521531702.0,892575521.5,,0.5179384207944999,-0.7596802094235,0.151163498419,-0.0014299587287549998,0.999531441164,0.01983709765065,-0.023266047304349998,-0.001732656372225,0.002450371516215,0.006148971629945,0.00262494227482,0.002498323289995,0.000600637673495,2.6619647741350003,-2.64442920685,15.717000484449999,1.6768621802349999,0.825480043888,0.6223812699315,642646.0,1521531702.0,888999936.0,,,,,,1130292.5,1521531703.0,394689576.5,,2.45000000596,2.346000011265,9.00299873352,-0.01750000007455,-0.4299999922515,-0.09299999848005,281.5,420.0,425.0,548.0,1043.0,393.0,517.0,537.0,628.0,771.0,-1.0,1.7350000143049997,2.46000004559715,-0.6200008392350007,-0.015500000154179999,-0.039000004529999965,-0.0060000009834499934
37,73.1371507949,7314.5,1521531703.0,530940532.0,,1624845.0,1521531702.5,497581366.5,,0.5187613808145,-0.7598687053305,0.15164120089000002,-0.0010166636438185,0.999560008225,0.019570898588400002,-0.0222620585474,0.010910979096099999,0.006641672493439999,0.01052898342815,0.005995295845169999,-0.015845306787435003,0.015272149747015,2.3654534816700004,-2.4760303497350002,15.599579811099998,1.7621390819549998,0.6885322034360001,0.5932090282439999,1625198.0,1521531702.0,995628771.0,,,,,,1130305.5,1521531703.0,525048538.0,,0.6700000345705001,-0.13899989128100002,9.472999954219999,0.019999999553,-0.39000000059600004,-0.06900000199675001,287.5,412.5,426.0,549.0,1031.0,470.0,482.5,582.0,613.5,703.0,-1.0,-1.7799999713894996,-2.4849999025460003,0.4700012206999986,0.037499999627550004,0.039999991655499945,0.023999996483299993
38,73.23971489739999,7322.5,1521531703.0,610903024.5,,1624853.5,1521531703.0,82577262.0,,0.5193673645815,-0.7584872248100001,0.15157964647400002,-0.00187940522402,0.9995423470315,0.0205023124737,-0.0221577705861,0.003921705689615,0.006731150400475,0.003647089287994,-0.002793623876985,-0.0051647239271499995,0.019875884714450003,2.392223358155,-2.817494511605,15.5907139778,1.73045694828,0.738636136055,0.6220186352729999,1625206.0,1521531703.0,75626270.0,,,,,,1130313.5,1521531703.0,604795656.0,,-0.01000001728550004,-2.039000105855,8.808000946045,-0.009499999927345,-0.387999996543,-0.02499999944125,300.0,399.0,463.0,554.5,994.5,463.0,484.5,606.5,649.0,660.0,-1.0,-0.6800000518560001,-1.900000214574,-0.6649990081749984,-0.029499999480345,0.0020000040530000485,0.044000002555500003
39,73.342279,7335.5,1521531703.0,740875601.5,,1624866.0,1521531703.0,207582569.0,,0.5195770678399999,-0.758050132442,0.151169241848,-0.00164332766112,0.999536104592,0.0209801386042,-0.0220161049313,0.00796137728997,-0.0004021406311190001,-0.00035134425040699995,-0.006138229842020001,-0.0124719605443,0.0176201606314,2.47163128853,-2.92452120781,15.7929039001,1.77868413925,0.806780695915,0.5950799584390001,1625219.0,1521531703.0,205629454.0,,,,,,1130326.5,1521531703.0,733600492.5,,1.275000053645,0.07100002765645,8.603001022335,-0.011999999638625,-0.409500002861,-0.05550000071525,299.0,380.5,415.0,551.0,1016.0,356.0,568.5,582.0,594.0,719.0,-1.0,1.2850000709304998,2.11000013351145,-0.20499992370999998,-0.0024999997112799995,-0.02150000631800003,-0.030500001274
