,Unnamed: 0,.header.seq,.header.stamp.secs,.header.stamp.nsecs,.header.frame_id,.endpoint_state.header.seq,.endpoint_state.header.stamp.secs,.endpoint_state.header.stamp.nsecs,.endpoint_state.header.frame_id,.endpoint_state.pose.position.x,.endpoint_state.pose.position.y,.endpoint_state.pose.position.z,.endpoint_state.pose.orientation.x,.endpoint_state.pose.orientation.y,.endpoint_state.pose.orientation.z,.endpoint_state.pose.orientation.w,.endpoint_state.twist.linear.x,.endpoint_state.twist.linear.y,.endpoint_state.twist.linear.z,.endpoint_state.twist.angular.x,.endpoint_state.twist.angular.y,.endpoint_state.twist.angular.z,.endpoint_state.wrench.force.x,.endpoint_state.wrench.force.y,.endpoint_state.wrench.force.z,.endpoint_state.wrench.torque.x,.endpoint_state.wrench.torque.y,.endpoint_state.wrench.torque.z,.joint_state.header.seq,.joint_state.header.stamp.secs,.joint_state.header.stamp.nsecs,.joint_state.header.frame_id,.joint_state.name,.joint_state.position,.joint_state.velocity,.joint_state.effort,.wrench_stamped.header.seq,.wrench_stamped.header.stamp.secs,.wrench_stamped.header.stamp.nsecs,.wrench_stamped.header.frame_id,.wrench_stamped.wrench.force.x,.wrench_stamped.wrench.force.y,.wrench_stamped.wrench.force.z,.wrench_stamped.wrench.torque.x,.wrench_stamped.wrench.torque.y,.wrench_stamped.wrench.torque.z,.tactile_values.tactile_values_0,.tactile_values.tactile_values_1,.tactile_values.tactile_values_2,.tactile_values.tactile_values_3,.tactile_values.tactile_values_4,.tactile_values.tactile_values_5,.tactile_values.tactile_values_6,.tactile_values.tactile_values_7,.tactile_values.tactile_values_8,.tactile_values.tactile_values_9,.tag,.delta_wrench.force.x,.delta_wrench.force.y,.delta_wrench.force.z,.delta_wrench.torque.x,.delta_wrench.torque.y,.delta_wrench.torque.z
0,48.418631,4842.5,1521541733.0,606513022.5,,2627825.5,1521541732.0,802197379.0,,0.821462538732,-0.244705971235,0.09582908493895,0.9987527916385,-0.029858588467599995,0.0041627990788150005,-0.03979787799165,-0.01302794223585,0.0028284994553000003,-0.07502910900109999,-0.00394726893505,0.04637382489345,-0.010691872555650002,3.390258789065,3.42057287693,5.068869590759999,-1.261987149715,1.63541328907,-2.113747119905,1833795.0,1521541732.0,802648920.0,,,,,,2132259.5,1521541733.0,600814924.5,,1.1789999246575,1.0790000148125,-0.6269992828374001,-0.10049999877795,-0.06600000150505,-0.0540000014007,243.0,253.5,259.0,299.0,324.0,-306.0,-274.5,-272.0,-263.5,-263.5,4.0,0.0,0.0,0.0,0.0,0.0,0.0
1,48.521195102600004,4851.5,1521541733.0,696647047.5,,2627834.5,1521541732.0,892196670.5,,0.821056653494,-0.245495959174,0.08942291934039999,0.9987016884485,-0.031651007130400005,0.00415024903724,-0.03969762047455,-0.01822141654595,-0.01361121097625,-0.0661215669409,0.008974668689594999,0.0336614042394,-0.05971499137675,3.9927133321800006,3.6724678278,6.502606391904999,-1.313573122025,1.919602155685,-2.081966400145,2628186.5,1521541732.0,880273572.5,,,,,,2132268.5,1521541733.0,692692812.0,,2.92899980545,0.468999998644,-0.10700073242199998,-0.09750000014900001,-0.06799999997020001,-0.0374999996275,240.5,243.0,248.5,306.0,320.0,-326.0,-272.0,-266.0,-266.0,-265.0,4.0,1.7499998807925001,-0.6100000161685001,0.5199985504154001,0.002999998628949993,-0.0019999984651500047,0.016500001773199997
2,48.6237592051,4859.5,1521541733.0,777224063.0,,2627842.5,1521541732.0,972195915.0,,0.8188967328575,-0.245604383387,0.08343222372100001,0.998627807045,-0.033769915379350014,0.0028473149116750003,-0.0399239713279,-0.040193081176949995,-0.011078963897125002,-0.07811944875145001,-0.013939726050591848,0.0562534182692,-0.048672918065600014,4.06320941448,4.635333538055,4.9055533409150005,-1.85599207878,2.142246127125,-2.08771419525,2628195.0,1521541732.0,965313132.0,,,,,,2132276.5,1521541733.0,772199444.5,,2.7489999771099995,1.614000011235,-0.477001571655,-0.0939999967813,-0.07400000095369999,-0.0620000008494,231.0,236.0,240.5,293.0,308.5,-316.5,-271.0,-271.0,-269.5,-265.5,4.0,-0.1799998283400006,1.1450000125909998,-0.37000083923300003,0.003500003367700011,-0.006000000983499981,-0.0245000012219
3,48.72632330770001,4872.5,1521541733.0,906883954.5,,2627855.5,1521541733.0,102200476.0,,0.8139063672675,-0.247096721814,0.07602001541175,0.9985705664845,-0.036089145868599994,-0.0014453406965799999,-0.03939746379415,-0.039117935878200005,-0.006760641384145003,-0.0641082719377,-0.0019179258566500003,0.06840571440465001,-0.03139041247925,3.046632528305,4.13927936554,6.24227285385,-1.6337929368000002,1.507784187795,-2.04393351078,2628208.5,1521541733.0,100304189.0,,,,,,2132289.5,1521541733.0,902757738.5,,2.409000062945,1.2739999778585,-1.11199989319,-0.09450000151995,-0.06499999761580001,-0.03000000026075,231.5,234.5,237.5,300.0,319.0,-325.0,-276.0,-274.0,-269.5,-265.0,4.0,-0.3399999141649994,-0.34000003337649987,-0.6349983215349999,-0.0005000047386500006,0.009000003337899978,0.032000000588650004
4,48.8288874103,4883.5,1521541734.0,17911910.5,,2627864.5,1521541733.0,191993269.5,,0.813003589038,-0.2475021336485,0.06976284233189999,0.9985237710510001,-0.03754689253685,-0.00155435025124,-0.039215309543300006,-0.0032041074877499983,-0.001893638858850001,-0.0794293319235,-0.01394372425449,-0.007250661695,-0.03552924918005,8.431168556214999,4.276057243345,2.7330493927,-1.45604944229,3.488401055335,-1.547690153125,1833821.5,1521541733.0,191533647.0,,,,,,2132300.5,1521541734.0,11392284.5,,2.844000005725,0.704000003636,-0.296999359131,-0.08650000020860002,-0.06599999964235001,-0.054999999702,242.0,245.0,254.5,298.0,324.0,-321.0,-283.5,-274.0,-270.0,-252.5,4.0,0.43499994277999976,-0.5699999742225,0.8150005340589999,0.00800000131134998,-0.0010000020265499981,-0.02499999944125
5,48.931451512799995,4891.5,1521541734.0,96878528.0,,2627872.0,1521541733.0,266974499.0,,0.8130335365800001,-0.246634148963,0.0649283942177,0.998459051521,-0.0386219473757,-0.00117924313329,-0.0398306038461,0.00941826004245,0.00106222255498,-0.0694715145771,0.00866896358456,-0.0341475566812,-0.06200366659350001,3.29935622215,3.95286345482,3.7972509861,-1.47809970379,1.51372659206,-1.68290197849,2628225.0,1521541733.0,265065233.0,,,,,,2132308.5,1521541734.0,92888107.0,,1.784000062945,1.3690000064649999,-1.1470016479499998,-0.08750000223519999,-0.06350000016395001,-0.06300000101325,235.5,250.5,262.0,300.0,328.0,-304.5,-276.5,-273.0,-271.0,-269.5,4.0,-1.05999994278,0.6650000028289998,-0.8500022888189998,-0.001000002026599972,0.002499999478400003,-0.008000001311249998
6,49.0340156154,4903.5,1521541734.0,216928005.0,,2627883.5,1521541733.0,381976097.5,,0.8146948401334999,-0.246447695328,0.0581967899761,0.9984453829934999,-0.0396215170253,0.002519255938545,-0.039120197328850005,0.007078185582004999,-0.014757095187314996,-0.0429698380019,-0.02765938482235,-0.056206627847800006,-0.03705455474135,4.0561060905450015,3.362060308455,5.851144075395,-1.0710259377975,2.28676259518,-1.5784611105950002,1833834.5,1521541733.0,383535181.0,,,,,,2132320.0,1521541734.0,206104367.5,,2.004000091555,1.5940000005050001,-0.4370006561275,-0.10799999907600001,-0.0540000014007,-0.0670000016689,232.0,245.0,247.0,304.0,316.0,-310.0,-278.0,-268.0,-268.0,-267.0,4.0,0.22000002861000012,0.22499999404000026,0.7100009918224999,-0.02049999684080002,0.009499998763250007,-0.004000000655649996
7,49.1365797179,4912.5,1521541734.0,307384967.5,,2627893.0,1521541733.0,476980036.0,,0.8101657866390001,-0.245153304246,0.053890104332300015,0.998411616183,-0.0402274574106,-0.0007760150089889999,-0.0394384855377,-0.0578461479732,0.0241101219509,-0.0534050090646,0.0012238267993800007,0.0975035704325,0.000460099172915,-0.109131813049,4.04729652405,4.12479496002,-1.42484974861,0.189219713211,-1.57750201225,2628245.0,1521541733.0,465070036.0,,,,,,2132329.5,1521541734.0,302420734.0,,2.27400007248,1.209000010045,-0.5470012664795,-0.09849999845030001,-0.0835000015795,-0.04099999926985,247.5,249.0,255.5,317.0,326.0,-328.5,-280.0,-280.0,-272.0,-265.0,4.0,0.26999998092499977,-0.3849999904600001,-0.11000061035199998,0.0095000006257,-0.029500000178799994,0.026000002399049996
8,49.239143820500004,4921.5,1521541734.0,396653532.5,,2627902.0,1521541733.0,566980559.0,,0.805352307121,-0.244210442926,0.0476719215225,0.998367609699,-0.041636892424,-0.0031876705265900004,-0.0389656752776,-0.0335282055747,0.014357198146200003,-0.0632002824602,-0.00999919171794,-0.010208331048,-0.0458094273725,-1.56190907955,3.67604923248,4.99124622345,-1.17524921894,-0.431519567966,-1.3007906675299998,1039441.0,1521541733.0,560999936.0,,,,,,2132338.5,1521541734.0,392516403.0,,3.73399987221,2.663999993355,0.03799972534195,-0.09350000321865,-0.07750000059605,-0.06600000336765001,245.5,253.0,261.5,313.5,327.5,-310.5,-279.0,-274.5,-271.0,-263.5,4.0,1.4599997997300003,1.45499998331,0.5850009918214499,0.004999995231650012,0.0060000009834499934,-0.02500000409780001
9,49.3417079231,4935.5,1521541734.0,536777496.0,,2627916.5,1521541733.0,711995125.0,,0.795593940809,-0.24086604676650006,0.036274643410150006,0.9983017944125,-0.042902015604049985,-0.009445323632905,-0.03824556302315,-0.05838622278505001,0.02114512868105,-0.07668498036765001,-0.012215626018075,0.06909921866780001,-0.0006983856945999982,-0.01664024591499991,3.12811422348,5.6152997016900015,-1.0398741364495,0.112161040306,-0.965849846602,1833858.0,1521541733.0,710029830.0,,,,,,2132352.5,1521541734.0,532981407.0,,2.759000205995,1.8589999862,-0.10700073242199998,-0.08550000190735,-0.07899999991060001,-0.07950000092385001,234.0,241.5,250.0,285.5,323.0,-302.5,-278.0,-269.5,-262.5,-259.5,4.0,-0.974999666215,-0.8050000071550001,-0.14500045776394999,0.008000001311299992,-0.001499999314550013,-0.013499997556200002
10,49.44427202560001,4945.5,1521541734.0,638182401.0,,2627928.5,1521541733.0,831974922.0,,0.7898526356235,-0.236081675872,0.02835645187765,0.998194364211,-0.043008087769150015,-0.01261986586795,-0.03998712410185,-0.025188357533650004,0.0472865335727,-0.0616389734176,0.029949010105034996,0.0035610644979349976,0.011337789301799996,3.0739634037,2.401124238965,5.722308158875,-0.6639271378514999,1.1437218785299998,-0.631929516792,2628280.0,1521541733.0,815061563.0,,,,,,2132362.5,1521541734.0,633617073.5,,3.50400009155,2.8139999695099998,-1.1969989776625,-0.09650000184775,-0.07200000062584999,-0.06949999928475001,251.5,254.0,259.5,299.0,332.0,-317.0,-280.5,-276.0,-266.5,-265.5,4.0,0.744999885555,0.9549999833099998,-1.0899982452405002,-0.01099999994039999,0.006999999284750022,0.010000001639100004
11,49.5468361282,4955.5,1521541734.0,737069964.0,,2627938.5,1521541733.0,931984924.5,,0.7908142501665001,-0.232328147583,0.0246129361584,0.998178393834,-0.042819822117449995,-0.0095691422823,-0.041407375373300005,0.0311186910978,0.055398657815950006,-0.035537901707050006,0.03188365793335,-0.112658642172,0.017365945584449996,0.468516469001,2.0112795829750003,4.862139463425,-0.47760976851,0.04959300160399999,-0.6297118365765,2628290.0,1521541733.0,915068291.0,,,,,,2132372.5,1521541734.0,733541653.5,,2.6239999771100004,0.6839999891830001,-1.011999511721,-0.09649999812245,-0.0599999986589,-0.023500000126650003,227.0,231.0,255.0,288.5,317.0,-319.0,-280.0,-263.5,-261.0,-255.0,4.0,-0.8800001144399996,-2.1299999803269998,0.18499946594150019,3.725299999035592e-09,0.012000001966949989,0.045999999158100005
12,49.6494002308,4962.5,1521541734.0,812093019.0,,2627946.0,1521541733.5,506978328.5,,0.7931196191855,-0.23052857891550002,0.0218085207912,0.9981276091105,-0.04382907912634999,-0.004985706823305,-0.04236954818925,0.030475186442749998,0.031283706598200005,-0.03024148633935,0.0237202848032,-0.12488238177355003,-0.024714401698295,-1.1607824564,1.239494621755,3.798654913905,-0.042245574295499994,-0.528786927464,-0.1265907734635,1833878.5,1521541733.5,506033488.0,,,,,,2132380.0,1521541734.0,809851760.5,,3.153999948505,0.5139999873925,-0.017000579833999996,-0.0964999981226,-0.07100000232459999,-0.031499999575299996,229.5,235.0,244.0,291.0,321.0,-323.0,-281.5,-272.5,-262.0,-258.5,4.0,0.5299999713949997,-0.17000000179050012,0.9949989318869998,-1.5000500841466646e-13,-0.01100000366569999,-0.007999999448649993
13,49.7519643333,4976.5,1521541734.0,946521043.0,,2627959.0,1521541734.0,136979178.0,,0.7942754555930001,-0.229494276549,0.0187874901206,0.998147076586,-0.04405892197269999,-0.00108062350822,-0.041953035043800005,-0.0159406463159,0.0244359132329,-0.0250175644473,0.00150895449253,-0.00585763064998,0.015917734444600002,-5.69331073761,0.293060213327,6.56321001053,0.522305905819,-2.24673080444,0.0277801528573,1833888.0,1521541734.0,131548585.0,,,,,,2132393.0,1521541734.0,940574337.0,,3.47399988174,0.408999998122,0.138000106812,-0.0839999988675,-0.0879999995232,-0.0680000036955,234.0,234.0,244.0,293.0,323.0,-319.0,-273.5,-270.0,-268.0,-258.0,4.0,0.3199999332350001,-0.10499998927049997,0.155000686646,0.012499999255100008,-0.016999997198600014,-0.0365000041202
14,49.8545284359,4986.5,1521541735.0,46530484.5,,2627966.0,1521541734.0,207466767.0,,0.7924055170219999,-0.229365935765,0.0154276317375,0.998087129053,-0.045482086055300006,-0.0014084088098800002,-0.0418506756407,-0.0113641828161,-0.00984775911076,-0.0374298017834,-0.0212574984915,-0.0280015991984,-0.0391382368412,-6.400782585140001,0.950933039188,5.697168350219999,0.12722808122600002,-2.62201452255,-0.037129256874300014,1833893.5,1521541734.0,217287067.5,,,,,,2132403.5,1521541735.0,42883751.5,,3.508999967575,0.04399999603635002,-0.397001647949,-0.10249999910610001,-0.07100000046194999,-0.016000000294290002,221.0,225.0,260.0,293.0,299.0,-302.0,-277.0,-262.0,-260.0,-258.0,4.0,0.035000085834999695,-0.36500000208565,-0.535001754761,-0.018500000238600017,0.01699999906125002,0.05200000340120999
15,49.95709253850001,4993.5,1521541735.0,116524934.0,,2627974.0,1521541734.0,287465731.0,,0.79089826613,-0.228561008289,0.0101473549215,0.998157049633,-0.042895285581,-9.28759035396e-05,-0.0429242369358,-0.0235602132655,0.00438878778693,-0.0865706494967,0.00876539112719,-0.0371475961357,0.0478979986315,-2.8550579547900004,0.263887405396,3.7007124424,0.7234316468240001,-1.26111841202,0.27883207798,1833898.0,1521541734.0,277259199.5,,,,,,2132410.5,1521541735.0,113805169.0,,2.324000024795,0.6389999967065,-2.62200012207,-0.08499999716880001,-0.0580000001937,-0.0265000006184,220.5,223.0,230.0,273.0,293.0,-310.0,-274.0,-268.5,-267.0,-263.0,4.0,-1.1849999427799998,0.5950000006701499,-2.224998474121,0.017500001937300003,0.013000000268249982,-0.010500000324109998
16,50.059656641000004,5005.5,1521541735.0,236520051.5,,2627986.0,1521541734.0,407465142.0,,0.7874897675429999,-0.22893260822,-0.000188095691397,0.998143638809,-0.042806418800099985,0.000666253251819,-0.0433179284105,-0.0254788925072,-0.0168861519483,-0.0759495860613,-0.0268360995791,-0.0256326802195,0.00128512458752,0.565083146095,0.356230735779,4.0420217514,0.339951217175,0.210379213095,0.297046303749,2628339.0,1521541734.0,405572164.0,,,,,,2132422.5,1521541735.0,233008064.5,,2.419000053405,0.8490000106375001,-1.92700042725,-0.07700000330805,-0.05450000055134999,-0.0760000012815,219.0,226.5,226.5,276.0,290.0,-306.5,-272.5,-266.0,-262.5,-253.5,4.0,0.0950000286099999,0.2100000139310001,0.6949996948200001,0.00799999386075001,0.00349999964235001,-0.0495000006631
17,50.162220743599995,5014.5,1521541735.0,326688408.0,,2627995.0,1521541734.0,497465497.0,,0.7855857775789999,-0.228664381068,-0.00473546506409,0.998165802903,-0.0426273183945,0.000972155476692,-0.0429766978124,-0.0259191137255,0.0106286805861,-0.0308037975406,0.00562461882892,0.00561106186705,-0.0228358540752,-2.2518522739400004,0.395624607801,3.84838819504,0.503573417664,-0.900462448597,0.26036262512200004,1833912.5,1521541734.0,498799256.0,,,,,,2132431.5,1521541735.0,324684030.5,,4.24399986267,0.8939999975265001,-3.2520011901849997,-0.008000000379999999,0.025499999523150005,-0.000999999698250001,218.0,224.0,227.0,278.5,284.0,-314.5,-265.0,-264.0,-262.0,-255.0,4.0,1.824999809265,0.04499998688899998,-1.3250007629349996,0.06900000292805,0.0800000000745,0.07500000158325
18,50.2647848462,5027.5,1521541735.0,456521510.5,,2628007.0,1521541734.0,617461539.0,,0.7877171533385001,-0.22946765051600002,-0.005314210639534999,0.9981274177975,-0.0425214158679,0.004890011412905,-0.043697626389300005,0.031238628929150008,0.0016442727468999989,-0.0006702326658799997,0.0122147529645,-0.08873776186559999,0.043399654460749996,-4.50110352039,0.6521724462509999,3.973027586935,0.508983448148,-1.8002649545700002,0.15940868854499998,1833922.0,1521541734.0,623275348.5,,,,,,2132444.5,1521541735.0,454135326.5,,1.9340001583099997,1.623999971895,-3.492000961305,-0.0679999999702,-0.051499998196949996,-0.09050000086425,192.5,201.5,224.0,265.0,266.0,-302.0,-269.5,-265.5,-256.0,-244.5,4.0,-2.30999970436,0.7299999743685,-0.23999977112000037,-0.0599999995902,-0.0769999977201,-0.089500001166
19,50.3673489487,5037.5,1521541735.0,556522011.0,,2628020.5,1521541734.0,752468091.0,,0.7888537507485001,-0.2301928118835,-0.006392108825185001,0.9981381240015,-0.04235776962619999,0.006730936345435,-0.043361360656000006,-0.0011052189689750003,-0.007934219556765,-0.016947143220499998,-0.002755551231865,-0.007018881382000002,-0.024078159438775,-0.11642253398900004,1.1688169240950002,1.2659219205405,0.29150794446499995,-0.04211991280299998,0.3541509509085,2628373.0,1521541734.0,745528887.0,,,,,,2132454.5,1521541735.0,553050384.5,,1.12899997234,0.9539999924595,-5.361999893189999,0.001000000047495,-0.004500000039115,-0.037499999627449994,200.0,207.0,216.5,249.5,251.0,-307.0,-264.0,-263.0,-261.5,-255.5,4.0,-0.8050001859699998,-0.6699999794355,-1.8699989318849992,0.06900000001769499,0.046999998157834996,0.05300000123680001
20,50.469913051300004,5047.5,1521541735.0,656533479.0,,2628029.5,1521541734.0,842466030.5,,0.7898705942394999,-0.2288025922145,-0.006199139399844999,0.9981162691725,-0.04177584805444999,0.00686704344544,-0.044400652292449994,0.033643462994550004,-0.0015693247267200006,0.0034353650153299995,-0.01729324944274,-0.0625568878625,0.0033489405137000013,-0.03698271512999996,1.112944841385,0.13448572158649996,0.0337351001799,-0.21110749244699994,0.206093929708,2628382.5,1521541734.0,840535099.0,,,,,,2132464.5,1521541735.0,653947912.5,,1.3039999246549998,0.559000004083,-4.851999664305,0.013500000117344998,-0.08449999988105,-0.0449999999255,203.5,210.0,216.0,250.0,264.5,-309.5,-270.5,-269.5,-259.0,-254.5,4.0,0.17499995231499987,-0.39499998837649997,0.5100002288849996,0.012500000069849998,-0.07999999984193501,-0.007500000298050008
21,50.5724771538,5055.5,1521541735.0,737505077.5,,2628037.5,1521541734.0,922471143.5,,0.7915143578149999,-0.228398374597,-0.005726624248445,0.9979774551845001,-0.04465953260819999,0.008942295384794999,-0.0443423869,0.008460770430324999,0.018360480159780004,0.011260592722675,0.020570963756278995,0.0016063169043999974,-0.1513311877895,-0.171503841877,1.0038661062699998,2.15519070625,0.18104112148274998,-0.0059606879949999905,0.0689067803324,1039494.5,1521541734.0,920499968.0,,,,,,2132472.5,1521541735.0,733749649.5,,3.033999824525,1.80399997905,-4.242000961305,-0.0210000006482,-0.0685000009835,-0.082000002265,204.0,208.5,219.0,260.5,265.5,-291.0,-273.0,-265.0,-253.0,-245.0,4.0,1.7299998998700001,1.244999974967,0.6099987029999996,-0.034500000765545,0.015999998897550008,-0.037000002339499995
22,50.6750412564,5067.5,1521541735.0,856767534.5,,2628050.0,1521541735.0,47464397.5,,0.7900377778255001,-0.22787116100049998,-0.0059914817726899995,0.9978559935879999,-0.0470627127492,0.0070397235210749995,-0.04493086477735,0.018119880037825,0.0032073323361099994,-0.00019298455406499941,0.0171491935405,-0.04422794330895,-0.025770160657700002,0.6539709568025001,0.991300493481,2.0020849704750003,0.0550331491977,0.18966353312125,0.1548175439235,2628402.0,1521541735.0,35538819.0,,,,,,2132484.0,1521541735.0,848026963.0,,2.66399993896,-0.350999992341,-5.292000198359999,0.0209999997169,-0.0579999983311,-0.0209999997169,214.0,221.5,223.0,277.0,281.5,-306.5,-271.0,-260.5,-255.0,-250.5,4.0,-0.36999988556499996,-2.154999971391,-1.0499992370549993,0.0420000003651,0.010500002652399996,0.061000002548099994
23,50.777605359,5076.5,1521541735.0,947064041.5,,2628059.0,1521541735.0,137459830.0,,0.790967345613,-0.227375514643,-0.005863206264850001,0.99784304991,-0.0470071286926,0.008271551100699999,-0.045068381828800005,0.0186005217101,-0.0086666207041,0.00469436609028,-0.0106805091469,-0.041458683737400005,-0.003599645062280001,0.708263456821,0.858539283276,2.37333393097,0.176843896508,0.35006761550899995,0.189662948251,2628411.0,1521541735.0,125542435.0,,,,,,2132493.5,1521541735.0,944594342.0,,1.849000000955,0.768999982625,-6.411999130245,-0.02149999979885,-0.0130000002682,-0.0604999996722,214.0,217.0,225.0,265.0,277.0,-295.0,-270.0,-261.5,-254.5,-248.0,4.0,-0.8149999380049999,1.119999974966,-1.119998931885001,-0.042499999515749995,0.0449999980629,-0.0394999999553
24,50.880169461499996,5089.5,1521541736.0,76510906.0,,2628069.0,1521541735.0,237474701.0,,0.790326498039,-0.226977501124,-0.00550842329694,0.997831327271,-0.046853508118400014,0.007319935913090002,-0.0456487637555,-0.00533999902106,-0.0107408641078,-0.00192334200161,-0.0201593813121,0.011291095496,-0.00423964388577,0.474029064178,1.14249134064,2.13604736328,-0.0782003328204,0.18121547997,0.11823002249000003,1833965.0,1521541735.0,236772409.0,,,,,,2132506.5,1521541736.0,74614213.5,,2.4639998912800003,0.7939999885860001,-3.992000961305,-0.0265000006184,-0.01599999982865,-0.0579999983311,198.0,201.0,213.0,253.0,278.5,-290.0,-267.0,-266.0,-252.0,-241.0,4.0,0.6149998903250002,0.02500000596100005,2.4199981689400003,-0.005000000819550002,-0.0029999995604500004,0.002500001341100004
25,50.9827335641,5096.5,1521541736.0,146522998.5,,2628076.0,1521541735.0,307474431.0,,0.7904029931100001,-0.226720681939,-0.005898387461129999,0.997818797932,-0.0469197774537,0.007501525610279999,-0.0458247541222,0.0100646676171,-0.0031748044719,0.004134257299550001,-0.0049849220047,-0.0229305702561,0.0105025839612,0.447985351086,0.985070705414,2.30819582939,0.0431339032948,0.242446675897,0.154085174203,1833969.5,1521541735.0,314277042.5,,,,,,2132513.5,1521541736.0,143802313.5,,2.044000053405,1.16899998859,-3.7269996643049996,-0.046000000089449995,-0.030999999493350007,-0.06599999777975,203.0,215.0,224.5,249.5,262.0,-304.0,-272.0,-270.5,-261.0,-250.5,4.0,-0.4199998378750003,0.3750000000039999,0.2650012970000004,-0.019499999471049995,-0.014999999664700007,-0.007999999448650007
26,51.0852976667,5109.5,1521541736.0,276561498.0,,2628089.0,1521541735.0,437474565.0,,0.789852052983,-0.227285875173,-0.00629556674916,0.997844881292,-0.046800443710400014,0.0069131309332,-0.045469989759300014,-0.00980762765841,0.0213712980488,-0.011421185708700002,0.0128533918141,0.0270607620171,0.0243215127386,0.233098179102,1.03670215607,2.39134407043,0.0167073719203,0.144535526633,0.166142404079,1833979.0,1521541735.0,438266227.0,,,,,,2132526.0,1521541736.0,268382291.0,,3.29400005341,-0.0210000090301,-3.9920009613,-0.0320000015199,-0.019999999553,-0.0460000000894,192.0,205.5,216.5,254.0,256.0,-313.5,-275.0,-267.5,-266.5,-251.0,4.0,1.250000000005,-1.1899999976201,-0.2650012969950004,0.013999998569549997,0.010999999940350006,0.019999997690350005
27,51.1878617692,5119.5,1521541736.0,376809596.5,,2628099.0,1521541735.0,537489022.5,,0.790697243934,-0.227214080638,-0.00539592449275,0.9978314053035,-0.04695786755334999,0.007761405275915,-0.045465546060849994,0.010313038497505,-0.0021970416584100004,0.004570837222709999,-0.0008727877599249995,-0.01836130829434,0.0035222657181550004,-0.14551185257750002,0.956520408392,2.3816617727250002,0.0630755610764,-0.0200264798477,0.150637663901,2628452.0,1521541735.0,535565350.0,,,,,,2132536.5,1521541736.0,374276973.5,,3.2090000152599996,-0.7260000519454999,-4.167000198365002,-0.03150000050665,-0.02049999963495,-0.012500000651940001,199.5,204.0,209.0,254.0,259.0,-320.5,-275.0,-267.0,-262.5,-256.0,4.0,-0.08500003815000046,-0.7050000429153999,-0.17499923706500153,0.0005000010132499982,-0.0005000000819499993,0.03349999943746
28,51.290425871800004,5130.5,1521541736.0,486753463.5,,2628111.0,1521541735.0,657509741.0,,0.790463015881,-0.227125177962,-0.00600806140484,0.997845019454,-0.0467056397636,0.00752224059921,-0.0454677496841,-0.0014417254664400002,0.0108104650886,-0.00437319361018,0.00636458126174,0.0050488495452600006,0.019859844677,0.254102766514,1.12108778954,2.2551958560900003,-0.0365253165364,0.126941636205,0.156883880496,2628464.0,1521541735.0,655535995.0,,,,,,2132547.0,1521541736.0,480016520.0,,2.11400022507,1.14900000766,-5.5820011138900005,-0.0179999992251,-0.008000000379979999,-0.0410000011325,193.0,212.0,221.0,242.5,252.0,-304.0,-274.0,-270.5,-253.0,-250.0,4.0,-1.0949997901899997,1.8750000596054999,-1.415000915524999,0.01350000128155,0.012499999254970001,-0.02850000048056
29,51.392989974399995,5138.5,1521541736.0,566602468.0,,2628121.5,1521541735.0,762474215.5,,0.7906944117815,-0.228155131954,-0.005732943154300001,0.9978760574484999,-0.0467153493815,0.007912792203085,-0.04470280192290001,0.002603323961805,0.013503359868294998,0.0032791668039785,0.00902672420215,-0.004913594377154999,0.01329641255715,-0.034623324870900016,0.9109194278720001,2.307683706285,0.1671806126835,0.035751134157199986,0.21449306607250002,2628473.0,1521541735.0,745542139.0,,,,,,2132555.0,1521541736.0,558178321.0,,2.688999795915,1.823999959975,-3.8169998168949997,-0.03900000080465,-0.020999999716900003,-0.06350000202655001,202.0,210.0,213.5,254.5,264.5,-309.5,-273.0,-268.0,-254.5,-249.0,4.0,0.5749995708450002,0.6749999523150001,1.7650012969950009,-0.02100000157955,-0.012999999336920004,-0.022500000894050014
30,51.49555407689999,5147.5,1521541736.0,656664967.0,,2628130.5,1521541735.0,852496876.5,,0.790351719642,-0.2274827647495,-0.00591604188216,0.9978730036935,-0.04653983483025,0.007547985570795001,-0.04501313553375,0.00540098121563,-0.001498241168349998,-0.0005485045857899998,-0.01154039859341,-0.011421447903504998,-0.003361710553525,-0.3199936300515,0.8416637778285001,2.297275424005,0.1933991983535,-0.1181502789261,0.2352857366205,2628482.0,1521541735.0,835548159.0,,,,,,2132564.0,1521541736.0,650132978.0,,2.6940001487700003,1.12900002673,-4.25199928284,-0.0309999994934,-0.014999999664700003,-0.0419999994338,207.0,208.0,223.0,262.5,266.0,-307.0,-277.0,-268.0,-254.5,-252.0,-1.0,0.005000352855000223,-0.6949999332450001,-0.4349994659450003,0.008000001311249998,0.0060000000522,0.021500002592750013
31,51.5981181795,5159.5,1521541736.0,776509523.0,,2628141.5,1521541735.0,962484223.0,,0.7902738820515001,-0.228216350307,-0.005902790397329999,0.9978599232574998,-0.046942993826800006,0.007581431406999998,-0.04488063204715001,-0.01862700056285,-0.003681438050065,-0.0073366479526099995,0.02363548240485,0.030180051369349998,-0.025330019616149998,-2.1614882946,0.9646718502035,3.966530561445,0.1486956551675,-0.797133773565,0.18570163846050003,2628494.5,1521541735.0,960572228.0,,,,,,2132576.5,1521541736.0,774637779.0,,1.95900001526,-0.02599998936055,-3.2120002746600003,-0.03399999905375,-0.0195000004023,-0.0604999996722,192.0,195.0,207.0,233.5,271.5,-313.5,-273.0,-271.5,-254.0,-252.5,-1.0,-0.7350001335100003,-1.15500001609055,1.0399990081799997,-0.0029999995603499988,-0.0045000007375999955,-0.018500000238400004
32,51.7006822821,5169.5,1521541736.0,876567005.5,,2628152.0,1521541736.0,67488113.5,,0.790302487183,-0.22686689179500005,-0.00530559126027,0.9978745312795,-0.0460160876469,0.007648445901069999,-0.04550008546325,0.00032008297490400005,0.009396040133245001,-0.0040364874754599996,0.003728627129925,-0.00208751053101,0.0117155503082725,-0.6537165343760001,0.827951788902,3.544795870785,0.16020639426995,-0.2459953576325,0.2328960224985,2628505.0,1521541736.0,65573953.5,,,,,,2132586.0,1521541736.0,871245080.0,,0.7289999961845,0.1889999993145,-2.6320003509500003,-0.058999998495,-0.03500000014905,-0.08650000020859999,188.0,194.5,211.5,252.0,257.0,-318.5,-275.0,-270.0,-252.0,-238.0,-1.0,-1.2300000190755,0.21499998867505002,0.57999992371,-0.024999999441249997,-0.015499999746749999,-0.02600000053639999
33,51.8032463846,5177.5,1521541736.0,956534027.5,,2628160.5,1521541736.0,152480643.0,,0.7901320708070001,-0.2274397765115,-0.005656522949104999,0.9978661917795,-0.0462877560244,0.00752125205962,-0.0454281865258,0.00717556284597,-0.01034428752517,0.0065483057547400005,-0.015296886083650003,-0.01710941096465,0.0052098252135300005,-1.28221440315,0.8448393940929999,3.6932446956650002,0.15759561955909998,-0.457535490394,0.22278212755899998,1834028.5,1521541736.0,146279087.0,,,,,,2132594.5,1521541736.0,954757342.0,,2.4240000486400004,1.9839999862,-2.9620002746600003,-0.051999999210249996,-0.033000001683800004,-0.0700000021607,201.5,208.5,221.0,247.0,252.0,-309.5,-269.0,-257.0,-254.5,-250.5,-1.0,1.6950000524555004,1.7949999868855,-0.32999992371,0.006999999284750001,0.001999998465249994,0.01649999804789999
34,51.9058104872,5191.5,1521541737.0,96518516.5,,2628172.5,1521541736.0,271991292.0,,0.7898922278845,-0.2273608881835,-0.005453436287954999,0.997855214501,-0.0465388549598,0.007240819142150002,-0.04546017009775,-0.007762966307890502,-0.0038988920147799994,-0.006528555655159999,-0.0037525156491749977,0.018230051623215,-5.32681087599999e-05,-0.905200481415,0.786096125841,3.5996509790400006,0.236856773496,-0.351348057389,0.2558174282315,2628525.5,1521541736.0,270067124.0,,,,,,2132608.0,1521541737.0,89354060.0,,3.0940002441400005,1.57899995521,-2.31200065613,-0.0590000003576,-0.0379999987781,-0.0590000003576,203.0,205.5,237.0,252.0,262.0,-315.5,-271.0,-266.0,-257.0,-253.0,-1.0,0.6700001955000001,-0.4050000309899999,0.6499996185300003,-0.007000001147350006,-0.0049999970942999974,0.011000001803099999
35,52.008374589700004,5198.5,1521541737.0,166628002.5,,2628179.0,1521541736.0,336999317.0,,0.7900588718160001,-0.227024632031,-0.005415672015120001,0.9978617424845,-0.046157193869850004,0.007412487460415,-0.045677233042850006,-0.003587439311635001,-0.0023984990022850004,-0.00703251790154,-0.00376531435351,0.008999453662975,-0.007716265855082002,-1.7100889682749998,0.769569426775,3.657444000245,0.1712629795075,-0.6277529299260001,0.203492358327,1834041.0,1521541736.0,332028017.5,,,,,,2132615.5,1521541737.0,164751604.5,,1.1790000438700001,1.7440000064649999,-2.39700164795,-0.07100000232455,-0.049499999731800005,-0.09400000050664999,205.5,212.5,219.5,247.5,266.5,-288.0,-272.5,-271.0,-264.0,-260.0,-1.0,-1.9150002002700004,0.16500005125499984,-0.08500099181999987,-0.012000001966950002,-0.011500000953700004,-0.035000000149049984
36,52.110938692299996,5212.5,1521541737.0,306529998.0,,2628193.0,1521541736.0,476992619.0,,0.7904387799485,-0.2277221656435,-0.005406796511364999,0.9979539850885,-0.044278959331200005,0.008005816798645001,-0.04542063661735,0.009604659079155002,-0.0009051534017600008,0.006814036038444999,-0.008428950711275002,-0.021055023590890003,0.004526174428314999,-1.381812989715,0.684543937445,3.57336139679,0.2022544667125,-0.4934009164575,0.23818556219300002,2628546.0,1521541736.0,475072031.0,,,,,,2132629.5,1521541737.0,305703482.0,,2.6039999961849998,1.334000010041,-2.827000045775,-0.06000000052155,-0.03900000080465,-0.07500000111760001,203.0,210.0,220.5,247.0,265.0,-309.0,-270.5,-269.5,-262.0,-246.0,-1.0,1.4249999523149997,-0.40999999642399976,-0.4299983978250004,0.011000001803000002,0.010499998927150006,0.018999999389049976
37,52.213502794899995,5219.5,1521541737.0,376572966.0,,2628200.0,1521541736.0,546993436.0,,0.790185628446,-0.227733487006,-0.00559317517995,0.997951032588,-0.044403121546,0.00772217180214,-0.045414396564300005,-0.0018968173425,-0.0064456602008500005,-0.00262663200219,-0.00527371064233,0.0014916896717,-0.019873803373,-1.29060077667,0.673433244228,3.66721105576,0.16798402369000004,-0.463259339333,0.22873441875,1834056.0,1521541736.0,542539444.0,,,,,,2132636.5,1521541737.0,375146162.5,,2.92899980545,0.9390000049034999,-3.052000427245,-0.051500000059599996,-0.030500001274050007,-0.07200000062584999,204.5,208.0,210.0,242.0,262.0,-298.5,-269.5,-268.0,-260.0,-252.0,-1.0,0.3249998092650004,-0.3950000051375002,-0.22500038146999968,0.008500000461950007,0.008499999530599992,0.0030000004917500184
38,52.3160668974,5230.5,1521541737.0,486750006.0,,2628211.0,1521541736.0,656996226.5,,0.790111944966,-0.22737792142450006,-0.005626976781939999,0.9979889728129999,-0.0437351377592,0.007661892088255,-0.04523686148765001,0.0017255338310450002,0.002870065399744999,-0.00308637926415,0.0002172867903500004,-0.0012070669423000016,0.007677724001085,-1.3648998737349998,0.8754404187205,3.63506948948,0.07490704953645501,-0.48841947317100004,0.214061714709,1834063.5,1521541736.0,648040175.0,,,,,,2132647.0,1521541737.0,480543477.0,,1.09400000572,1.14900000766,-3.32199897766,-0.0489999987185,-0.0270000007004,-0.0560000017285,200.5,202.5,210.0,249.5,261.0,-313.5,-273.0,-273.0,-260.0,-245.0,-1.0,-1.8349997997300003,0.2100000027565001,-0.269998550415,0.002500001341099997,0.0035000005736500056,0.015999998897349994
39,52.418631,5240.5,1521541737.0,586671471.0,,2628220.0,1521541736.0,746996114.0,,0.790373043364,-0.227627192937,-0.00555080831597,0.997948749107,-0.0444232510405,0.007965534676869999,-0.0454028543236,-0.00498286663179,0.000671882467368,-0.0014222411226199993,0.006372746414870001,0.00446871550599,-0.00577736906671,-1.5860491991,0.817162156105,3.60931563377,0.152414098382,-0.578646481037,0.225466892123,2628574.0,1521541736.0,755106017.0,,,,,,2132657.5,1521541737.0,585109071.5,,2.64900007248,0.6589999981225001,-3.0319999694849997,-0.049999998882449985,-0.0309999994934,-0.060499999672149994,202.5,207.0,236.0,258.5,261.0,-311.5,-269.5,-266.0,-262.0,-248.0,-1.0,1.55500006676,-0.4900000095374999,0.28999900817500013,-0.0010000001639499864,-0.003999998793,-0.004499997943649997
