,Unnamed: 0,.header.seq,.header.stamp.secs,.header.stamp.nsecs,.header.frame_id,.endpoint_state.header.seq,.endpoint_state.header.stamp.secs,.endpoint_state.header.stamp.nsecs,.endpoint_state.header.frame_id,.endpoint_state.pose.position.x,.endpoint_state.pose.position.y,.endpoint_state.pose.position.z,.endpoint_state.pose.orientation.x,.endpoint_state.pose.orientation.y,.endpoint_state.pose.orientation.z,.endpoint_state.pose.orientation.w,.endpoint_state.twist.linear.x,.endpoint_state.twist.linear.y,.endpoint_state.twist.linear.z,.endpoint_state.twist.angular.x,.endpoint_state.twist.angular.y,.endpoint_state.twist.angular.z,.endpoint_state.wrench.force.x,.endpoint_state.wrench.force.y,.endpoint_state.wrench.force.z,.endpoint_state.wrench.torque.x,.endpoint_state.wrench.torque.y,.endpoint_state.wrench.torque.z,.joint_state.header.seq,.joint_state.header.stamp.secs,.joint_state.header.stamp.nsecs,.joint_state.header.frame_id,.joint_state.name,.joint_state.position,.joint_state.velocity,.joint_state.effort,.wrench_stamped.header.seq,.wrench_stamped.header.stamp.secs,.wrench_stamped.header.stamp.nsecs,.wrench_stamped.header.frame_id,.wrench_stamped.wrench.force.x,.wrench_stamped.wrench.force.y,.wrench_stamped.wrench.force.z,.wrench_stamped.wrench.torque.x,.wrench_stamped.wrench.torque.y,.wrench_stamped.wrench.torque.z,.tactile_values.tactile_values_0,.tactile_values.tactile_values_1,.tactile_values.tactile_values_2,.tactile_values.tactile_values_3,.tactile_values.tactile_values_4,.tactile_values.tactile_values_5,.tactile_values.tactile_values_6,.tactile_values.tactile_values_7,.tactile_values.tactile_values_8,.tactile_values.tactile_values_9,.tag,.delta_wrench.force.x,.delta_wrench.force.y,.delta_wrench.force.z,.delta_wrench.torque.x,.delta_wrench.torque.y,.delta_wrench.torque.z
0,43.979144,4392.5,1521541064.0,176137924.0,,2560884.5,1521541063.0,392448179.5,,0.68621162494,-0.109986046329,0.08070354465635,0.050216099832650005,0.99845072955,-0.02346554527295,0.004852962763965,-0.06519596249199999,-0.0422916990448,-0.0324066540929,-0.050846988222799996,0.1108870406054,-0.00879337034858,1.96178519726,-0.6020235717294999,6.4723341465,0.993742316963,1.070093750952,0.31999915838250004,2561236.0,1521541063.0,375539456.0,,,,,,2065385.5,1521541064.0,173144659.0,,-2.67600004673,-1.5780000045899998,-1.132999801635,-0.08299999684095001,-0.0515000000596,-0.0219999998808,3.0,6.0,8.5,11.0,21.5,81.5,86.0,87.5,92.5,101.0,4.0,0.0,0.0,0.0,0.0,0.0,0.0
1,44.081708102600004,4407.5,1521541064.0,325661063.0,,2560899.5,1521541063.0,542444317.0,,0.6813401058499999,-0.1130641062675,0.0775775238941,0.05270759843105,0.9983079688680001,-0.0245447549145,0.0005615669452255,0.005327105185955001,-0.005375790303045,-0.00242587107721,0.029071860447400004,-0.034582013960949995,-0.120263735149,1.4854872226750002,-1.064215481283,7.73804807663,1.28769093752,0.5710608661175,0.307750105858,1787092.0,1521541063.0,532269775.5,,,,,,2065400.5,1521541064.0,323436686.0,,-0.761000084877,-0.7580000042915,-0.18800010681175,-0.0704999994487,-0.10199999809265,-0.05550000071525,-10.5,-9.0,-4.0,1.5,10.5,72.5,78.5,83.0,84.5,112.0,4.0,1.914999961853,0.8200000002984997,0.94499969482325,0.012499997392250009,-0.05049999803304999,-0.03350000083445
2,44.1842722051,4414.5,1521541064.0,396655559.0,,2560905.0,1521541063.0,597462724.0,,0.682997069105,-0.112392603863,0.0775065696021,0.0559120042059,0.998162118657,-0.0232445612605,0.0024337289488,0.033007418201200005,0.00605643841787,-0.00368975127599,0.0523074951311,-0.0791436759692,-0.146027529085,0.85804772377,2.4568362236000003,7.961180686950001,-0.510046601295,0.474980533123,0.161330625415,1787095.5,1521541063.0,582245652.0,,,,,,2065407.0,1521541064.0,387207711.0,,-1.88600008488,-1.52799998522,-1.7979988098099997,-0.0640000030398,-0.0729999989271,-0.054999999702,-9.0,-7.0,-7.0,0.0,18.0,75.0,80.0,82.5,88.0,109.0,4.0,-1.125000000003,-0.7699999809284999,-1.6099987029982497,0.006499996408900005,0.02899999916554999,0.0005000010132499982
3,44.28683630770001,4424.5,1521541064.0,495662450.0,,2560913.0,1521541063.0,677448253.5,,0.6881496942134999,-0.110649248561,0.07768206154860001,0.0584558398285,0.9980521797165001,-0.0202142692898,0.008078737910875001,0.0553515825442,0.036096258253550007,-0.0071885928605850006,0.07601434733019999,-0.1385053311545,-0.01729070369455,4.81356716156,5.1955380439750005,2.2883496284450002,-1.602833628655,1.955210149285,-0.010634742677200002,1787103.5,1521541063.0,692768304.5,,,,,,2065417.5,1521541064.0,493088185.0,,-1.11600010395,-1.88799998462,-0.997999572754,-0.056000000797199995,-0.0675000008196,-0.04399999976155001,-7.0,-5.5,-3.0,-1.0,1.5,69.5,74.5,80.0,84.0,91.0,4.0,0.76999998093,-0.35999999940000005,0.7999992370559997,0.008000002242600002,0.005499998107500001,0.010999999940449992
4,44.3894004103,4435.5,1521541064.0,605758547.0,,2560924.0,1521541063.0,787439508.0,,0.6919472568389999,-0.108941031825,0.0769780206421,0.0588572948972,0.998036301849,-0.0180171068473,0.0116078804773,0.00208782548431,0.00323245443843,-0.0319096491824,0.00425732486444,-0.00380311843661,0.0168023885385,2.1753807067900004,2.5561923980700003,3.81528925896,-0.922101616859,0.917104959488,-0.0191512480378,2561278.0,1521541063.0,795547835.0,,,,,,2065428.5,1521541064.0,602809499.0,,-0.7259999990465,-0.777999985218,-0.8130001068124999,-0.06450000032780001,-0.10999999940414999,-0.0384999997914,-7.5,-4.5,-1.0,1.5,7.0,41.5,42.0,44.0,48.0,52.5,4.0,0.3900001049035,1.109999999402,0.18499946594150007,-0.008499999530600016,-0.04249999858454999,0.005499999970150007
5,44.491964512799996,4447.5,1521541064.0,727560519.5,,2560937.0,1521541063.0,917445163.0,,0.689831203619,-0.108148498498,0.07117111037150001,0.0584077747548,0.9980749122055,-0.0184716603529,0.009676822742085,-0.0046243770414499995,0.0040080904137450015,-0.047077517483750005,0.01146515004099,-0.006548398667399999,-0.04911619177735,1.6441560387600003,1.604999661445,3.4796680212,-0.555770114064,0.5313596427439999,0.0033014137298000013,2561290.0,1521541063.0,915553116.0,,,,,,2065440.5,1521541064.0,723299123.0,,-2.896000015735,-3.20299999714,-1.81300010681,-0.06000000238415,-0.07249999791385,-0.01100000040604,-6.0,-0.5,4.0,9.0,16.0,17.0,20.0,23.5,27.0,38.0,4.0,-2.1700000166885,-2.425000011922,-0.9999999999975,0.004499997943650011,0.037500001490299986,0.02749999938536
6,44.5945286154,4458.5,1521541064.0,835859536.5,,2560947.5,1521541064.0,22445817.0,,0.6920278355080001,-0.1053696336715,0.06555834195665,0.05873346537705001,0.998088022392,-0.01480693045735,0.01229296576405,0.03322403602435,0.0270821789943,-0.0526543470753,0.0608011522385,-0.07212519809935,0.0031343196002369994,0.433057881892,1.355908334255,4.658917427064999,-0.48218522965949995,0.216436713934,0.06822675280275001,2561301.0,1521541064.0,25505215.0,,,,,,2065451.5,1521541064.0,832424301.5,,0.17399985790249994,-0.5379999756820499,-2.058000946045,-0.09349999949340003,-0.08449999988080001,-0.0539999995381,-14.5,-13.5,-9.5,-7.0,2.5,-95.0,-90.5,-87.5,-83.0,-77.5,4.0,3.0699998736375,2.66500002145795,-0.24500083923500005,-0.03349999710925003,-0.012000001966950002,-0.04299999913206
7,44.6970927179,4465.5,1521541064.0,905746936.5,,2560954.5,1521541064.0,92445470.5,,0.6942706680915,-0.10403483929,0.061438637233800004,0.058079972621900004,0.9981240052595,-0.01287277184635,0.01446806787225,0.0194195174588,0.028766293643400002,-0.0655593633891,0.042450009659450005,-0.042230135398399996,0.052680221865849995,0.9790813326819999,0.8670541346075,3.1263177394849997,-0.293885529041,0.46935120225,0.0772035345435,1787131.0,1521541064.0,89251640.0,,,,,,2065458.5,1521541064.0,903952765.0,,-0.41100006103500003,-2.6630000054850003,-1.042999649045,-0.07050000131129999,-0.109500002116,-0.037499999627449994,-15.5,-13.0,-12.5,-8.0,-1.0,-114.5,-112.0,-106.5,-103.5,-101.5,4.0,-0.5849999189374999,-2.1250000298029503,1.015001297,0.022999998182100037,-0.025000002235199992,0.016499999910650008
8,44.799656820500005,4477.5,1521541065.0,25625586.0,,2560969.5,1521541064.0,242446435.0,,0.6916659759215,-0.1075814260615,0.04934747277805,0.057277876899449985,0.9981878671234999,-0.016686668315649997,0.00785354753027,-0.0164105751115,-0.0478412027861,-0.09116306478849999,-0.09605954352375001,0.117129708101,0.007395667817949998,6.284049272540001,1.0148531496505,1.4613159894949999,-0.12350304052244998,2.44939088821,0.16399497538799998,2561321.5,1521541064.0,230549601.5,,,,,,2065470.5,1521541065.0,23110891.5,,-1.636000084875,-1.357999998335,-1.3130001068135,-0.054000001400699986,-0.1469999998805,-0.0760000012815,-1.5,-1.0,4.0,6.0,14.0,-114.5,-111.0,-110.5,-108.0,-92.0,4.0,-1.22500002384,1.3050000071500003,-0.2700004577685,0.016499999910600006,-0.0374999977645,-0.03850000165405001
9,44.9022209231,4485.5,1521541065.0,105686544.5,,2560977.5,1521541064.0,322441255.5,,0.6893610289595,-0.109211713121,0.040689166072950006,0.056915655403,0.9982046381649999,-0.0183696448033,0.0032582039976150005,-0.03575414252025,0.0028300711507600004,-0.1168222124355,0.019090931912650003,0.10962011919000002,-0.007372567635220001,2.7574031352999997,1.0004667043675,3.645972132685,0.0047094654292000005,1.12737798691,0.2107882499695,2561330.0,1521541064.0,315585548.0,,,,,,2065478.0,1521541065.0,97535760.0,,0.7240000486370001,-0.8080000162119999,-0.258001708984,-0.06499999761580001,-0.032999999821200006,-0.0520000010729,1.5,3.0,3.0,7.0,24.0,-105.0,-103.5,-100.0,-94.5,-88.0,4.0,2.360000133512,0.549999982123,1.0549983978295,-0.010999996215100026,0.1140000000593,0.0240000002086
10,45.00478502560001,4499.5,1521541065.0,245897531.0,,2560991.5,1521541064.0,462444875.0,,0.6904192806964999,-0.11094588277550001,0.0281127066696,0.05828644636205,0.9981572338685,-0.01666863211445,0.0026322801463549996,0.023001463070099995,-0.027797709673200003,-0.07007035594870001,-0.0048874671089,-0.022940538546000002,-0.007145811395420002,0.177194610238,1.673252999785,8.342318534850001,-0.7233752310275,-0.008509472012499991,0.020555154886120003,1012970.5,1521541064.0,463499904.0,,,,,,2065492.5,1521541065.0,243585519.0,,-1.500999975205,-2.582999981195,-1.63300170898,-0.07499999925494999,-0.110500000417,-0.044500000774849995,-7.0,-5.5,-3.5,-1.5,2.0,-92.5,-87.0,-82.5,-80.0,-79.0,4.0,-2.225000023842,-1.774999964983,-1.374999999996,-0.010000001639149977,-0.0775000005958,0.007500000298050008
11,45.1073491282,4509.5,1521541065.0,345848559.5,,2561001.5,1521541064.0,562446371.5,,0.6934138355495,-0.1124767503475,0.0226813712158,0.05899080257540001,0.9981104591525,-0.01675997239175,0.00382853263354,0.031378202989849995,-0.0304524762375,-0.0518621478506,-0.02255383633595,-0.00044033012319999806,-0.05654484530315001,2.24530607462,1.3668180704100001,5.130308628085,-0.2980942800645,0.970757484435,0.16587484628,2561354.5,1521541064.0,560539086.5,,,,,,2065502.5,1521541065.0,344075546.5,,0.03900010585800001,-2.5629999909550003,-1.007999801637,-0.043500000610949996,-0.115499999374,-0.05849999934435,-15.5,-13.0,-11.5,-10.5,-3.5,9.5,13.0,15.0,25.5,35.5,4.0,1.5400000810630001,0.019999990239999654,0.625001907343,0.031499998643999993,-0.004999998956999999,-0.013999998569500002
12,45.2099132308,4517.5,1521541065.0,425698995.5,,2561007.0,1521541064.0,617443631.0,,0.6949343030015,-0.1135071257535,0.020828810961650002,0.05959007832065,0.9980697850779999,-0.0170795495915,0.003698403416895,0.020379754738150003,-0.008922563349175,-0.04648435447265,-0.0010763845299650004,0.0298619695168,-0.02810143322399,2.7606395483,1.9212530851400003,4.567079305649999,-0.6775465905670001,1.089468836785,0.10094841942185001,1787168.5,1521541064.0,617768900.5,,,,,,2065510.5,1521541065.0,423512370.5,,-1.21100013256,-2.65300000012,-1.0030006408695,-0.0630000010133,-0.127499997616,-0.036500001326199995,-15.5,-14.5,-10.0,-4.5,-1.0,88.0,90.0,94.0,102.0,120.5,4.0,-1.250000238418,-0.09000000916499973,0.004999160767499955,-0.019500000402350004,-0.011999998242000001,0.021999998018150002
13,45.3124773333,4530.5,1521541065.0,555714011.0,,2561020.0,1521541064.0,747443320.0,,0.69947054118,-0.116160723136,0.016539425607799998,0.06275965262630001,0.997867323718,-0.0178797140566,0.00153169323892,0.0434298504239,-0.0227869613583,-0.025640000435900003,-0.011933162790299998,0.0460261457357,0.00180829977828,3.1847434043900003,1.94428324699,4.49117851257,-0.630842030048,1.23361301422,0.14215734601,1787177.5,1521541064.0,753266883.5,,,,,,2065523.0,1521541065.0,548225590.0,,0.104000163078,-2.8879999995200003,-1.46800079346,-0.0439999997616,-0.105999998748,-0.0340000018477,-13.5,-7.5,-6.0,-4.5,11.5,120.5,123.0,127.5,135.0,162.5,4.0,1.315000295638,-0.23499999940000027,-0.46500015259049987,0.019000001251699997,0.02149999886800001,0.0024999994784999924
14,45.4150414359,4540.5,1521541065.0,655910491.5,,2561030.0,1521541064.0,847444797.0,,0.7063364757610001,-0.117052519913,0.0131778583439,0.05980513417550001,0.998049967476,-0.017706510264,0.00246735528229,0.0903265552865,-0.00438788646204,-0.0516428274555,0.0282658409355,-0.0624340493255,0.044501420589,5.34854745865,2.24638128281,3.67658400536,-0.7383883595469999,1.98664772511,0.154524877667,1787184.5,1521541064.0,853765317.0,,,,,,2065533.5,1521541065.0,654563035.0,,-1.6960000276600002,-3.312999981645,-2.76800003052,-0.095499999821,-0.0439999997616,-0.0399999991059,-17.0,-13.5,-12.0,-5.0,34.0,-28.5,-22.5,-19.0,-15.5,-12.0,4.0,-1.8000001907380003,-0.4249999821249997,-1.2999992370600002,-0.0515000000594,0.06199999898639999,-0.005999997258199996
15,45.51760553850001,4547.5,1521541065.0,726758479.5,,2561037.0,1521541064.0,917451180.0,,0.7141041936820001,-0.118406535997,0.0104779150216,0.0604629650402,0.998013739339,-0.0163494052661,0.00674558351221,0.131960617161,-0.0014690522594900002,-0.0301295854695,0.0450436369739,-0.194881579269,0.00187349363605,3.64156460762,1.9925569295900003,4.543690681459999,-0.619706392288,1.41064882278,0.17661958932900002,2561390.0,1521541064.0,915514672.0,,,,,,2065540.5,1521541065.0,723863572.0,,-1.6109999895099998,-1.85799999833,-1.083000564576,-0.06400000117719999,-0.06900000199675001,-0.0379999987781,-12.0,-11.5,-7.5,-5.5,-1.0,-47.0,-47.0,-40.0,-31.0,-31.0,4.0,0.08500003815000046,1.454999983315,1.6849994659440002,0.031499998643800015,-0.025000002235150004,0.0020000003277999973
16,45.620169641000004,4559.5,1521541065.0,850083947.0,,2561049.0,1521541065.0,37436853.0,,0.7211909177979999,-0.118979054968,0.007201958080770001,0.06198250852390001,0.997920185577,-0.0148565252754,0.00963096632746,0.0112128897869,0.000888902188959,-0.0197325141228,-0.0144919690796,0.0281142086797,0.00293334774814,2.99411010742,1.85557389259,4.69918966293,-0.482601732016,1.45240485668,0.252261728048,2561402.0,1521541065.0,35502458.0,,,,,,2065552.5,1521541065.0,844607795.0,,-0.07599990367904999,-3.41299997568,-0.612999343872,-0.03900000080465,-0.1445000022645,-0.036999998614199996,0.0,2.0,7.0,8.0,15.0,-66.0,-65.0,-61.0,-60.0,-58.0,4.0,1.5350000858309498,-1.55499997735,0.47000122070399997,0.025000000372549992,-0.07550000026774999,0.0010000001639000056
17,45.722733743599996,4567.5,1521541065.0,925874114.0,,2561059.0,1521541065.0,137442634.5,,0.7219248180855,-0.12027082535700001,0.003053790242335,0.06213448753555,0.9979050655030001,-0.01610164523375,0.008076417244355,0.0025265550688,-0.010150761987889998,-0.056811941084699995,-0.0376237055849,0.0351862672440735,0.023087687010135,5.043066501615,2.1863847971,2.9225223064400003,-0.7865477204319999,1.990444421765,0.1859657242895,2561412.0,1521541065.0,135539677.5,,,,,,2065560.5,1521541065.0,924039945.5,,-0.42600004673005,-2.697999987005,-1.408001327516,-0.0414999993518,-0.102500002831,-0.047000000253300006,3.0,5.5,8.5,13.5,24.5,-76.0,-71.0,-69.0,-62.0,-46.5,4.0,-0.350000143051,0.7149999886749998,-0.795001983644,-0.002499998547150002,0.041999999433499996,-0.01000000163910001
18,45.8252978462,4579.5,1521541066.0,47287463.5,,2561071.5,1521541065.0,262443640.0,,0.721748625572,-0.12549240028449998,-0.0007688806966785,0.058893446497,0.997937470156,-0.024987879763700004,0.00527873638154,0.02563528480805,-0.01792377790605,-0.0234865509264,-0.07310908516464999,-0.07759631257845001,0.06786515305035,6.122600555419999,1.727490901945,1.2473887205125,0.272437028587,2.14252489805,0.25645930320050003,1787212.5,1521541065.0,254777650.0,,,,,,2065572.5,1521541066.0,44343358.5,,-0.09600000381450002,-3.85799999833,-4.66300048828,0.19600000232450002,0.010999999940400004,-0.06450000032785,55.0,57.0,65.5,72.5,76.0,-66.0,-59.0,-57.0,-55.0,-51.0,4.0,0.33000004291554996,-1.1600000113249997,-3.254999160764,0.23750000167630003,0.1135000027714,-0.017500000074549993
19,45.9278619487,4590.5,1521541066.0,158217071.5,,2561082.5,1521541065.0,372447303.0,,0.72606866125,-0.12355016476299999,-0.0003892352273905,0.06118604149875,0.997837090799,-0.022861417495150003,0.007380197515939999,0.0340484513979,0.047280554017550006,0.00967350997833,0.114932543605,0.0069118281605000005,-0.106290199448,5.15935397148,2.393984556195,-3.3133167028400003,-0.313094742596,1.1701079010950002,0.15273010730699998,1787221.0,1521541065.0,370249278.5,,,,,,2065583.5,1521541066.0,154529444.0,,0.318999838829,-2.602999988195,-8.693001174925001,0.40399999916550006,0.284500002861,0.08500000089410001,82.5,89.0,95.0,98.5,134.5,-89.0,-86.0,-85.5,-83.0,-76.5,4.0,0.41499984264350004,1.2550000101349998,-4.0300006866450016,0.20799999684100004,0.2735000029206,0.14950000122195
20,46.030426051300005,4601.5,1521541066.0,266155957.5,,2561093.5,1521541065.0,482437845.0,,0.7325064949935,-0.12125513902450001,-0.000301996862169,0.06165073694675,0.9978179266165,-0.021107122786100004,0.0106112689741,0.07237396144285001,0.03334507074985,0.008022648097355001,-0.01962932079295,-0.15016233300825,0.06686105572539999,-0.6409271359440001,-0.6493191719054999,-1.1900556683555,1.065312206743,-0.3849805891515,0.4821053445335,1787229.0,1521541065.0,482248669.5,,,,,,2065594.5,1521541066.0,265372417.5,,1.379000020025,-4.998000073430001,-9.987999343865,0.6175000071525,0.5165000110865,0.1664999946955,91.5,92.5,101.5,116.5,127.5,-58.0,-56.0,-50.5,-43.0,-31.0,4.0,1.060000181196,-2.395000085235001,-1.2949981689399994,0.21350000798699992,0.2320000082255,0.0814999938014
21,46.1329901538,4610.5,1521541066.0,356214046.0,,2561102.5,1521541065.0,572444385.5,,0.7324834612989999,-0.121649713201,0.0001787878381585,0.0611575571892,0.997827481016,-0.022031390007000003,0.01070446446795,-0.01210792667165,0.02483000204175,-0.0053235393193,0.06894624239189999,0.0339360118599,-0.058999472927150014,6.18699645996,2.7430317401899997,-0.519021064043,-0.5764590799804999,2.262280106545,0.1375755481425,1013014.5,1521541065.0,573500032.0,,,,,,2065604.0,1521541066.0,360107589.0,,-0.6459999561330001,-1.32800002694,-3.8280014038099996,0.06599999871115,0.08850000053644999,-0.0010000001638999986,154.0,156.0,158.5,187.5,198.0,-12.5,-12.0,-10.0,-9.5,-4.5,4.0,-2.024999976158,3.670000046490001,6.159997940055002,-0.5515000084413499,-0.42800001055005,-0.1674999948594
22,46.2355542564,4622.5,1521541066.0,476315498.0,,2561111.0,1521541065.0,657475098.0,,0.732522688511,-0.120413510124,0.000762184388763,0.061150383847,0.997845549393,-0.0211551698394,0.0108327698105,0.000185381605248,0.0141729404263,0.00407031453516,0.00773459209989,-0.00565646045509,0.0197089025712,6.18381166458,2.51136374474,-0.748669266701,-0.415763288736,2.21909976006,0.165961891413,1787241.5,1521541065.0,666273299.5,,,,,,2065615.5,1521541066.0,474690349.0,,-1.906000065805,-2.95799999237,-4.64300003052,0.23899999260899998,0.08750000223515,-0.042500000447,114.0,118.0,126.5,128.5,135.5,61.5,64.0,65.0,69.5,81.5,4.0,-1.260000109672,-1.62999996543,-0.81499862671,0.17299999389784998,-0.000999998301299987,-0.041500000283100004
23,46.338118359,4631.5,1521541066.0,565854549.0,,2561120.0,1521541065.0,747445135.0,,0.7328825322310001,-0.121107328955,0.0006233184965379999,0.0609455631001,0.997840654587,-0.0217988023181,0.0111569981795,-0.0063790310522100005,-0.0111283421032,0.00848011428126,-0.0211569254861,0.0169844464732,-0.0216871011873,5.23453140259,1.80887401104,-0.260772943497,0.0806937217712,1.96754670143,0.276173710823,1787247.5,1521541065.0,756258888.5,,,,,,2065624.0,1521541066.0,559491622.0,,-1.2860000610350002,-2.9379999816400004,-5.06300010681,0.2135000005365,0.057000000029800005,-0.013499999884535,79.5,83.0,87.0,92.5,109.0,106.0,116.0,128.0,134.0,148.0,4.0,0.6200000047699998,0.020000010729999573,-0.42000007629,-0.025499992072499977,-0.03050000220535,0.029000000562465003
24,46.440682461499996,4643.5,1521541066.0,689191460.5,,2561132.0,1521541065.0,867438260.0,,0.733662235269,-0.120291833318,0.000833343700791,0.06126075193590001,0.997829331172,-0.020984685443,0.0119745188875,0.00014286971733,-0.00802511200774,0.00707550361366,-0.0181733528958,0.00638851736524,-0.006218536191560001,4.35564279556,1.6448163986200002,-0.137370854616,0.061275124549900015,1.61383891106,0.264905631542,1787256.0,1521541065.0,875250490.5,,,,,,2065636.0,1521541066.0,679005048.5,,-1.7910000562650001,-3.027999985215,-4.493000411985,0.258499994874,0.08999999985095,-0.036500001326199995,79.0,88.5,94.0,100.0,102.5,167.0,173.0,177.5,202.0,208.0,4.0,-0.5049999952299999,-0.09000000357499971,0.5699996948249995,0.04499999433749999,0.03299999982115,-0.023000001441664995
25,46.543246564099995,4652.5,1521541066.0,775698542.0,,2561141.5,1521541065.0,962437219.0,,0.732463057,-0.1205356002235,0.0003626990459045,0.0607024470024,0.9978616434945,-0.0216642866999,0.01084839074125,0.0073490341421200015,-0.006950729197064999,0.00277006388946,0.005735688998680001,-0.015787542539274998,-0.007385373368999999,5.1094803810150005,1.755679130555,0.14028372801849998,0.0006231144070630001,1.919405817985,0.232353627682,1787262.0,1521541065.0,963271886.0,,,,,,2065644.5,1521541066.0,765161489.5,,-2.34600006342,-2.6630000054850003,-4.358000183105,0.13199999928449999,0.0680000036955,-0.016000000294299998,82.0,84.0,87.5,90.0,97.0,211.0,211.0,225.5,264.0,265.5,4.0,-0.5550000071549999,0.36499997972999987,0.13500022888000007,-0.1264999955895,-0.021999996155450008,0.020500001031899997
26,46.6458106667,4660.5,1521541066.0,856363057.5,,2561150.0,1521541066.0,47442610.0,,0.732107093776,-0.120105059119,0.00020278081023900006,0.0608304272943,0.997866472595,-0.0211530257912,0.0107103448307,0.00118176237201,0.00302961598091,0.00939779007776,0.0121522899616,0.0018254256144,-0.00577452926155,4.81451320648,1.58719599247,0.308306634426,0.127600476146,1.8101328611400005,0.265735805035,1787268.0,1521541066.0,40745792.0,,,,,,2065653.5,1521541066.0,854696518.0,,-1.0560000419634998,-3.06800000668,-4.137998962405,0.1639999970795,0.04549999907615,-0.03100000042465,77.0,80.5,81.5,85.5,93.0,221.5,227.5,244.5,271.0,297.0,4.0,1.2900000214565002,-0.4050000011949999,0.2200012207000004,0.03199999779500001,-0.022500004619349992,-0.015000000130350001
27,46.7483747692,4672.5,1521541066.0,975684523.0,,2561164.0,1521541066.0,187443628.0,,0.7320554967899999,-0.120763884801,0.000500759782591,0.060756802589,0.997859285615,-0.0217951120845,0.0105085746436,-0.0111300797175,0.0112662353531,-0.0121956409327,0.006530381043210001,0.0166478767397,0.0177737252817,4.86135196686,1.54636359215,0.270368605852,0.0857164412737,1.82312691212,0.244694173336,2561517.5,1521541066.0,190511769.5,,,,,,2065665.0,1521541066.0,969729953.0,,-0.946000027657,-1.6379999995200003,-3.74799957275,0.157000005245,0.0320000015199,-0.0410000011325,54.0,57.0,58.5,65.0,73.5,205.5,211.0,214.5,264.0,265.0,4.0,0.11000001430649986,1.4300000071599999,0.3899993896549998,-0.006999991834500008,-0.013499997556250004,-0.01000000070785
28,46.850938871800004,4683.5,1521541067.0,86470961.5,,2561175.5,1521541066.0,302632368.5,,0.732589018591,-0.120683659471,0.00029267490612950003,0.06143128050985,0.9978262867115,-0.02120823673285,0.01090755342195,0.008383553817455,0.00701395134016,0.007078774628085,0.014229140664153,-0.01999551436925,-0.00673034968477,4.52226305008,1.58852863312,0.373566880822,0.06506338343019999,1.722536861895,0.246520265937,2561528.0,1521541066.0,295685542.5,,,,,,2065676.5,1521541067.0,84194745.0,,-1.206000137325,-3.1479999899849997,-4.597999954225,0.18649999797350006,0.0580000001937,-0.014999999664700003,45.0,49.0,57.0,59.5,66.0,191.0,191.0,210.5,222.0,250.0,4.0,-0.260000109668,-1.5099999904649994,-0.8500003814750001,0.02949999272850007,0.025999998673800005,0.026000001467799995
29,46.953502974399996,4691.5,1521541067.0,165692448.0,,2561183.5,1521541066.0,382639298.5,,0.732183531494,-0.121167149889,0.000223490994323,0.060968414609149986,0.9978461009805,-0.02178608405485,0.0105501161644,0.004756575811210001,0.007785599527085,0.010125246314675,0.007286483821699999,-0.01407939253498,-2.510935664999832e-05,3.8141385316850003,1.36561065912,1.2017771005650002,0.12652637436980002,1.436066031455,0.2467058226465,2561536.0,1521541066.0,375719038.0,,,,,,2065684.0,1521541067.0,158175446.0,,-2.23599998951,-1.4980000138299998,-3.76800003052,0.134000003338,0.054999999702,-0.035000000149,51.5,54.5,55.0,59.0,60.0,159.5,167.0,174.5,222.0,224.0,4.0,-1.0299998521849998,1.649999976155,0.829999923705,-0.052499994635500064,-0.003000000491700003,-0.0200000004843
30,47.05606707689999,4702.5,1521541067.0,275639533.5,,2561194.5,1521541066.0,492637023.0,,0.7317811497189999,-0.1204384424905,0.0003438251859235,0.060714018515050004,0.9978718311635,-0.0214212373666,0.010320653842,-0.0014671416691649994,0.0031081717475050005,-0.0004924435685125001,0.0001359361011999999,-0.00323583262713,0.010344646454215,3.9951469898250003,1.45636039972,1.06023448706,0.11326810345035,1.5284351110449999,0.27058017253850003,1787298.5,1521541066.0,483364628.5,,,,,,2065695.0,1521541067.0,269186492.0,,-2.12600009441,-3.5380000352900005,-3.71800079346,0.116999998689,0.0640000030398,-0.007000000216069999,55.0,56.0,59.0,60.0,61.0,155.0,157.0,162.5,193.5,204.0,-1.0,0.10999989509999963,-2.040000021460001,0.0499992370600002,-0.017000004648999992,0.009000003337799996,0.027999999932930005
31,47.1586311795,4713.5,1521541067.0,385676025.5,,2561203.0,1521541066.0,577637781.0,,0.732359009399,-0.120925664974,0.000316314026486,0.06147681864,0.997825805313,-0.021204340690700003,0.010706958327,0.0246870311707,-0.00983097500357,0.0147173317662,-0.00868938125617,-0.0396296705194,-0.008649274927180001,3.5510408878300006,1.4247684478799998,1.10585653782,0.138113841414,1.35521149635,0.271048426628,2561556.0,1521541066.0,575685842.0,,,,,,2065706.0,1521541067.0,379380000.0,,-1.59600012302,-3.05800001621,-3.71800079346,0.125,0.0489999987185,-0.0230000000447,63.5,64.0,65.5,69.5,81.0,165.0,176.0,176.5,211.0,230.0,-1.0,0.5299999713900001,0.4800000190800007,0.0,0.008000001310999996,-0.015000004321299998,-0.015999999828630002
32,47.2611952821,4721.5,1521541067.0,465694069.5,,2561211.0,1521541066.0,657634857.5,,0.732658334118,-0.12044662992550001,0.0007336473973480001,0.06111770871695,0.9978479413275,-0.02098133419195,0.0111173552849,0.0065443041457750005,-0.00813335068584,0.004755173832775,-0.0019453882449999998,-0.01106435175918,-0.0013014265329735,3.4915292263050004,1.30947214365,1.10037684441,0.1474567241966,1.3395823240300002,0.259681046009,2561564.0,1521541066.0,655711827.0,,,,,,2065714.0,1521541067.0,461334014.0,,-2.5260000109650003,-2.5780000045900002,-3.972999954225,0.122999999672,0.048499999567850005,-0.03700000047685,48.5,51.0,52.5,55.0,65.5,179.0,180.5,184.0,226.0,232.0,-1.0,-0.9299998879450002,0.4800000116199996,-0.2549991607650002,-0.002000000328000004,-0.0004999991506499935,-0.014000000432150002
33,47.3637593846,4735.5,1521541067.0,605814575.5,,2561224.5,1521541066.0,792632394.0,,0.7321689924695001,-0.12159470437999999,1.0908420564999719e-06,0.061537333706599986,0.9978119965854999,-0.0216913966459,0.01065911814125,0.0061821893147,0.008468427681634999,0.001998849404975001,0.0225640301143,-0.019327550918682,0.00041044734030000127,2.993178725245,1.235952615735,1.08278673887,0.178579047322,1.2281554937399999,0.284664466977,1787321.0,1521541066.0,799844133.0,,,,,,2065728.0,1521541067.0,600708019.0,,-2.78600006104,-2.74800001383,-4.18800201416,0.159999996424,0.035999998450300004,-0.0219999998808,39.0,43.5,52.0,56.5,72.5,174.5,180.0,189.0,201.0,228.0,-1.0,-0.26000005007499993,-0.1700000092399998,-0.2150020599350002,0.03699999675200001,-0.012500001117550001,0.01500000059605
34,47.4663234872,4744.5,1521541067.0,695717930.0,,2561234.0,1521541066.0,887632156.0,,0.731813139567,-0.121222419279,-0.00021466130124900005,0.0609618334347,0.997843522764,-0.0218881902095,0.0106238444538,0.00553771774222,0.00727806809853,0.008587085003859999,0.00381227942898,-0.0111722866428,0.0276528164581,2.7747364044200005,0.855332374573,1.20707821846,0.502937495708,1.19338226318,0.34821295738200003,1013066.5,1521541066.0,887500032.0,,,,,,2065736.5,1521541067.0,686891006.5,,-1.0910000085815001,-2.64299999475,-3.712999725345,0.1630000025035,0.01350000035019,-0.06250000186265,39.0,45.0,52.0,60.0,66.0,168.5,175.0,189.5,192.0,195.5,-1.0,1.6950000524585,0.10500001908000023,0.4750022888150003,0.0030000060794999894,-0.022499998100110004,-0.040500001981850005
35,47.568887589700005,4752.5,1521541067.0,775639414.5,,2561241.5,1521541066.0,962639299.5,,0.7318998207170001,-0.120649971082,0.000441672175548,0.06068158784485001,0.9978660217884999,-0.0215870662543,0.010726777183950001,-0.0018951792044600005,0.003045648598555,0.003757365828935,-0.006762153630235,0.002300218072300001,0.007463421644925,2.66950726509,1.02432626486,1.156670868395,0.506762549281,1.1650694012649998,0.39189667999750005,1787332.5,1521541066.0,973343116.0,,,,,,2065744.5,1521541067.0,766476902.5,,-1.821000027655,-2.9529999673350003,-4.1730007171649985,0.17700000107299999,0.01800000015645,-0.07200000062584999,48.0,50.0,53.5,72.0,75.0,144.0,155.5,170.0,184.0,192.0,-1.0,-0.7300000190734999,-0.30999997258500045,-0.46000099181999854,0.013999998569499988,0.004499999806260001,-0.009499998763199985
36,47.671451692299996,4765.5,1521541067.0,905695557.0,,2561255.0,1521541067.0,97638605.5,,0.7316548162735,-0.1211430512895,0.0002738885594875,0.06070067208049999,0.9978657921265001,-0.021632515723650002,0.010546968760950001,-0.01539862150835,-0.005091405985624999,-0.013320927610899999,-0.009192661685120002,0.0354217706215,-0.0013123111424099988,2.5450706481900003,1.04851651192,1.20725786686,0.5451499223709999,1.154371619225,0.39915367960950005,2561608.0,1521541067.0,95688163.5,,,,,,2065757.5,1521541067.0,896933386.0,,-2.5010000348099997,-2.038000005485,-3.9279998779300005,0.1765000000595,0.01200000010429,-0.033999999985100005,39.0,46.5,50.5,55.0,61.5,139.5,152.5,153.5,175.5,191.5,-1.0,-0.6800000071549996,0.9149999618500004,0.24500083923499805,-0.0005000010134999788,-0.00600000005216,0.03800000064074999
37,47.774015794899995,4773.5,1521541067.0,986037969.0,,2561265.5,1521541067.0,202637296.5,,0.7314847497979999,-0.12083806754200001,-1.81356128295e-05,0.06011811529650001,0.9978922775565,-0.021976291511499997,0.0106690766745,-0.0034000236748299995,-0.0032648665263149998,0.004498876581769999,-0.013346331604610002,0.00909658855401,0.00026797436211949995,2.7027332782749998,0.9127613306045,0.9216463863850001,0.5939809381960001,1.20884668827,0.40946404635899997,1013079.0,1521541067.0,199000064.0,,,,,,2065765.5,1521541067.0,976500935.5,,-1.0560000419600002,-4.303000020980001,-3.91300048828,0.17700000107299999,-0.002999999793245001,-0.01300000026824,42.5,43.5,46.5,47.5,65.0,149.5,164.0,165.0,173.0,185.0,-1.0,1.4449999928499995,-2.265000015495001,0.014999389650000694,0.0005000010134999788,-0.014999999897535001,0.020999999716860004
38,47.8765798974,4783.5,1521541068.0,85636019.5,,2561275.5,1521541067.0,302641854.5,,0.7310245617610001,-0.12071465669399999,-0.0001853649531483,0.0594957835991,0.9979291465525,-0.0221136949656,0.01041984109125,-0.007296736915671501,0.003928604591929999,-0.002035287042084,-0.002111736985015,0.007220272693139998,0.007849399428765001,2.215142011645,0.7254391312599999,1.035223931075,0.664008021355,1.090392589565,0.433755174279,1787355.5,1521541067.0,297867174.0,,,,,,2065775.5,1521541068.0,76514332.0,,-1.0710001468655002,-2.0379999999000002,-3.9880012512199996,0.193999998271,-0.00299999996787,-0.03949999995530001,39.0,48.0,52.0,67.5,73.0,148.0,153.0,165.0,192.0,204.0,-1.0,-0.015000104905499967,2.2650000210800005,-0.0750007629399998,0.016999997198000022,-1.7462499892276218e-10,-0.026499999687060006
39,47.979144,4794.5,1521541068.0,195644497.5,,2561286.5,1521541067.0,412637041.0,,0.7312844148775,-0.120588018215,-7.062254713900003e-05,0.059321079471849995,0.997937653194,-0.02205471332685,0.010715300018949998,0.001825135811785,0.003653766776085,-0.006296260308095001,0.011359720561330002,-0.0024052736977,-0.006750430586534999,2.234211921695,0.7140866518019999,1.0304118394875001,0.645659774542,1.105093598365,0.4220874905585,1013087.0,1521541067.0,400999936.0,,,,,,2065786.5,1521541068.0,186624024.0,,-1.620999979975,-3.3630000233649997,-5.62799873352,0.20799999684099998,-0.020499999634900002,-0.04099999926985,38.0,42.5,46.5,48.0,51.0,166.5,167.5,190.0,211.0,220.0,-1.0,-0.5499998331094997,-1.3250000234649995,-1.6399974823000005,0.013999998569999977,-0.017499999667030003,-0.001499999314549992
