,Unnamed: 0,.header.seq,.header.stamp.secs,.header.stamp.nsecs,.header.frame_id,.endpoint_state.header.seq,.endpoint_state.header.stamp.secs,.endpoint_state.header.stamp.nsecs,.endpoint_state.header.frame_id,.endpoint_state.pose.position.x,.endpoint_state.pose.position.y,.endpoint_state.pose.position.z,.endpoint_state.pose.orientation.x,.endpoint_state.pose.orientation.y,.endpoint_state.pose.orientation.z,.endpoint_state.pose.orientation.w,.endpoint_state.twist.linear.x,.endpoint_state.twist.linear.y,.endpoint_state.twist.linear.z,.endpoint_state.twist.angular.x,.endpoint_state.twist.angular.y,.endpoint_state.twist.angular.z,.endpoint_state.wrench.force.x,.endpoint_state.wrench.force.y,.endpoint_state.wrench.force.z,.endpoint_state.wrench.torque.x,.endpoint_state.wrench.torque.y,.endpoint_state.wrench.torque.z,.joint_state.header.seq,.joint_state.header.stamp.secs,.joint_state.header.stamp.nsecs,.joint_state.header.frame_id,.joint_state.name,.joint_state.position,.joint_state.velocity,.joint_state.effort,.wrench_stamped.header.seq,.wrench_stamped.header.stamp.secs,.wrench_stamped.header.stamp.nsecs,.wrench_stamped.header.frame_id,.wrench_stamped.wrench.force.x,.wrench_stamped.wrench.force.y,.wrench_stamped.wrench.force.z,.wrench_stamped.wrench.torque.x,.wrench_stamped.wrench.torque.y,.wrench_stamped.wrench.torque.z,.tactile_values.tactile_values_0,.tactile_values.tactile_values_1,.tactile_values.tactile_values_2,.tactile_values.tactile_values_3,.tactile_values.tactile_values_4,.tactile_values.tactile_values_5,.tactile_values.tactile_values_6,.tactile_values.tactile_values_7,.tactile_values.tactile_values_8,.tactile_values.tactile_values_9,.tag,.delta_wrench.force.x,.delta_wrench.force.y,.delta_wrench.force.z,.delta_wrench.torque.x,.delta_wrench.torque.y,.delta_wrench.torque.z
0,68.18644499999999,6815.5,1521531483.0,739684581.5,,1602867.0,1521531483.0,216816903.5,,0.6847773750345001,-0.3011189033135,0.1339349503535,0.0008432073683065,0.9999415782715,-0.004014021066785,-0.009976366587395,0.00233964094463,-0.1511501297885,0.03127202233605,-0.06676234491155,-0.046470265337100004,0.0013024112567999995,3.1340591907500004,-2.3053971529000004,14.19996023175,1.507001280785,1.367912650105,0.6370733082294999,1603220.0,1521531483.0,214906084.0,,,,,,1108349.5,1521531483.0,737794853.0,,-0.8070000767684999,1.8969999710099998,9.038999938965,-0.06300000101325,-0.31149999797350003,-0.05299999937415,250.0,262.0,449.0,559.0,568.0,368.5,493.5,514.0,760.0,785.0,7.0,0.0,0.0,0.0,0.0,0.0,0.0
1,68.2890091026,6828.5,1521531483.0,869681954.0,,1602880.0,1521531483.0,346809643.0,,0.684098968606,-0.318216561085,0.136609105439,0.00503394124541,0.999936636792,-0.00503391851281,-0.008720177833840001,-0.002869565726030001,-0.121888333152,0.0212618142064,0.0351883994137,-0.0316779050495,-0.08237040589860001,4.0139036178600005,2.95710039139,13.8316478729,-0.429725557566,2.04700255394,0.463476657867,1603232.0,1521531483.0,334900233.5,,,,,,1108362.5,1521531483.0,868025841.0,,-2.7820000037550003,0.0569999972358,10.2190002441,-0.022499999962740002,-0.446000009775,-0.041500000283150006,244.0,255.0,434.0,559.0,600.0,381.0,479.0,506.0,756.0,773.5,7.0,-1.9749999269865004,-1.8399999737741999,1.1800003051349996,0.04050000105050999,-0.13450001180149995,0.011499999090999996
2,68.3915732051,6838.5,1521531483.0,969693064.5,,1602890.0,1521531483.0,446816955.0,,0.681403615276,-0.330046808494,0.13739769671399998,0.00316709918321,0.999939838075,-0.00363995509978,-0.00985091064987,-0.031192891868,-0.0989758307989,0.0143609637503,0.050053081459300014,0.0391233091669,0.0983864616539,2.51490688324,-1.50531840324,14.857546806300002,1.23869132996,1.2611306905700002,0.574823915958,1603243.0,1521531483.0,444906843.0,,,,,,1108372.5,1521531483.0,967928418.0,,-1.4920000195500005,1.9920000592250002,10.4490016937,-0.06449999939670001,-0.369000002742,-0.05200000107285,246.0,248.5,395.0,542.0,552.5,388.0,479.0,508.0,769.0,771.0,7.0,1.2899999842049998,1.9350000619892003,0.23000144959999957,-0.04199999943396,0.07700000703299997,-0.010500000789699995
3,68.4941373077,6850.5,1521531484.0,89767455.5,,1602902.0,1521531483.0,566813972.0,,0.6776764949699999,-0.344824918224,0.137513296566,0.00113706170422,0.999923588355,-0.00205392357318,-0.0121369658478,-0.0318099506127,-0.118916956191,-0.00101686383665,0.0328475222581,0.031740019813700004,-0.0144008494404,3.2176661491400003,-1.6347868442500002,14.4017972946,1.20952296257,1.48212230206,0.515553236008,1603255.0,1521531483.0,564880390.0,,,,,,1108383.5,1521531484.0,79889819.5,,-1.401999986175,0.9570000031970001,9.239000701905,-0.010500000556945,-0.3029999881985,-0.07200000062584999,250.0,254.5,470.0,532.5,555.0,389.0,473.0,503.0,754.0,778.0,7.0,0.0900000333750004,-1.0350000560280002,-1.210000991794999,0.05399999883975501,0.06600001454350002,-0.01999999955299999
4,68.5967014103,6859.5,1521531484.0,179577946.5,,1602913.5,1521531483.0,681830239.0,,0.6735022253284999,-0.3590119469465001,0.137052325388,0.003760762545175,0.9998796171700001,-0.001698411507305,-0.014956305688700001,-0.02619956526255,-0.1281514297935,-0.001932969168305,-0.014859647566809998,0.017622142368999998,-0.07073200836980001,4.801754951475001,0.900971978905,14.34814977645,0.21206238865850002,1.90812909603,0.5484689176085,1118620.5,1521531483.0,680433801.5,,,,,,1108393.5,1521531484.0,178188044.5,,-1.0969999790175,0.7320000091565,10.448999786349999,-0.07899999991060001,-0.3590000122785,-0.032499998807900006,251.0,252.0,442.0,538.5,557.0,385.5,495.0,509.0,773.0,781.0,7.0,0.3050000071575001,-0.22499999404050008,1.2099990844449984,-0.06849999935365501,-0.05600002407999999,0.039500001817949985
5,68.6992655128,6870.5,1521531484.0,289624452.0,,1602924.5,1521531483.0,791811581.5,,0.670652917922,-0.3704161758395,0.1370680598085,0.0052057812299250005,0.999846964253,-0.002490870152015,-0.0165117997874,-0.033576552046400004,-0.11532756729250003,-0.0027168971525250002,-0.025290952331349998,0.04681381196690001,0.051845239498500006,5.352269411090001,2.149078965185,14.22072172165,-0.2343832850455,2.194144129755,0.486452624202,633979.0,1521531483.0,788000000.0,,,,,,1108404.5,1521531484.0,288454425.0,,-2.66700000912,1.336999998425,10.5189994812,-0.06849999725820001,-0.4074999988075,-0.047499999403999994,248.5,250.5,410.5,558.5,597.0,389.0,495.0,508.0,756.0,779.0,7.0,-1.5700000301025,0.6049999892685001,0.0699996948500008,0.010500002652400003,-0.048499986529000005,-0.015000000596099988
6,68.8018296154,6881.5,1521531484.0,399572491.0,,1602935.5,1521531483.0,901818636.5,,0.6686379946255,-0.38223360828599995,0.13746292077,0.00156153693701,0.999867065355,-0.0004730500688063,-0.0162085236228,-0.01730560710525,-0.107776756556,-0.0004690234871000002,0.10166097739935,-0.012021755235714998,0.0363028123901,4.666040420535,-1.9524388313300003,14.817718505850001,1.4633003473299997,1.95508927107,0.6098220944405,1118636.0,1521531483.0,896434484.0,,,,,,1108415.5,1521531484.0,397941247.5,,-1.4119999766350002,0.02199998591050001,9.989000701925,-0.0135000003502,-0.4150000065565,-0.061000000685449994,250.0,252.0,377.0,530.5,546.0,381.0,480.5,513.0,743.0,758.0,7.0,1.255000032485,-1.3150000125145,-0.5299987792749992,0.05499999690800001,-0.007500007749000004,-0.01350000128145
7,68.90439371789999,6888.5,1521531484.0,469717025.5,,1602942.5,1521531483.0,971814618.0,,0.6670218468144999,-0.3898454204265,0.13827075455,8.752460052199998e-05,0.9998791486,0.0037007024240700006,-0.015091877457700001,-0.033850678029350004,-0.12282550920949999,0.018819620735110003,0.143641247128,-0.03158180216111,0.014754738518350002,2.127089202405,-1.47722631693,16.421489715550006,0.9602022171005,1.1216521561155,0.5174544006585,1603295.5,1521531483.0,969898924.5,,,,,,1108422.5,1521531484.0,469285147.5,,-2.516999980805,0.3019999945535,10.08400001525,-0.0445000007749,-0.417500004172,-0.05749999918044999,256.0,263.0,403.0,543.0,580.5,378.5,497.0,517.0,759.5,767.0,7.0,-1.1050000041699999,0.280000008643,0.09499931332499933,-0.031000000424700004,-0.002499997615500016,0.0035000015050000027
8,69.0069578205,6901.5,1521531484.0,599708914.0,,1602952.5,1521531484.0,71994280.0,,0.663400224066,-0.4079458914255,0.14092147945900002,-0.0027492024618949997,0.9998947697345001,0.005956979660914999,-0.012935727017999998,-0.047097149750700014,-0.202296420203,0.0363544735454,-0.012683085232265004,-0.0357554585373,0.15472665105150002,3.771947979925,-3.047421336175,15.3582525253,1.08055341244,1.684741199015,0.6407245397570001,1118648.5,1521531484.0,83033339.5,,,,,,1108435.0,1521531484.0,593653163.0,,-1.80699995756,1.1820000195875,9.198999786375001,-0.24750000238400002,-0.40749999880800003,-0.047499999403950006,254.0,272.5,415.5,510.5,543.5,349.0,491.0,548.5,783.5,817.0,7.0,0.7100000232450001,0.880000025034,-0.8850002288749987,-0.20300000160910003,0.010000005363999975,0.009999999776499985
9,69.1095219231,6911.5,1521531484.0,699659943.0,,1602962.5,1521531484.0,171975487.5,,0.6575940859775,-0.431828927955,0.1454077380765,-0.006621625723955001,0.999909589256,0.00322426746022,-0.01124477274185,-0.0664278990474,-0.27619252280499995,0.04307858844475,-0.0475777419184,-0.049735800718599996,0.061969706307100005,1.3996961712850002,-5.526973962784999,15.0293226242,2.35234451294,0.8398833274840001,0.6289207935334999,1118655.0,1521531484.0,178533507.5,,,,,,1108445.5,1521531484.0,697777804.0,,-2.9369999984249997,0.8069999972375002,9.594000244139998,-0.17199999839049998,-0.356000006199,-0.033999999053799995,248.0,266.0,412.0,513.0,526.0,365.0,499.0,528.0,765.5,780.0,7.0,-1.1300000408649997,-0.37500002234999985,0.39500045776499704,0.07550000399350004,0.05149999260900001,0.013500000350150011
10,69.2120860256,6920.5,1521531484.0,789797544.0,,1602972.0,1521531484.0,266975572.0,,0.650944572495,-0.45906731974,0.149024811647,-0.00847560349574,0.999922908064,-0.000670776946669,-0.009049427185,-0.0782661200556,-0.296498859672,0.0384644691119,-0.08892472392280001,-0.0555617751499,0.0454219267139,1.2715600729,-3.30709886551,14.3024358749,1.61265027523,0.90169262886,0.5159461498260001,633998.0,1521531484.0,272000000.0,,,,,,1108454.0,1521531484.0,783288033.0,,-2.1870000124,1.16700001154,9.58899917603,-0.0270000007004,-0.397000014782,-0.0949999988079,254.0,259.0,440.0,521.0,537.5,376.0,492.0,522.0,763.0,765.0,7.0,0.7499999860249997,0.36000001430249995,-0.005001068109997675,0.14499999769009997,-0.04100000858299996,-0.060999999754100004
11,69.3146501282,6930.5,1521531484.0,889920949.5,,1602982.0,1521531484.0,366976349.0,,0.6418159335360001,-0.4877231428760001,0.152307840355,-0.0065347877278,0.999926278017,-0.0040359205382,-0.00940459601808,-0.111854920023,-0.28545412522700003,0.033417183038,-0.0677308849706,0.0505665847174,0.0544091843437,2.79153132439,-3.40167331696,15.2754421234,1.95587563515,1.45423710346,0.5736984014509999,1603335.0,1521531484.0,365074545.0,,,,,,1108464.0,1521531484.0,884609296.0,,-1.937000012395,0.36700002942000004,11.14900054935,-0.0015000011771999985,-0.435499995947,-0.06450000219045,254.5,256.0,419.5,525.0,529.5,379.0,492.0,519.0,742.0,787.5,7.0,0.250000000005,-0.7999999821200001,1.5600013733199987,0.025499999523200003,-0.03849998116500003,0.030499996617449995
12,69.4172142308,6940.5,1521531484.0,989706039.0,,1602991.0,1521531484.0,456975353.0,,0.6326111370405001,-0.5118077410299999,0.155305388331,-0.002907801566715,0.9999265104709999,-0.003259598788915,-0.0112926353263,-0.116225494181,-0.27937682367,0.030612604102150002,0.04250972720845,0.051754370002850006,-0.115059111924,2.5563560724250003,-1.509894192215,15.38315868375,1.0602943599244998,1.172167450188,0.46934376657,1603345.0,1521531484.0,465061768.5,,,,,,1108474.0,1521531484.0,984160138.0,,-1.97700000405,1.1220000172009998,10.2940010071,-0.09849999845045,-0.400999993086,-0.04350000061095,254.5,262.5,416.5,530.0,543.0,386.0,509.0,514.5,735.0,786.0,7.0,-0.03999999165500001,0.7549999877809999,-0.854999542249999,-0.09699999727325001,0.03450000286100002,0.0210000015795
13,69.5197783333,6951.5,1521531485.0,103681087.0,,1603005.5,1521531484.0,601976710.5,,0.6180649873374999,-0.552262128543,0.1615134978365,0.002811834954255,0.9998920297455,-0.0027226650544800004,-0.014141314851799999,-0.0999413122841,-0.3137722964565,0.05479591692114999,-0.01761105945051,0.019098444901874997,-0.06225526720395,3.811032772065,-0.937489956616,15.4098763466,0.79648333788,1.2054829001449998,0.5075156092640001,1603358.0,1521531484.0,595055444.5,,,,,,1108485.5,1521531485.0,99515918.5,,-2.181999987365,0.922000006772,10.099001312244999,-0.1215000040825,-0.28149999678149995,-0.054999999702,240.0,268.0,388.0,531.0,539.5,383.5,515.5,519.0,739.0,778.0,7.0,-0.2049999833149998,-0.20000001042899984,-0.19499969485500124,-0.02300000563205,0.11949999630450003,-0.011499999091049998
14,69.6223424359,6963.5,1521531485.0,219599484.5,,1603017.5,1521531484.0,721974398.5,,0.6098535686285,-0.588036635644,0.16663538308200002,0.0007748833864475,0.9999355505705001,-0.0015664395092500002,-0.01119830418105,-0.04873592590194999,-0.328952550467,0.044085721429850004,0.008993257185385,-0.1162544756815,0.031994923673400004,3.2179502248750005,-2.42836916447,14.08298015595,1.25846403837,1.258441209795,0.442924648523,1118693.0,1521531484.0,721532640.0,,,,,,1108497.0,1521531485.0,213926675.5,,-0.6319999456409999,1.2220000037915,9.639000320434999,-0.07349999994039999,-0.300500005484,-0.07249999791385,238.0,278.0,415.5,501.0,541.0,383.0,502.0,507.5,742.0,810.0,7.0,1.5500000417239999,0.2999999970195,-0.4600009918100003,0.04800000414210001,-0.01900000870250007,-0.017499998211850006
15,69.72490653850001,6969.5,1521531485.0,279609560.5,,1603023.5,1521531484.0,781969941.0,,0.6068721765880001,-0.6057141298245,0.1680310258415,0.0010441895044665,0.9999680314995,0.0006916311909960001,-0.007888686492915,-0.0645237879411,-0.3155220767585,0.016065726637525,0.05382219102595,-0.08976482063075,0.00031625746505799994,1.7807713151,-3.0011243820199995,14.122910499549999,1.45817565918,0.7882301807405,0.570413947105,1118697.5,1521531484.0,781512963.5,,,,,,1108503.0,1521531485.0,273819799.0,,-1.83699998856,1.26700003538,9.00900115967,-0.194000005722,-0.31400001049000004,-0.0260000005364,245.0,278.0,409.0,538.0,550.0,392.0,502.0,520.0,757.0,779.5,7.0,-1.205000042919,0.04500003158849997,-0.6299991607649993,-0.1205000057816,-0.013500005006000015,0.04649999737745
16,69.827470641,6981.5,1521531485.0,400701999.0,,1603035.5,1521531484.0,901973762.5,,0.5978663580405,-0.6446135609245001,0.16811218824700003,0.0013295827826450002,0.9999879704455,-0.00149894213813,-0.00447589688624,-0.09363196259655,-0.333266412316,-0.009707329256665,-0.06799844187625,-0.01826927166862,-0.017224995734244998,0.5413778424265,-2.269134283065,15.332001686099998,1.476890444755,0.8549394011495001,0.5638447701930001,1118705.0,1521531484.0,893518752.0,,,,,,1108514.5,1521531485.0,390280817.5,,-2.75699999966,-0.6079999646156998,9.39400138855,-0.02399999974298,-0.494500011206,-0.04900000058115,253.5,269.0,441.0,525.0,555.0,408.0,477.0,511.0,759.0,773.0,7.0,-0.9200000111000002,-1.8749999999956999,0.38500022888000096,0.17000000597901999,-0.18050000071599998,-0.02300000004475
17,69.93003474359999,6993.5,1521531485.0,519618987.5,,1603047.5,1521531485.0,21973727.0,,0.5829461903675001,-0.6741253794355001,0.16875667867100005,0.003540023918235,0.9999624596255,0.002382049535865,-0.007518502907955,-0.149597724965,-0.23068550548099997,-0.00681096426859,0.10150863861115,0.05862159379235001,0.006642954961900004,6.647500038145001,-2.666459083555,14.92549514775,0.9034215211865,3.2209817171100004,0.4756928235295,1118714.0,1521531485.0,22529819.5,,,,,,1108526.5,1521531485.0,511049203.0,,-1.75700003505,2.791999951935,8.139000320434999,-0.1534999981525,-0.347000002861,-0.042000000830725005,331.0,413.0,468.5,488.5,506.5,353.0,488.0,501.0,724.5,744.0,7.0,0.9999999646100002,3.3999999165506996,-1.2550010681150017,-0.12949999840952,0.147500008345,0.006999999750424993
18,70.0325988462,7004.5,1521531485.0,629584073.5,,1603056.0,1521531485.0,106973735.0,,0.5707747130690001,-0.6905407528059999,0.16930424811900002,0.00167491862248,0.999900550099,0.00811281083949,-0.011413450835200002,-0.138659745302,-0.198380070866,0.011406893985,0.123327448681,0.07195776717539999,0.0287206341115,2.45704841614,-6.346721649169999,14.7202301025,1.7300947904599997,1.25109124184,0.475256562233,1603409.0,1521531485.0,105066240.0,,,,,,1108537.5,1521531485.0,620525246.5,,-0.932000076772,5.56199993286,8.964001083374999,-0.463499993086,-0.427000001073,-0.049499999731800005,372.5,413.5,432.0,442.5,719.0,392.5,426.5,436.0,617.5,636.0,7.0,0.8249999582779999,2.769999980925,0.8250007629400002,-0.30999999493349994,-0.07999999821199999,-0.007499998901075
19,70.1351629487,7012.5,1521531485.0,709724545.0,,1603063.0,1521531485.0,176975310.5,,0.562096613516,-0.7049635473845001,0.16943172792949998,-0.0009642080524299999,0.9998563436315,0.0105503277046,-0.01320982321925,-0.139851347107,-0.2193420399645,-0.008899477033379502,0.049548367811400006,0.062180689244049986,0.054870636043850014,1.6339682936675,-5.386165618895,15.283208847050002,1.4050388336200001,0.7988910675049999,0.452438041568,1603417.0,1521531485.0,185071100.0,,,,,,1108546.0,1521531485.0,705186766.0,,-0.516999936104,4.851999894715,8.004000091555001,-0.442000001669,-0.320999994874,-0.043500000610949996,296.5,324.5,393.0,422.5,522.5,208.5,235.5,296.0,341.0,366.5,7.0,0.41500014066800006,-0.710000038145,-0.9600009918199977,0.021499991416999986,0.10600000619900002,0.0059999991208500095
20,70.2377270513,7022.5,1521531485.0,809738039.0,,1603074.0,1521531485.0,286970581.0,,0.547092941675,-0.7265602202045001,0.167688520603,-0.003769297359135,0.9997663596105001,0.01396046517245,-0.0160603749486,-0.132840129988,-0.19283554177049997,-0.0033195141153200005,0.06727212473159999,0.019133469803849997,0.03701404829365,1.436986058949,-6.340399980545,14.907153606400001,1.89735007286,0.5385720729829999,0.4702148735525,1603427.0,1521531485.0,285048840.0,,,,,,1108555.5,1521531485.0,802453724.5,,-0.09199998378734996,4.17700006161,7.449001693724999,-0.31549999117849997,-0.219999998808,-0.0449999999255,175.5,187.5,193.0,207.5,214.5,72.5,76.5,78.0,104.0,227.0,7.0,0.42499995231665,-0.6749998331049998,-0.5549983978300022,0.12650001049050003,0.10099999606599999,-0.001499999314550006
21,70.3402911538,7033.5,1521531485.0,919754504.5,,1603085.0,1521531485.0,396970190.0,,0.5350887092509999,-0.75256604348,0.168564415104,0.0159131780668,0.999785512094,0.0020636734624,-0.0130935794574,-0.09940046464410003,-0.281944084357,0.0350873327183,-0.419478647429,-0.06724796504569999,-0.603555721654,10.0092315674,0.402397871017,12.8969974518,0.20302323997,4.70824193954,0.215254724026,1118740.5,1521531485.0,400534071.0,,,,,,1108567.0,1521531485.0,915340654.0,,-2.991999989745,2.0870000580319994,1.5090011596669999,-0.126499995589,-0.2479999959465,-0.01849999977275,132.0,136.0,148.0,160.0,171.0,34.0,38.5,41.0,46.0,77.5,7.0,-2.9000000059576503,-2.090000003578001,-5.940000534057999,0.18899999558949998,-0.027999997138499988,0.026500000152750003
22,70.44285525640001,7042.5,1521531486.0,9644508.0,,1603092.5,1521531485.0,471967713.5,,0.526618697626,-0.763281670248,0.1744059637205,0.0264856157858,0.99953568803,-0.00380756809221,-0.0144259910558,-0.09199035065415,-0.10043306805414999,0.10181447323510001,-0.07906865344555,-0.032554201566900004,-0.220943628875,5.701058387754999,3.020419597625,6.774510622025,-0.2446182668210001,1.6923462152500002,0.3520564734935,1118746.0,1521531485.0,481514192.5,,,,,,1108576.0,1521531485.5,505668189.5,,-2.55699998736,1.45200003776675,-0.9659992218005,-0.09699999913575,-0.09499999880805,-0.02749999985095,109.5,111.5,114.5,125.5,149.0,28.0,28.0,29.0,42.0,61.0,7.0,0.43500000238500025,-0.6350000202652495,-2.4750003814675,0.029499996453249994,0.15299999713844997,-0.0090000000782
23,70.545419359,7054.5,1521531486.0,131850599.5,,1603108.5,1521531485.0,631990614.5,,0.5295351576755001,-0.7637070644814999,0.183862343769,0.02822609464365,0.9995520741225,-0.00531081649633,-0.008402166132109999,0.050167564554599996,0.024241616980775003,0.04126271002795,-0.0678953983977,-0.0283305197169,0.0940546083524,3.2192569971099996,2.62453663349,5.528603553769998,-0.5292222797870001,0.8927675783625001,0.4345460534095,1118756.0,1521531485.0,627023884.5,,,,,,1108588.0,1521531486.0,124415574.0,,-0.866999959946,3.2970000663800003,-0.58099899292,-0.0689999982715,-0.146999999881,-0.0599999986589,82.0,90.5,97.5,101.5,123.0,13.5,15.0,26.0,31.0,55.0,7.0,1.690000027414,1.8450000286132504,0.3850002288805,0.028000000864250002,-0.05200000107294998,-0.03249999880795
24,70.64798346149999,7064.5,1521531486.0,229937076.0,,1603118.5,1521531485.0,731986211.5,,0.5370797863155,-0.7574401885359999,0.18470975777050005,0.022466117012950003,0.9997132472545,-0.00508954786283,-0.006517625795775,0.09352308721875,0.09162446249335,0.017647274990800002,0.04718341352425,-0.0501257037163,0.142004791375,0.7572510242465,2.4543131589900002,5.624393224715001,-0.5091346502305,0.16117544844764994,0.475778698921,1603470.0,1521531485.0,715074437.0,,,,,,1108598.0,1521531486.0,223988862.0,,-1.37699995041,2.37699999008,-0.59100112915,-0.0520000010729,-0.14499999582800002,-0.0189999993891,67.0,71.0,75.0,84.0,108.5,18.5,19.5,27.0,36.0,36.0,7.0,-0.5099999904639999,-0.9200000763000005,-0.010002136230000014,0.016999997198599993,0.002000004052999965,0.040999999269800004
25,70.7505475641,7076.5,1521531486.0,350243091.0,,1603129.5,1521531485.0,841989567.0,,0.5467101426459999,-0.7459276166779999,0.1828651786815,0.011968715706700002,0.9999004389309999,-0.0028177281604349997,-0.006881520073865,0.08614781764565001,0.117944209704,-0.026446795741249998,0.06867890181675,0.01458392734069,0.20729106649400006,-0.893034160137,1.37484276295,7.726095199585,-0.015749052166950998,-0.542491748929,0.49522432684900003,1118771.5,1521531485.0,843036254.0,,,,,,1108609.5,1521531486.0,341742170.0,,-0.8670000195500001,2.056999997235,-0.3059993743895,-0.0505000017583,-0.1455000042915,-0.03700000047685,54.5,54.5,60.5,68.5,113.5,6.0,6.5,8.0,13.0,14.0,7.0,0.5099999308599998,-0.3199999928449997,0.28500175476050005,0.0014999993146000007,-0.0005000084634999846,-0.018000001087750003
26,70.8531116667,7083.5,1521531486.0,419587969.5,,1603137.5,1521531485.0,921984696.0,,0.5533706839565,-0.7379171594785001,0.181559833921,0.005289048397970001,0.9999635008235,-0.000705372327572,-0.006668678792859999,0.07755959940010002,0.1006033839819,-0.012167470969459998,0.02477707526612,0.017233678688079998,0.1982925170935,-0.732932686806,1.200185239315,8.731139183045,-0.0012765079737000055,-0.3930791169405,0.513232767582,1603490.5,1521531485.0,920039871.5,,,,,,1108616.5,1521531486.0,412097495.0,,-1.411999976636,2.5470000067750003,0.3139995574951,-0.0625,-0.1674999967215,-0.05749999918045001,60.5,61.0,62.0,73.5,133.0,6.0,7.5,12.0,21.5,33.0,7.0,-0.544999957086,0.4900000095400001,0.6199989318846,-0.011999998241699998,-0.021999992430000004,-0.02049999870360001
27,70.9556757692,7095.5,1521531486.0,539621948.5,,1603148.5,1521531486.0,32182168.0,,0.5617085160340001,-0.7275614037029999,0.182291208328,-0.0036005813647049995,0.99997998649,0.001622225566125,-0.004925637935649999,0.08396589371255,0.09997558356894999,0.014481871034485002,0.08945128533199999,-0.07499380483465001,0.10118487151125001,-4.5272393226649985,1.509865820405,7.166055440905,-0.17530324310059994,-1.96725213528,0.547455787659,1603501.5,1521531486.0,30258665.0,,,,,,1108628.0,1521531486.0,525684873.0,,-2.22699997425,1.73700000439,0.009001159667969999,-0.0619999989867,-0.112000003457,-0.0489999987185,42.0,46.0,48.5,52.5,65.0,9.5,10.5,13.0,16.0,22.5,7.0,-0.8149999976139999,-0.8100000023850003,-0.30499839782713,0.0005000010132999999,0.05549999326450002,0.008500000461950014
28,71.0582398718,7104.5,1521531486.0,629606008.0,,1603155.0,1521531486.0,97186969.0,,0.5663467383290001,-0.72204870757,0.183130763911,-0.005637376200500001,0.999971437181,0.00469251967047,-0.00182347792665,0.0683443719809,0.0997464110001,0.008874077060879998,0.144088729551,-0.0926781364239,0.0582801220574,-3.78549814224,0.8434798121449999,6.664795875549999,0.0492376089096,-1.5036971569100002,0.502141654491,1118789.5,1521531486.0,104620511.5,,,,,,1108637.5,1521531486.0,622646632.0,,-0.8319999933239999,1.496999994855,0.5890010833739999,-0.0540000014007,-0.128500003368,-0.026000000536449998,50.0,57.0,58.0,59.0,91.0,6.5,7.0,10.0,10.0,16.0,7.0,1.394999980926,-0.24000000953500011,0.5799999237060299,0.007999997586,-0.016499999911,0.02299999818205
29,71.1608039744,7116.5,1521531486.0,749702095.5,,1603168.0,1521531486.0,227185828.5,,0.5679853816454999,-0.7190279570614999,0.1827512321655,-0.008859707402315,0.9999423817025,0.005770078430785,-0.0018074821391650003,-0.02612345994635,0.00019956566470499988,-0.0219863712004,-0.009855271555450004,0.06604670163364999,0.028725512251795,-3.359729766845,0.45806908607485,6.44259214401,0.07943490892650001,-1.248911142351,0.4869997203350001,1603520.0,1521531486.0,215240265.0,,,,,,1108649.5,1521531486.0,740994342.5,,-1.097000038625,3.0520000616100003,0.31399955749534997,-0.07099999859930001,-0.1414999961855,-0.04600000008945,35.0,40.5,44.5,56.5,98.5,15.0,16.5,19.0,27.0,29.5,7.0,-0.2650000453010002,1.5550000667550004,-0.27500152587864996,-0.016999997198600007,-0.0129999928175,-0.019999999553000004
30,71.2633680769,7125.5,1521531486.0,839646458.0,,1603176.0,1521531486.0,307186019.0,,0.5659068983869999,-0.719396373034,0.181492301885,-0.008466957278390001,0.999939518419,0.00616236014176,-0.00336087140025,-0.0103583134893,-0.0086674751179,-0.00821038763744,-0.006727248625729999,-0.00383787428162,-0.00381878705285,-1.7221977710699998,0.676461935043,7.22773504257,0.0396434515715,-0.650657296181,0.440416634083,1118804.5,1521531486.0,315141702.5,,,,,,1108658.5,1521531486.0,831525706.0,,-1.4770000338550002,1.632000015115,0.05399932861330001,-0.0654999986291,-0.12350000068499999,-0.023500000126650003,35.0,35.0,57.0,67.5,76.0,3.0,4.0,6.0,9.5,15.5,7.0,-0.37999999523000016,-1.4200000464950002,-0.26000022888205,0.005499999970200009,0.017999995500500007,0.0224999999628
31,71.36593217949999,7135.5,1521531486.0,939747452.5,,1603187.0,1521531486.0,417185681.0,,0.562266430839,-0.721117141551,0.179707604694,-0.00674187091685,0.999943169521,0.006215605969259999,-0.005437935999989999,-0.0424876191901,-0.019342989155700003,-0.0217905824726,-0.0103483908886,0.048531120185199984,-0.0287666885212,-1.73236858845,1.2790162563299998,7.4249253273,-0.194249793887,-0.555131673813,0.426755398512,1118811.5,1521531486.0,415641404.0,,,,,,1108668.5,1521531486.0,931760690.5,,-1.942000007625,1.2919999966374998,0.0590003967285,-0.06599999964235001,-0.16099999845,-0.027500000782300003,31.0,35.0,35.5,39.0,41.0,7.0,9.0,13.0,15.0,19.5,-0.5,-0.4649999737699997,-0.3400000184775003,0.005001068115199993,-0.0005000010132500121,-0.037499997765,-0.00400000065565
32,71.4684962821,7145.5,1521531487.0,39602994.5,,1603197.0,1521531486.0,517193626.0,,0.558705062901,-0.7231367311069999,0.179030200525,-0.00579549384328,0.999936464754,0.00521112728759,-0.0081438847834,-0.0174351880162,-0.039582630357,0.0100903021753,-0.05809172375519999,9.97746285218e-05,-0.0202963352487,-1.49973475933,1.3979117870299995,7.075063705439999,-0.344299554825,-0.6045518517490001,0.366948783398,1603550.0,1521531486.0,515308756.0,,,,,,1108678.5,1521531487.0,32783750.0,,-2.841999998685,2.18700005207,0.17900123596195,-0.06850000098345,-0.1290000006555,-0.025999999605099997,36.0,37.0,39.0,40.5,66.0,-1.5,0.0,6.0,21.0,23.5,-1.0,-0.8999999910600001,0.8950000554325004,0.12000083923345001,-0.0025000013410999833,0.031999997794499996,0.0015000011772000055
33,71.5710603846,7155.5,1521531487.0,139842033.0,,1603209.0,1521531486.0,637187703.5,,0.5565777347815001,-0.7226679058745,0.177323540793,-0.006226086229065,0.9999107309055001,0.0061892727757600005,-0.010067492405515,-0.013700156483485,-0.00618568109471,-0.007107319386324999,-0.0064603042288730005,0.021006088079025,-0.00582425067636,-1.0591250360005,0.9580835103985,7.265321731564999,-0.12852320075024998,-0.45202471315849996,0.4252053052185,1118826.5,1521531486.0,637150508.5,,,,,,1108688.5,1521531487.0,132651173.5,,-1.5319999814049998,2.73700006399,-0.0009990692138650004,-0.07899999991060001,-0.120499998331,-0.026000000536449998,33.0,41.0,42.0,46.0,90.5,-3.0,-1.0,4.5,8.0,10.0,-1.0,1.3100000172800002,0.5500000119199999,-0.180000305175815,-0.01049999892715002,0.008500002324499989,-9.313500005936337e-10
34,71.6736244872,7166.5,1521531487.0,249633550.0,,1603220.5,1521531486.0,752189370.0,,0.5558513426039999,-0.7233471803695001,0.17732452989,-0.005670137634415,0.999912857674,0.0061763361102800006,-0.01019499284395,-0.005950140025643499,-0.00589281826282,0.003999302233795,0.0069794761198100005,0.00532331344799,-0.015731494677449998,-1.69689840078,1.3510631322850002,6.840950250624998,-0.317022234201,-0.712813675404,0.41978110373000005,1118834.0,1521531486.0,742620314.5,,,,,,1108699.5,1521531487.0,240948750.0,,-2.6569999963049997,2.667000071145,-0.9110008239745,-0.051999999210249996,-0.157999999821,-0.031000001356000003,38.5,41.5,45.0,49.0,75.5,4.0,4.5,8.5,10.5,13.0,-1.0,-1.1250000149,-0.06999999284500014,-0.9100017547606349,0.027000000700350017,-0.03750000148999999,-0.005000000819550005
35,71.7761885897,7175.5,1521531487.0,339562058.0,,1603229.5,1521531486.0,842185883.0,,0.555577578204,-0.7235025722765001,0.17693130077599997,-0.005282951971885001,0.9999131772930001,0.006170458135944999,-0.010354442406249999,-0.00605135871,0.008007497705699999,-0.005648557884325001,0.01016469216211,0.0161817668855,-0.005031404265650003,-1.3076754212350001,1.053284108637,7.175661802294999,-0.224060304463,-0.47422717511650003,0.371876120567,1603582.0,1521531486.0,835257113.0,,,,,,1108709.0,1521531487.0,334847968.0,,-2.23700002432,2.91699995194,-0.280999755859,-0.0790000036359,-0.136999994516,-0.0390000008047,36.5,41.0,43.0,45.5,60.5,5.5,10.0,11.5,19.0,29.0,-1.0,0.41999997198499983,0.2499998807949999,0.6300010681154999,-0.027000004425650002,0.021000005304999986,-0.007999999448699998
36,71.8787526923,7186.5,1521531487.0,449611067.5,,1603240.5,1521531486.0,952187318.5,,0.5552393823495,-0.723519453364,0.1766277092415,-0.00500121280222,0.999912060374,0.006309564393984999,-0.0105298525174,-0.005748290357220001,0.0023731565508710003,-0.004086760919555,0.01269154112561,0.009336987392515,-0.014292513133875,-1.3142048120499998,0.9085046052935,6.88562512398,-0.13675571233055,-0.445353358984,0.3873024731875,1118848.0,1521531486.0,944129132.5,,,,,,1108719.5,1521531487.0,440983444.5,,-1.9119999766350002,4.126999990084999,-0.250999069214,-0.0784999988973,-0.13000000268200002,-0.06599999777975,24.5,26.5,30.5,33.0,46.0,-3.0,-1.5,-0.5,2.0,2.5,-1.0,0.3250000476849997,1.2100000381449996,0.030000686644999996,0.0005000047385999989,0.006999991833999991,-0.026999996975050004
37,71.9813167949,7196.5,1521531487.0,549613952.0,,1603248.5,1521531487.0,32188216.0,,0.555444464472,-0.7236417105105001,0.1765091518715,-0.00510500793824,0.9999118203095,0.006324855442865001,-0.010499684424049999,-0.003450585316079501,0.0011157900840999995,-0.00557125363519,0.00022285298629999908,0.01066616863447,0.0007146315661399998,-0.5567962527274999,0.26985858380800004,6.414172649385001,0.13278914242995,-0.199423030019,0.40679743886,1603601.5,1521531487.0,30260516.5,,,,,,1108729.5,1521531487.0,542870819.5,,-1.481999969485,2.66699995194,-0.33099899292,-0.0710000023246,-0.1435000002385,-0.0499999988824,32.0,32.0,39.0,47.0,47.0,1.0,4.0,5.5,10.5,14.5,-1.0,0.4300000071500003,-1.4600000381449996,-0.07999992370600001,0.007499996572699993,-0.01349999755649997,0.015999998897350008
38,72.0838808974,7209.5,1521531487.0,679606556.5,,1603261.0,1521531487.0,157187514.0,,0.5545881040564999,-0.7235462483435,0.17541528436999998,-0.0050530826156149995,0.9998975195005,0.0068001119736,-0.01151365048495,-0.0011240455706,0.0020949339027799994,-0.004715445487953999,0.01399989421683,0.0048264094750000005,-0.008310900866154998,-0.921692490579,0.5427141189575,6.8671138286549995,-0.004181049764000022,-0.32219286262950003,0.366232931614,1118863.0,1521531487.0,154621692.0,,,,,,1108742.5,1521531487.0,672425961.0,,-1.15199998617,2.786999956705,-0.3609996795655001,-0.06950000301,-0.136999994516,-0.04649999924005,29.5,34.0,37.0,43.5,59.0,-1.0,-0.5,7.0,11.0,24.0,-1.0,0.3299999833149998,0.12000000476500006,-0.030000686645500096,0.0014999993146000007,0.00650000572249998,0.0034999996423499963
39,72.18644499999999,7218.5,1521531487.0,769589066.0,,1603269.5,1521531487.0,242187209.5,,0.5548267010310001,-0.7233324721059999,0.17462143863449997,-0.004962272360835,0.9998942663955,0.007596097300560001,-0.01136191692025,0.0063966252741101,-0.0094267112811,-0.0005141567012069999,-0.014944513681700002,-0.007138485524744998,-0.008235497015600002,-0.8779920935629999,0.40423159301250006,6.662682533265,0.0674602910876,-0.2907307446005,0.39004522562,1603623.0,1521531487.0,245288813.5,,,,,,1108751.5,1521531487.0,761982083.5,,-1.7069999933250002,1.232000009155,-1.1709991455049995,-0.0430000014603,-0.158999994397,-0.03150000050665,29.5,32.5,34.0,41.0,66.0,2.0,2.5,6.5,9.5,37.5,-1.0,-0.5550000071550001,-1.5549999475499998,-0.8099994659394993,0.026500001549700003,-0.021999999880999987,0.014999998733400001
