,Unnamed: 0,.header.seq,.header.stamp.secs,.header.stamp.nsecs,.header.frame_id,.endpoint_state.header.seq,.endpoint_state.header.stamp.secs,.endpoint_state.header.stamp.nsecs,.endpoint_state.header.frame_id,.endpoint_state.pose.position.x,.endpoint_state.pose.position.y,.endpoint_state.pose.position.z,.endpoint_state.pose.orientation.x,.endpoint_state.pose.orientation.y,.endpoint_state.pose.orientation.z,.endpoint_state.pose.orientation.w,.endpoint_state.twist.linear.x,.endpoint_state.twist.linear.y,.endpoint_state.twist.linear.z,.endpoint_state.twist.angular.x,.endpoint_state.twist.angular.y,.endpoint_state.twist.angular.z,.endpoint_state.wrench.force.x,.endpoint_state.wrench.force.y,.endpoint_state.wrench.force.z,.endpoint_state.wrench.torque.x,.endpoint_state.wrench.torque.y,.endpoint_state.wrench.torque.z,.joint_state.header.seq,.joint_state.header.stamp.secs,.joint_state.header.stamp.nsecs,.joint_state.header.frame_id,.joint_state.name,.joint_state.position,.joint_state.velocity,.joint_state.effort,.wrench_stamped.header.seq,.wrench_stamped.header.stamp.secs,.wrench_stamped.header.stamp.nsecs,.wrench_stamped.header.frame_id,.wrench_stamped.wrench.force.x,.wrench_stamped.wrench.force.y,.wrench_stamped.wrench.force.z,.wrench_stamped.wrench.torque.x,.wrench_stamped.wrench.torque.y,.wrench_stamped.wrench.torque.z,.tactile_values.tactile_values_0,.tactile_values.tactile_values_1,.tactile_values.tactile_values_2,.tactile_values.tactile_values_3,.tactile_values.tactile_values_4,.tactile_values.tactile_values_5,.tactile_values.tactile_values_6,.tactile_values.tactile_values_7,.tactile_values.tactile_values_8,.tactile_values.tactile_values_9,.tag,.delta_wrench.force.x,.delta_wrench.force.y,.delta_wrench.force.z,.delta_wrench.torque.x,.delta_wrench.torque.y,.delta_wrench.torque.z
0,43.663062,4365.5,1521537622.0,923990487.5,,2216766.0,1521537622.0,206715445.0,,0.8384483117070001,-0.16363426426150002,0.1184273362575,0.7818869551790001,0.6231374369685001,0.0163516557256,-0.00922296025204,0.0129786230349,0.008774712591799998,-0.0063052830802,0.0070953244491499985,-0.007754384854850001,-0.006368560915655,0.0991597473625,3.1156786084149997,5.20895075798,-1.0740944445155,0.3318603318184,0.0396937392652245,2217119.0,1521537622.0,204795633.0,,,,,,1721619.5,1521537622.0,918749473.5,,-0.9410000801065,-0.5160000011325,0.190000152588,-0.03499999921765,-0.1709999963645,-0.014500000048400003,104.0,114.0,123.0,132.0,140.0,-100.0,-89.0,-89.0,-77.5,-76.0,4.0,0.0,0.0,0.0,0.0,0.0,0.0
1,43.7656261026,4376.5,1521537623.0,34402966.0,,2216780.0,1521537622.0,346775095.5,,0.8360208723954999,-0.1624777256975,0.1126696344265,0.7844415708,0.6199551543135,0.01318402521725,-0.01152737701565,-0.020161820958049997,-0.00922389782117,-0.05939865463995001,-0.01987456695575,0.06171722736145,-0.025819327512945002,1.623639643195,2.54985868931,5.741879701615,-1.000097781422,0.7499313652515001,0.02095024660228,1546976.5,1521537622.0,345936351.0,,,,,,1721630.5,1521537623.0,29058835.0,,-0.6460002422335,0.579000027478,0.28000030517565,-0.06399999931455,-0.11350000277180002,-0.031999999657300014,108.0,113.5,143.5,154.0,156.5,-100.5,-98.0,-96.0,-89.0,-75.0,4.0,0.294999837873,1.0950000286105,0.09000015258765001,-0.0290000000969,0.057499993592699986,-0.01749999960890001
2,43.8681902051,4387.5,1521537623.0,143843531.0,,2216791.0,1521537622.0,456805288.0,,0.8345911619740001,-0.163154372558,0.103764195976,0.7847468869059999,0.619573326275,0.0115714095493,-0.0129351977263,-0.000371153180571,-0.00103819585351,-0.0933639970839,0.0169454523721,0.005387988254409999,0.0106637056091,7.071675777439999,1.15177202225,5.71797609329,-0.256161987782,2.89474749565,0.146253019571,876824.5,1521537622.0,453499904.0,,,,,,1721641.5,1521537623.0,137907899.0,,-0.2360001564028,1.788999946415,0.920001602173,-0.07050000131129999,-0.134000003338,-0.03949999995530001,104.5,108.5,111.5,134.0,144.0,-92.0,-89.0,-85.0,-72.0,-68.0,4.0,0.4100000858307,1.209999918937,0.64000129699735,-0.006500001996749993,-0.02050000056619998,-0.0075000002979999925
3,43.970754307700005,4398.5,1521537623.0,253904580.5,,2216802.0,1521537622.0,566769286.0,,0.839857272897,-0.164339571601,0.094878767009,0.785438603809,0.6186328224459999,0.0166070763953,-0.0101899780098,0.0565107510976,-0.0121745604174,-0.092250609435,0.015898518219000003,-0.111664292858,-0.0270300582304,-1.44676244259,1.88716173172,7.56515932083,-0.6309505701070001,-0.37841463089,0.0133501552045,876829.0,1521537622.0,558000128.0,,,,,,1721652.5,1521537623.0,248258805.0,,0.6139997482295,0.33899998813865007,1.3899990081799998,-0.06150000169869999,-0.13050000369550002,-0.0230000000447,106.0,108.0,117.0,127.0,132.5,-67.5,-63.5,-61.5,-61.0,-53.0,4.0,0.8499999046323,-1.4499999582763499,0.4699974060069998,0.0089999996126,0.0034999996424999735,0.016499999910600006
4,44.0733184103,4404.5,1521537623.0,314650535.0,,2216808.0,1521537622.0,626780418.5,,0.8419608761425,-0.16303879625349998,0.0901495682093,0.7850394012669999,0.6190767073325001,0.0192130936235,-0.00937288730322,0.025931972218924997,-0.0010322555210550003,-0.07419420654360001,0.023338563424715,-0.055386340204955004,-0.0037024786689499978,4.106392383585,1.3214372992515,6.2060177326199994,-0.529590278864,2.439391911029,0.17694714665425,1546996.5,1521537622.0,621933488.0,,,,,,1721658.5,1521537623.0,308151746.5,,0.3539999961854,1.19899997264,0.634999847412,-0.07899999991060001,-0.155000001192,-0.030000001192099997,107.5,111.5,115.0,127.5,136.0,-69.5,-69.0,-65.0,-59.0,-54.5,4.0,-0.2599997520441,0.85999998450135,-0.7549991607679998,-0.01749999821190002,-0.024499997496499976,-0.007000001147399997
5,44.175882512799994,4417.5,1521537623.0,443843006.5,,2216819.5,1521537622.0,741788994.0,,0.8368050477590001,-0.1659400149625,0.0816550056365,0.7850767892264999,0.619149453406,0.0129311409611,-0.0118785775263,-0.061768403586800004,-0.01914759720224,-0.08021361892655,-0.0214702970456,0.15529020538799998,-0.0077977703274700015,2.9316768646249995,1.4625912308700002,6.369177818300001,-0.3644297122955,1.27062708139,0.176790162921,2217172.5,1521537622.0,739832342.0,,,,,,1721671.5,1521537623.0,439460850.5,,-0.8209999561310001,0.818999977412,0.9000011444089999,-0.061499999836099994,-0.13250000029800002,-0.046499999240050015,118.0,136.0,146.5,150.0,154.0,-64.5,-63.5,-60.5,-58.0,-56.5,4.0,-1.1749999523164,-0.379999995228,0.2650012969969999,0.01750000007450002,0.022500000893999977,-0.016499998047950017
6,44.2784466154,4426.5,1521537623.0,533813953.0,,2216828.0,1521537622.0,826776324.0,,0.8322122967479999,-0.16660688139750002,0.07515986082195,0.7847836181310001,0.6195501693479999,0.008566647650730001,-0.0140793915909,-0.05531937910715,-0.0007432100819999999,-0.08220049314830001,-0.008769803241875,0.11830048775595,0.00868851669165,5.03878378868,-0.3941057473425,4.007709741594998,0.443107187748,2.06048578024,0.24305186420650002,2217181.0,1521537622.0,824868593.0,,,,,,1721680.5,1521537623.0,529651543.0,,-1.0860000610359999,-0.3810000032185,1.3549991607649998,-0.0579999983311,-0.1284999996425,-0.02799999993295,114.0,122.0,132.0,140.0,144.5,-69.0,-69.0,-63.0,-58.5,-56.0,4.0,-0.2650001049049998,-1.1999999806305,0.4549980163559999,0.003500001504999996,0.004000000655500019,0.018499999307100015
7,44.3810107179,4439.5,1521537623.0,663890480.5,,2216841.0,1521537622.0,956776198.0,,0.830223686477,-0.166603695197,0.0658612563131,0.7833603427439999,0.621323106586,0.008056392465100001,-0.015468198951000003,0.0398099853351,-0.0192786665152,-0.0612379863155,0.019783815534,-0.114622107014,-0.0465031785444,6.30408477783,0.690050661564,4.9869337081900005,-0.0100767873228,2.5457983017,0.263127446175,876844.0,1521537622.0,956000000.0,,,,,,1721693.5,1521537623.0,659187205.5,,-0.7960000991835,-0.295999994874,0.7100006103515001,-0.06700000166895001,-0.155000001192,-0.07750000059605,101.0,111.0,129.0,132.0,136.5,-73.0,-65.5,-63.0,-58.0,-52.5,4.0,0.2899999618524999,0.0850000083445,-0.6449985504134997,-0.009000003337850011,-0.026500001549499996,-0.0495000006631
8,44.4835748205,4446.5,1521537623.0,733812093.0,,2216847.0,1521537623.0,16776248.0,,0.831099503509,-0.16669061868100002,0.0607945195224,0.783108868168,0.621642217608,0.00937520788654,-0.014613670359399996,0.0140201629404,0.00779430061431,-0.0968522517355,0.0213624597808,-0.0494928654213,-0.0140521874222,2.44154262543,0.5487568378450001,5.7712640762300005,0.040099196136,1.05615997314,0.202896431088,1547024.0,1521537623.0,18435923.5,,,,,,1721700.5,1521537623.0,730696369.5,,-2.076000070575,-0.6509999841449999,0.6550003051755,-0.07499999925494999,-0.1220000013705,-0.06200000084935,105.5,113.5,133.0,135.0,140.0,-75.5,-71.5,-71.0,-63.5,-53.0,4.0,-1.2799999713915002,-0.3549999892709999,-0.055000305176000075,-0.00799999758599998,0.032999999821499995,0.0154999997467
9,44.5861389231,4458.5,1521537623.0,853815555.0,,2216860.0,1521537623.0,146775166.0,,0.8308053324260001,-0.166617112374,0.04968509666615,0.7822529220245,0.6226974370089999,0.00988810838219,-0.0151706290273,-0.05053789530185,-0.01280038176432,-0.0918210808284,0.004580616676700001,0.1110152741202,0.0654482261651,2.841097950935,0.4020175337795,4.8927814960500005,0.0008690357209999999,1.3965849280349998,0.22469431906950002,1547032.5,1521537623.0,151434984.0,,,,,,1721712.5,1521537623.0,848956915.0,,-2.41100010872,-1.1510000064975,-0.7850002288819999,-0.09150000289060001,-0.128000002354,-0.0200000000186,108.0,114.0,125.5,132.0,133.0,-78.0,-73.0,-67.5,-65.0,-63.0,4.0,-0.335000038145,-0.5000000223525,-1.4400005340575,-0.016500003635650018,-0.006000000983499995,0.04200000083075
10,44.688703025600006,4469.5,1521537623.0,963903426.5,,2216870.0,1521537623.0,246774704.5,,0.824071528449,-0.16854761721099998,0.0420266663038,0.781907720345,0.6230982073275,0.003620299109385,-0.01885927290245,-0.07037127805150001,-0.015553984660145,-0.06142241760705001,-0.011965968639845006,0.144727267823,0.0103893524747,5.823832750319999,0.13802988454714998,5.685692071915,0.2410105764865,2.2776942849150004,0.2783957868815,876856.5,1521537623.0,261999872.0,,,,,,1721723.5,1521537623.0,959973814.0,,-1.711000061035,-1.0109999760975,0.38000068664549996,-0.05749999918044999,-0.169500000775,-0.036000000312949997,94.0,100.0,115.0,138.5,149.0,-81.5,-79.0,-72.5,-70.5,-69.0,4.0,0.7000000476850001,0.14000003039999998,1.1650009155274998,0.034000003710150016,-0.041499998420999995,-0.016000000294349996
11,44.7912671282,4477.5,1521537624.0,44111013.0,,2216881.0,1521537623.0,356785025.0,,0.8225742477839999,-0.1724136493665,0.035364842877,0.7827265396895,0.6220773901895,0.0038624600648749998,-0.0185301775852,0.017293667817650002,-0.027095627669455002,-0.07344288778845,0.010677033826609998,-0.1017809133965,-0.012794309086319995,2.94223856926,-0.36373940110200004,3.7703042030300002,0.512486606836,1.084294110536,0.2493811026215,1547047.0,1521537623.0,355435283.0,,,,,,1721731.5,1521537624.0,39771947.5,,-2.34100005627,-1.9659999892099997,0.530000305176,-0.07349999994039999,-0.14800000190749998,-0.06850000098345,111.0,111.5,117.0,126.0,142.0,-84.0,-82.5,-76.0,-71.5,-54.5,4.0,-0.6299999952349999,-0.9550000131124998,0.1499996185305001,-0.01600000075995,0.02149999886750001,-0.0325000006705
12,44.8938312308,4489.5,1521537624.0,163974523.0,,2216892.5,1521537623.0,471780012.5,,0.8238260422745001,-0.17559202104799998,0.02556771113125,0.782704939197,0.6221302471725,0.008585416333979998,-0.015908045095049998,0.005986483381475001,-0.04718860437275,-0.08712576731419999,-0.0355941601296,-0.07995975048995001,0.011474436783655001,2.776240468025,-0.6456681489945,4.617883205415,0.508064627647,1.197010755535,0.251322470605,876865.0,1521537623.0,467000064.0,,,,,,1721743.0,1521537624.0,154875721.0,,-1.9060002326950003,-0.13599999845000002,-0.4599994659425001,-0.0869999974966,-0.1110000014306,-0.029500000178799998,104.0,112.5,113.0,123.0,131.0,-86.0,-83.0,-83.0,-79.5,-72.5,4.0,0.43499982357499967,1.8299999907599998,-0.9899997711185001,-0.013499997556200016,0.03700000047689998,0.03900000080464999
13,44.9963953333,4497.5,1521537624.0,245021462.0,,2216901.5,1521537623.0,561787132.5,,0.8187399366029999,-0.1808666057895,0.018712384811650003,0.7832922927095001,0.6214079659495,0.0038803293133,-0.017033262509699998,-0.11464920003799998,-0.05769721427585001,-0.0693764212274,-0.03830563916735,0.24749809377500004,-0.045005105666500005,3.16727000475,-0.51511746645,5.35489201546,0.590567857027,1.4692023396500002,0.2644400820135,1547061.0,1521537623.0,556932713.0,,,,,,1721751.5,1521537624.0,240535649.5,,-1.3910001277950002,0.28900000602,-0.16499938964834998,-0.09499999880769999,-0.1224999986589,-0.050000000745050004,101.5,107.0,111.0,127.0,137.0,-92.0,-85.0,-79.0,-79.0,-78.5,4.0,0.5150001049000001,0.42500000446999997,0.2950000762941501,-0.008000001311099986,-0.011499997228300002,-0.020500000566250006
14,45.0989594359,4509.5,1521537624.0,363924979.5,,2216913.0,1521537623.0,676776902.0,,0.809489704409,-0.188715171029,0.0140368258557,0.785385732145,0.618586246473,-0.00517487319622,-0.0222154924628,-0.0621409181642,-0.050204226584400005,-0.0461129647864,-0.0006273296951590001,0.129163939372,-0.0573755104314,4.92646551132,-0.7233231663699999,4.15773534775,0.638695955276,1.9302085638,0.299478530884,1547069.5,1521537623.0,671941612.0,,,,,,1721763.5,1521537624.0,359367577.5,,-1.1060002803820002,-0.4960000053050001,-0.3949989318845,-0.047000000253300006,-0.1560000032185,-0.055999998003250014,100.0,103.5,111.5,116.0,126.0,-98.0,-96.5,-90.0,-85.0,-70.0,4.0,0.284999847413,-0.7850000113250001,-0.22999954223615005,0.047999998554399986,-0.03350000455959999,-0.00599999725820001
15,45.201523538500005,4518.5,1521537624.0,453870534.5,,2216920.0,1521537623.0,746799649.0,,0.812238247642,-0.190923403662,0.0121041258587,0.786054193106,0.617826463396,-0.00161610171474,-0.0201656847913,0.069004606829,-0.044775232620400014,-0.044737920931,0.0275957568218,-0.186133647544,-0.052273617243099986,7.367686271669999,-0.250871807337,4.694003582,0.501515507698,2.74761080742,0.28361055254900003,2217273.5,1521537623.0,749878983.0,,,,,,1721772.5,1521537624.0,449735662.5,,-1.7760001182550005,-0.8510000243800002,0.260001754761,-0.07299999892714999,-0.1275000050665,-0.031499999575299996,100.0,107.5,113.0,126.0,132.5,-96.0,-85.5,-84.5,-80.0,-76.0,4.0,-0.6699998378730003,-0.3550000190750001,0.6550006866455,-0.025999998673849986,0.028499998151999995,0.024499998427950018
16,45.304087641,4529.5,1521537624.0,564777493.0,,2216931.0,1521537623.0,856796646.0,,0.81720037134,-0.193464792565,0.004467316008115001,0.787565847009,0.615984272278,0.0047341470074950005,-0.016738027427050002,0.053086891500000004,-0.031978928033250004,-0.06843877806015,-0.014433023129799999,-0.15212284452500002,-0.031820890231100005,7.171283721925,2.099401772025,1.44989836216,-0.4928058832885,2.815339803695,0.2683911919595,1547081.5,1521537623.0,853933356.0,,,,,,1721783.5,1521537624.0,560586394.0,,-1.036000108719,-1.73600002974,-0.29999961852900003,0.07800000160935,-0.09450000152014999,-0.013499999884525,101.0,105.5,109.0,114.0,134.0,-92.5,-89.5,-87.0,-85.0,-81.0,4.0,0.7400000095360004,-0.8850000053599998,-0.56000137329,0.15100000053649998,0.03300000354635001,0.017999999690774995
17,45.406651743599994,4538.5,1521537624.0,653829574.0,,2216939.5,1521537623.0,941803277.0,,0.8158440679535,-0.1943592151345,0.002512822068375,0.7878078120915,0.615662059694,0.00379440511006,-0.017452258672699998,-0.0368030364601,0.02247413623565,-0.02208846102395,0.04633481682,0.05644448991245,-0.007465966643818001,0.6692345291390001,1.1945351362199998,-0.6767623722555,-0.21054905653,-0.4738527722655,0.13841263949850002,2217292.0,1521537623.0,934904249.0,,,,,,1721792.5,1521537624.0,651200476.0,,-2.32100007534,-3.29599997252,-6.7699989318850005,0.438000008464,-0.012500000186250002,0.0200000000186,134.0,141.0,154.5,160.0,169.0,-98.5,-96.0,-94.5,-90.5,-81.0,4.0,-1.2849999666210001,-1.5599999427800002,-6.469999313356,0.36000000685465,0.0820000013339,0.033499999903125
18,45.5092158462,4549.5,1521537624.0,763952016.5,,2216950.0,1521537624.0,46808309.0,,0.8195532090629999,-0.193687886452,0.0028813179227399994,0.7876431382529999,0.6159079865779999,0.00849474941865,-0.0142645737961,0.0296931622573,0.0155127308122,-0.00683585473594,0.00518972048842,-0.0997432735362,0.0145860431061,-5.162041664119998,0.182529896498,0.267131656408,0.118085518479,-2.8410949707,0.00852123275399,2217304.0,1521537624.0,54897133.0,,,,,,1721803.5,1521537624.0,760261688.5,,-2.086000061035,-4.680999962985,-8.774999999999999,0.7260000109675001,-0.1050000041721,-0.07149999961260001,153.0,159.5,167.5,183.5,193.5,-100.0,-97.0,-94.0,-89.0,-77.0,4.0,0.23500001430500017,-1.3849999904649999,-2.005001068114998,0.2880000025035001,-0.09250000398585,-0.09149999963120001
19,45.6117799487,4559.5,1521537624.0,863836526.5,,2216961.0,1521537624.0,156805708.0,,0.819959493206,-0.19387763747,0.00190102183918,0.7871569837989999,0.616548708429,0.009388464156559998,-0.012783963856799998,0.00133744420602,-0.0081448337285,0.00283898642309,-0.0129307958133,-0.0201802464048,0.0156398231644,-5.47581243515,0.367086946964,-5.020611763,0.19614952802700006,-3.721290111540001,0.0173893440515,1547102.0,1521537624.0,149944600.5,,,,,,1721813.5,1521537624.0,861121412.0,,-3.12600002289,-7.05099996775,-13.330000305150001,1.046000003815,-0.109500002116,-0.04250000044705,196.5,200.0,204.0,234.5,257.0,-103.0,-101.0,-96.0,-93.0,-76.0,4.0,-1.039999961855,-2.370000004765,-4.555000305150003,0.3199999928474998,-0.004499997943900005,0.02899999916555001
20,45.7143440513,4570.5,1521537624.0,976132035.0,,2216974.0,1521537624.0,287010093.0,,0.8214245702509999,-0.194048452359,0.0015564395215699998,0.787259604691,0.6164040126829999,0.011899041443399998,-0.011261473363700002,0.007080869712149999,0.019322281739,0.006058182625760001,0.0107495835048,-0.0279578385219,0.0255587601309,-3.99392580986,0.343159645796,-9.134806633,0.257213294506,-3.73938632011,0.0251799970865,2217326.0,1521537624.0,274856479.0,,,,,,1721824.5,1521537624.0,969683293.0,,-4.276000118255,-9.055999843775,-16.770000839250002,1.5480000376700003,-0.14850000292100002,-0.09950000047675,234.5,241.0,263.0,287.0,298.0,-102.0,-102.0,-98.0,-97.0,-70.5,4.0,-1.1500000953650003,-2.004999876025,-3.440000534100001,0.5020000338550004,-0.03900000080500002,-0.05700000002970001
21,45.8169081538,4582.5,1521537625.0,94932913.5,,2216986.0,1521537624.0,407007520.0,,0.8211312752619999,-0.193925839621,0.00441689248443,0.7868650363390001,0.616932970168,0.0110797413403,-0.0106941217022,0.00872356892597,0.00895707983084,0.0203478390169,0.012669484069100002,-0.017996588564099997,-0.00677223905277,6.36598205566,1.50793170929,-2.6607234478,-0.31644693017,1.6588540077200002,0.15219298005100002,2217338.5,1521537624.0,400064717.0,,,,,,1721836.5,1521537625.0,90195969.5,,-2.25100002289,-4.31599995345,-4.92499961853,0.4375,-0.0980000011624,-0.0035000001080349994,237.5,247.0,262.0,314.0,333.0,-109.5,-102.0,-98.5,-95.5,-77.0,4.0,2.0250000953650003,4.739999890325,11.845001220720002,-1.1105000376700003,0.05050000175860002,0.096000000368715
22,45.919472256400006,4589.5,1521537625.0,167353987.5,,2216993.0,1521537624.0,477017085.0,,0.8204529579109999,-0.19401413533400005,0.003291172668175,0.7869173847859999,0.616865268318,0.01053524902605,-0.011277699055649999,-0.0028087885097420003,0.0013885312019000005,-0.005220238732485,-0.0029196798451085,0.008539171676405,-0.0086917271213,4.087113022804998,1.110019505025,-1.992208719255,-0.15359743312010002,0.9208815097824999,0.158341124654,2217346.0,1521537624.0,475095917.0,,,,,,1721843.5,1521537625.0,161724042.5,,-3.3210000753400006,-4.476000158490001,-5.65,0.5010000020265001,-0.07400000095369999,-0.01750000007455,231.5,243.5,254.5,296.5,332.0,-111.0,-105.0,-101.0,-92.0,-81.0,4.0,-1.0700000524500006,-0.16000020504000023,-0.7250003814700001,0.06350000202650008,0.02400000020870001,-0.013999999966515
23,46.022036359,4602.5,1521537625.0,294360041.0,,2217005.0,1521537624.0,597008863.0,,0.820909904465,-0.193818787177,0.00347121624481,0.78668485611,0.6171652568429999,0.0108765754936,-0.0107556040689,-0.00971012206759,0.00192864688543,-0.000184742151818,-0.00554277048617,0.015626610875799998,0.0211273379439,4.65044212341,0.91484361887,-1.7718398571,-0.0184822678566,1.1938921213200002,0.18764410913,2217357.0,1521537624.0,585066477.0,,,,,,1721856.5,1521537625.0,291753424.0,,-2.795999979975,-4.626000015440001,-5.565000915525,0.44499999284749997,-0.09699999913565,-0.0215000007302,218.5,225.0,237.0,266.5,288.0,-123.0,-113.0,-111.0,-105.0,-93.5,4.0,0.5250000953650007,-0.14999985695000007,0.08499908447500015,-0.05600000917900011,-0.022999998181950004,-0.00400000065565
24,46.124600461499995,4612.5,1521537625.0,393996953.5,,2217015.5,1521537624.0,702011964.5,,0.820154112984,-0.19372494095800002,0.0033312630498850003,0.7869144133335,0.6168671788215,0.01031070676473,-0.011580793941299999,-0.011427178369825,0.0006501539037749997,-0.00731166463992,-0.002709176865965,0.02787783208915,0.0035613164269499968,4.001807689665,0.909226447344,-1.639085650445,-0.08651911839859999,0.8960477411750001,0.16489530354749998,2217368.5,1521537624.0,700071237.5,,,,,,1721866.5,1521537625.0,392313445.0,,-3.73100004196,-4.88100012988,-6.44999923706,0.5080000162125,-0.09349999949335001,-0.0235000001267,210.0,211.0,214.0,252.0,269.5,-121.0,-114.5,-111.0,-103.5,-97.0,4.0,-0.9350000619849999,-0.2550001144399996,-0.8849983215349999,0.06300002336500005,0.0034999996422999807,-0.001999999396500002
25,46.2271645641,4619.5,1521537625.0,463864087.5,,2217021.0,1521537624.0,757453102.5,,0.8205336934995,-0.1938007516355,0.00352659544488,0.786846888312,0.6169554591755,0.01070266281645,-0.011107639521299999,0.0011838730134650002,-0.0018035728356999984,0.004503137186865,0.0047082494623299975,-0.002265155906299998,-0.0003598406334699997,4.16382110119,0.9286703467365,-1.69630801678,-0.0772237614730415,0.9670124053964999,0.16164196282600002,1547144.0,1521537624.0,752821808.5,,,,,,1721873.5,1521537625.0,461755529.0,,-2.7560000181200004,-3.216000048815,-5.844999694825,0.49099999666199995,-0.06450000032785,-0.0309999994934,199.0,202.0,207.0,267.5,273.5,-120.0,-118.0,-110.5,-105.5,-93.0,4.0,0.9750000238399994,1.6650000810650005,0.6049995422350003,-0.017000019550500067,0.028999999165500015,-0.0074999993667000005
26,46.3297286667,4632.5,1521537625.0,594236969.5,,2217033.0,1521537624.0,877455461.0,,0.820731541356,-0.193645406762,0.0035270512794499994,0.786826418016,0.616978863783,0.0107536148088,-0.0112084488219,0.00462297114829,-0.00519082589954,-0.00286594235179,-0.0353578227771,-0.00891356716647,0.0378403770716,4.1893234252900005,0.997452139854,-1.62746274471,-0.126099020243,1.01584124565,0.161513909698,2217386.0,1521537624.0,875504074.0,,,,,,1721886.5,1521537625.0,592308092.5,,-2.3459999322850003,-3.0509999677550006,-6.4199985504149994,0.5259999930854999,-0.08500000089404999,-0.029000000096900003,201.0,206.0,211.5,247.5,277.0,-122.0,-119.0,-115.0,-110.0,-101.0,4.0,0.41000008583500014,0.1650000810599992,-0.5749988555899996,0.03499999642349999,-0.020500000566199994,0.0019999993964999983
27,46.432292769200004,4644.5,1521537625.0,713902950.0,,2217045.0,1521537624.5,497465993.0,,0.8204755456749999,-0.193772223178,0.0034407564134600003,0.7869833613835,0.6167763556365,0.0107817814684,-0.011298487673850001,0.0009815248809950002,-0.0029389979621750003,-0.00036662448105499913,-0.0008436187365300003,-0.007037079951084999,-0.0027639377581199997,4.85054039955,0.8807717859745,-0.7617367208005001,-0.10278658941369999,1.2910974025700002,0.1829020529985,2217398.0,1521537624.0,995552770.0,,,,,,1721898.5,1521537625.0,712411604.0,,-3.766000008585,-3.0010000154350003,-4.869999313355,0.3989999890325,-0.08349999785425,-0.0240000002086,200.0,212.0,235.0,248.5,268.5,-131.0,-125.5,-115.5,-111.0,-92.0,4.0,-1.4200000762999996,0.04999995232000032,1.5499992370599998,-0.12700000405299994,0.0015000030397999964,0.0049999998883000045
28,46.5348568718,4652.5,1521537625.0,795370459.0,,2217054.0,1521537625.0,87451543.0,,0.8208804313600001,-0.19410662654,0.003602511133980001,0.786782136393,0.617041763928,0.0108676383964,-0.0107343307901,0.0082379601541,0.0020607200279,-0.005935707561699999,-0.004695733964520001,-0.0196672666443,0.0235062229075,3.94840359688,1.03273928165,-0.539213657379,-0.187268480659,0.954282522202,0.168810293078,1547168.0,1521537625.0,83799625.0,,,,,,1721906.5,1521537625.0,790946566.0,,-3.275999999045,-4.071000067889998,-5.484999084475,0.4309999942780001,-0.07199999690060001,-0.0250000003725,199.5,204.0,235.0,248.0,260.0,-122.5,-121.5,-113.0,-109.0,-101.0,4.0,0.49000000953999967,-1.070000052454998,-0.6149997711199999,0.03200000524550012,0.011500000953649989,-0.001000000163900002
29,46.637420974399994,4664.5,1521537625.0,913873910.5,,2217065.0,1521537625.0,197445443.0,,0.820593479294,-0.19368891967,0.00363572907938,0.786716025679,0.6171192056329999,0.0108900078771,-0.0110990408259,0.000466537166433,-0.00460935637762,-0.00500989773991,-0.0204549689683,-0.00167181954875,0.0243517903943,3.93700146675,0.8618968129160001,-0.683934926987,-0.0463932938874,0.943102478981,0.17350143194200002,2217418.0,1521537625.0,195575554.0,,,,,,1721918.0,1521537625.0,906068262.0,,-2.62100014687,-2.97100004405,-5.009998703,0.416999995708,-0.0750000029802,-0.0250000003725,191.0,195.0,205.5,248.0,266.0,-120.5,-118.5,-114.0,-111.0,-94.5,4.0,0.654999852175,1.100000023839998,0.4750003814749997,-0.013999998570000116,-0.0030000060795999928,0.0
30,46.7399850769,4672.5,1521537625.0,993822932.0,,2217075.0,1521537625.0,297448556.0,,0.8207990759489999,-0.19458899806049998,0.0037975290705500003,0.7871430823165,0.6165829782735,0.01068856006455,-0.010813080790850001,0.0022272393136500007,0.006739864017399998,0.0016171612926700002,-0.0022333509615949996,-0.005534059571449999,0.0039569851631999975,3.69518852234,0.8994943201540001,-0.571019589901,-0.09833052009345,0.8518069684505001,0.162734106183,2217428.0,1521537625.0,295525011.5,,,,,,1721926.5,1521537625.0,991681881.5,,-2.090999937055,-3.3509999200700005,-5.244999313355,0.4350000023845,-0.08000000193715001,-0.02800000086425,198.0,210.0,224.5,254.0,277.0,-123.0,-118.5,-115.5,-110.0,-97.0,4.0,0.5300002098150003,-0.3799998760200003,-0.23500061035499975,0.01800000667649998,-0.004999998956950011,-0.0030000004917499976
31,46.8425491795,4681.5,1521537626.0,83883046.5,,2217084.0,1521537625.0,387445281.0,,0.820357717853,-0.193855346877,0.00324546652598,0.787014248147,0.616735311683,0.010677917709,-0.0114939379703,0.000817891336251,-0.004814097789640001,0.011602423522700002,-0.00947416813004,0.0037460820415,0.008956263936959998,4.1441407203699985,0.957969844341,-0.579957067966,-0.106063984334,1.01973700523,0.16949281096500002,1547189.5,1521537625.0,390776294.0,,,,,,1721935.5,1521537626.0,82462094.5,,-1.8910001277900002,-3.53599998206,-5.61500015259,0.42549999058250004,-0.0980000011623,-0.0260000005364,203.0,207.0,213.5,256.0,279.0,-114.0,-114.0,-109.0,-97.0,-96.5,-1.0,0.19999980926499972,-0.1850000619899994,-0.3700008392350007,-0.009500011801999941,-0.017999999225149985,0.002000000327849999
32,46.9451132821,4695.5,1521537626.0,223822950.5,,2217098.5,1521537625.0,532497901.0,,0.8206904720995001,-0.194106172417,0.0035258625436950003,0.7869039569670001,0.6168850909215,0.01074234661135,-0.010928783840950002,0.010564285142185,0.0015366289857100006,0.007665589676070002,0.00103994724815,-0.02181179211325,-0.0007442791193000009,3.88852500916,0.971043795349,-0.6099785268310001,-0.14279161766175,0.9219744503499999,0.1450310871005,1547199.0,1521537625.0,531280899.5,,,,,,1721949.5,1521537626.0,220951384.0,,-2.92600009441,-2.920999972525,-5.694998168945,0.4514999985695,-0.107500001788,-0.036999998614199996,218.0,222.0,235.0,266.0,282.5,-114.5,-111.0,-101.0,-92.0,-84.5,-1.0,-1.0349999666199998,0.6150000095349997,-0.07999801635499981,0.026000007986999973,-0.0095000006257,-0.010999998077799996
33,47.0476773846,4702.5,1521537626.0,293830990.5,,2217105.5,1521537625.0,602513186.5,,0.8205690380120001,-0.1942325651015,0.003682795720925,0.7868745461055,0.6169223175815,0.01062835116595,-0.01105507891735,0.0005502077025708,0.01281500892485,0.0016947412291135,0.005122812565105001,-0.007856497727659999,0.020935135888,4.07192647457,0.9746678173565,-0.623408228159,-0.08513892721383,0.9969553351379999,0.1875331699845,1547204.0,1521537625.0,596801144.5,,,,,,1721956.5,1521537626.0,292262679.0,,-2.66600010395,-3.266000001135,-5.1699985504149994,0.4375,-0.07700000330805,-0.029000001028150004,205.0,209.0,219.0,271.5,289.5,-113.0,-110.0,-100.0,-98.0,-73.0,-1.0,0.2599999904599999,-0.3450000286099999,0.5249996185300008,-0.013999998569500016,0.030499998479949997,0.007999997586049992
34,47.150241487200006,4714.5,1521537626.0,413820981.0,,2217117.0,1521537625.0,717594279.0,,0.820775971162,-0.193795066102,0.00405641149674,0.7868218530869999,0.616981048793,0.0109711810454,-0.011197773088,-0.018012133609700002,0.0015332315607,-0.00784494062024,0.00121856793681,0.038521647707800005,0.00494401661974,5.17948389053,1.05447101593,-0.625169932842,-0.14521124959,1.38171494007,0.166392430663,2217470.0,1521537625.0,715646419.0,,,,,,1721968.5,1521537626.0,412543386.5,,-2.916000103955,-3.955999939145,-5.689999008180001,0.4440000057220001,-0.1055000014605,-0.04000000096855,199.0,200.0,228.5,250.5,272.5,-117.5,-114.0,-113.5,-110.5,-96.0,-1.0,-0.250000000005,-0.6899999380099997,-0.5200004577650015,0.006500005722000102,-0.028499998152449996,-0.010999999940399994
35,47.2528055897,4723.5,1521537626.0,504073023.5,,2217124.5,1521537625.0,792585668.5,,0.8204644688375,-0.193913673453,0.003577716629405,0.786926886497,0.6168543792750001,0.0105274872315,-0.011221072662400002,0.00235348098696,-0.005401207169215,-0.0013559628373539998,-0.006567684050640001,-0.0071628340236249985,-0.005088009504279999,5.10083055496,0.9991831481455,-0.5544483065604999,-0.09466103464355001,1.374725937845,0.191137827933,1547217.5,1521537625.0,792827770.5,,,,,,1721977.5,1521537626.0,502677039.0,,-2.741000151635,-4.486000148955,-5.715000534054999,0.46099999547,-0.1185000017285,-0.0135000003502,206.0,209.0,211.0,251.5,286.0,-121.0,-115.0,-112.0,-110.5,-97.0,-1.0,0.17499995231999987,-0.5300002098100003,-0.025001525874998265,0.016999989747999877,-0.013000000268000009,0.02650000061835
36,47.355369692299995,4735.5,1521537626.0,623827933.5,,2217136.0,1521537625.0,907589672.0,,0.8208736809435,-0.19424103982000002,0.003991918958335,0.7867170694110001,0.6171282967905001,0.010714022198049998,-0.01066817652235,-0.0006952622132000014,-0.0006417624802015,-0.0068878734815250005,0.009091222826725,0.0002071999252499998,-0.00697226410655,5.168035984039999,1.110698759555,-0.5798920094969999,-0.1761486008765,1.3989033103,0.189325079322,1547225.0,1521537625.0,913320281.5,,,,,,1721989.0,1521537626.0,616813979.5,,-2.37600002289,-2.291000036895,-5.03500022888,0.43000000715250003,-0.08599999919535001,-0.0420000012964,201.0,219.0,222.0,253.0,289.0,-129.0,-118.5,-115.5,-113.0,-91.0,-1.0,0.3650001287450002,2.1950001120600002,0.6800003051749988,-0.03099998831749995,0.032500002533149996,-0.028500000946199998
37,47.4579337949,4746.5,1521537626.0,733976483.0,,2217148.0,1521537626.0,27589576.0,,0.821131081821,-0.194284023986,0.0038141207390149996,0.7868954000224999,0.6168943913714999,0.011075258614000001,-0.0106866306055,-0.0010317884878999972,0.0009777744860499996,0.002858321004800001,0.000984255675735,0.0015690116557999995,-0.0009715973661500004,4.9319176673900005,0.9671134054665,-0.4834805577995,-0.08294098824264999,1.3023853302,0.1892483457925,1547233.0,1521537626.0,24322575.5,,,,,,1722000.0,1521537626.0,726972670.0,,-2.92100009918,-2.2059999987500003,-4.690000915524999,0.42599999904650004,-0.09299999848,-0.045500000938749986,210.0,235.5,241.0,260.0,274.5,-116.0,-112.0,-108.0,-96.5,-79.0,-1.0,-0.54500007629,0.08500003814499957,0.3449993133550011,-0.004000008105999986,-0.006999999284649991,-0.0034999996423499893
38,47.5604978974,4754.5,1521537626.0,813829064.0,,2217156.0,1521537626.0,107594502.0,,0.8211183530089999,-0.194277356428,0.00375938617202,0.786813775196,0.617000701601,0.0110415958085,-0.0105971953229,0.00105881266315,0.000570092307976,-0.000938001227371,0.0178320016993,-0.00513430341738,-0.017603497194700002,4.89290761948,0.979092240334,-0.503491640091,-0.1030061692,1.27455174923,0.170092940331,2217508.0,1521537626.0,95642751.0,,,,,,1722008.0,1521537626.0,807147067.0,,-2.38100013733,-2.03099998683,-4.680000686650001,0.425000011921,-0.0879999995232,-0.0540000014007,196.5,220.0,231.0,266.0,268.0,-122.0,-115.0,-111.0,-106.0,-93.5,-1.0,0.53999996185,0.17500001192000036,0.01000022887499874,-0.0009999871255000348,0.004999998956799992,-0.008500000461950014
39,47.663062,4766.5,1521537626.0,933901548.0,,2217168.0,1521537626.0,227595967.0,,0.8208376728,-0.19401298191,0.00337281087001,0.786915346951,0.616863646883,0.0109183153898,-0.011147568154,-0.00274040272137,-0.0154510883727,-0.00661651533039,0.0102485771774,0.0146178697618,-0.048124668332199985,5.05042791367,1.21624076366,-0.527924895287,-0.120869956911,1.33943891525,0.189627036452,2217521.0,1521537626.0,225648779.0,,,,,,1722020.0,1521537626.0,927362252.0,,-3.94100008011,-2.076000003515,-4.540001296994999,0.40900000929849994,-0.08850000053644999,-0.06349999830125,198.5,202.0,211.5,268.0,272.0,-121.5,-121.5,-115.5,-108.0,-93.5,-1.0,-1.5599999427799998,-0.04500001668499998,0.13999938965500114,-0.016000002622500065,-0.0005000010132499844,-0.00949999690055
