,Unnamed: 0,.header.seq,.header.stamp.secs,.header.stamp.nsecs,.header.frame_id,.endpoint_state.header.seq,.endpoint_state.header.stamp.secs,.endpoint_state.header.stamp.nsecs,.endpoint_state.header.frame_id,.endpoint_state.pose.position.x,.endpoint_state.pose.position.y,.endpoint_state.pose.position.z,.endpoint_state.pose.orientation.x,.endpoint_state.pose.orientation.y,.endpoint_state.pose.orientation.z,.endpoint_state.pose.orientation.w,.endpoint_state.twist.linear.x,.endpoint_state.twist.linear.y,.endpoint_state.twist.linear.z,.endpoint_state.twist.angular.x,.endpoint_state.twist.angular.y,.endpoint_state.twist.angular.z,.endpoint_state.wrench.force.x,.endpoint_state.wrench.force.y,.endpoint_state.wrench.force.z,.endpoint_state.wrench.torque.x,.endpoint_state.wrench.torque.y,.endpoint_state.wrench.torque.z,.joint_state.header.seq,.joint_state.header.stamp.secs,.joint_state.header.stamp.nsecs,.joint_state.header.frame_id,.joint_state.name,.joint_state.position,.joint_state.velocity,.joint_state.effort,.wrench_stamped.header.seq,.wrench_stamped.header.stamp.secs,.wrench_stamped.header.stamp.nsecs,.wrench_stamped.header.frame_id,.wrench_stamped.wrench.force.x,.wrench_stamped.wrench.force.y,.wrench_stamped.wrench.force.z,.wrench_stamped.wrench.torque.x,.wrench_stamped.wrench.torque.y,.wrench_stamped.wrench.torque.z,.tactile_values.tactile_values_0,.tactile_values.tactile_values_1,.tactile_values.tactile_values_2,.tactile_values.tactile_values_3,.tactile_values.tactile_values_4,.tactile_values.tactile_values_5,.tactile_values.tactile_values_6,.tactile_values.tactile_values_7,.tactile_values.tactile_values_8,.tactile_values.tactile_values_9,.tag,.delta_wrench.force.x,.delta_wrench.force.y,.delta_wrench.force.z,.delta_wrench.torque.x,.delta_wrench.torque.y,.delta_wrench.torque.z
0,54.504811,5451.5,1521533578.0,842293023.5,,1812371.0,1521533578.0,257191176.0,,0.7168046869119999,-0.09476087903485,-0.0027905672775800005,0.160579965552,0.9862439858515,-0.0157613925909,0.035894596766750005,-0.008324468075245001,-0.00889218777586,-0.0061190883500845,-0.033100333741550005,0.011552209833850002,0.024384445643680003,-0.47456195950499996,2.1544251441999998,8.121926307675,0.2376204878095,0.448194488883,0.27097395062449997,1264781.5,1521533578.0,242121855.0,,,,,,1317639.5,1521533578.0,835750712.0,,-0.5010000497105,1.1230000073085,1.12299919128,-0.019999999553,-0.2915000021455,-0.1500000059605,140.5,146.0,194.0,219.0,290.0,192.0,209.0,218.0,241.0,285.0,5.0,0.0,0.0,0.0,0.0,0.0,0.0
1,54.6073751026,5461.5,1521533578.0,942225456.0,,1812381.0,1521533578.0,357189490.0,,0.716811335567,-0.0948603317651,-0.002941365464255,0.1603870723365,0.9862697788339999,-0.0160394778557,0.035925464870750004,0.00468587889286,0.00448101876165,-0.0007523819819199982,0.006520223275950001,-0.006734546028265001,0.0050430507522749995,-0.3830136060715,2.118905305865,8.183732032775001,0.283327482641,0.5007837265730001,0.2824628800155,1812734.0,1521533578.0,355253195.0,,,,,,1317649.5,1521533578.0,934848693.5,,-1.156000036,1.76299998555,1.21799850464,-0.020999999716900003,-0.3020000010725,-0.13650000095349998,141.5,145.0,176.0,180.0,291.0,224.5,228.0,233.5,244.0,285.0,5.0,-0.6549999862895,0.6399999782415,0.09499931336,-0.001000000163900002,-0.010499998927000043,0.013500005007000021
2,54.7099392051,5469.5,1521533579.0,22731065.5,,1812388.0,1521533578.0,427187577.0,,0.716871900713,-0.0953044296254,-0.00280005974463,0.16014406339,0.9863051215,-0.0162099124831,0.0359628280401,0.00516201133455,0.00225392766581,0.0043916937691,-0.00506701844779,-0.0151480261913,0.007331370377819999,-0.350354671478,1.9729963541,8.212299346919997,0.379407584667,0.5423219203949999,0.303414911032,1264794.5,1521533578.0,433135225.0,,,,,,1317657.5,1521533579.0,15614555.0,,0.02400004565699998,1.2829999962799998,1.24299812317,-0.0219999998808,-0.295499995351,-0.144000001252,140.0,143.0,178.5,193.5,283.0,217.0,225.0,229.5,257.0,278.0,5.0,1.180000081657,-0.4799999892700002,0.0249996185300001,-0.0010000001638999986,0.006500005721500002,-0.007500000298500009
3,54.812503307700005,5478.5,1521533579.0,112356543.0,,1812400.0,1521533578.0,547189061.0,,0.7172740887365,-0.09468441175425,-0.00253263463785,0.160514767079,0.986242288837,-0.015528942630249997,0.0363293729629,-0.0020507307868825003,-0.003082161300870001,-0.002879482877723501,-0.00998754331775,0.005168708033605,-0.0008386235972749996,-0.4617223590615,1.9523109197600004,8.25026702881,0.394569352269,0.49676735699150004,0.3155942708255,1812753.0,1521533578.0,545297249.0,,,,,,1317666.5,1521533579.0,105319434.0,,-0.680999997258,0.4979999998585,0.8979988098145001,-0.025500000454450004,-0.297000005841,-0.13899999856950002,135.5,140.0,179.0,209.0,296.0,204.0,240.0,244.0,252.0,299.5,5.0,-0.705000042915,-0.7849999964214998,-0.34499931335549994,-0.003500000573650002,-0.001500010489999981,0.005000002682499977
4,54.9150674103,5490.5,1521533579.0,233486056.0,,1812412.5,1521533578.0,672189005.5,,0.7168844398819999,-0.0949925094803,-0.0027585457605600002,0.1601343274915,0.9863125618005,-0.016012355213,0.035889907900450005,-0.008924823946189998,-0.015189013839149999,-0.009667353361290001,-0.007820284289104999,0.02480714274402,-0.012120216283159999,-0.2821571528915,2.04457259178,8.137958049775,0.297207221389,0.537422731519,0.27072201669199997,1812764.5,1521533578.0,660290070.5,,,,,,1317678.5,1521533579.0,225435738.5,,-1.6760000169284999,0.5379999915135,1.257999420165,-0.02500000037255,-0.298000007868,-0.133999995887,141.0,152.0,206.0,223.0,298.0,214.0,218.0,231.5,254.5,287.0,5.0,-0.9950000196704999,0.039999991654999956,0.3600006103504999,0.0005000000819000046,-0.0010000020270000132,0.005000002682500004
5,55.017631512799994,5500.5,1521533579.0,332985996.5,,1812422.5,1521533578.0,772230460.5,,0.7175582204594999,-0.09500768812415,-0.002215717140915,0.1605432530355,0.9862240100094999,-0.015799332797949997,0.03658299833265,0.009768396745195,-0.010643242172835498,0.0030006020818049996,-0.002400286759765,-0.01104229773321,-0.007361664828254999,-0.4719820171595,1.8854596614849999,8.266239643095,0.4235279411075,0.4920961409805,0.3120821118355,1812774.5,1521533578.0,760281777.0,,,,,,1317688.5,1521533579.0,325442032.5,,-1.4360000260169998,0.7479999998572501,0.7130012512205001,-0.007000000216069999,-0.3125,-0.17049999535100002,135.0,140.5,195.0,223.0,291.0,209.0,228.0,244.0,277.5,295.5,5.0,0.23999999091150004,0.2100000083437501,-0.5449981689444999,0.01800000015648,-0.014499992131999984,-0.03649999946400001
6,55.1201956154,5512.5,1521533579.0,452880024.0,,1812434.0,1521533578.0,887246224.5,,0.7168908232294999,-0.09510479306535,-0.003033909552895,0.1606078249465,0.9862430564325,-0.015808540965600002,0.0357732652114,-0.001069920337515,-0.006006373296987888,1.2173608475000293e-05,-0.0004745572589749999,0.0028412442692950014,-0.003000572667800001,-0.36196090281,1.86897265911,8.18983697891,0.39481620490549996,0.519922494888,0.2988722473385,1264826.0,1521533578.0,890176767.5,,,,,,1317700.5,1521533579.0,445826803.5,,-2.266000005605,-0.03699999656525,1.58799934387,-0.029000000096849998,-0.27249999344349995,-0.160499997437,146.0,148.0,193.0,208.0,333.0,197.5,213.5,226.0,269.5,297.5,5.0,-0.8299999795880002,-0.7849999964225001,0.8749980926494999,-0.02199999988078,0.040000006556500045,0.009999997914000025
7,55.2227597179,5523.5,1521533579.0,562170505.0,,1812443.0,1521533578.0,977312720.5,,0.7168022440655001,-0.09501412747305,-0.0030253119612450004,0.16080280388,0.9862075012764999,-0.01594931554245,0.03581626294819999,0.002697191737199999,0.012166482234704998,0.007359641873999998,0.012187873026504998,-0.015485403885699998,0.012435564323014998,-0.2978201583025,1.880122303965,8.216271877290001,0.4167927205565,0.555632084608,0.319288313389,1264831.5,1521533578.0,976206312.0,,,,,,1317711.5,1521533579.0,554963379.5,,-1.391000005605,1.9429999927050003,0.6930007934569999,-0.02700000070035,-0.2810000032185,-0.16849999874850002,136.5,155.0,170.0,208.0,312.5,212.0,221.5,233.0,265.0,299.0,5.0,0.875,1.9799999892702504,-0.894998550413,0.0019999993964999983,-0.00850000977500004,-0.008000001311500027
8,55.3253238205,5530.5,1521533579.0,632193446.0,,1812449.5,1521533579.0,42316404.0,,0.7169772535944999,-0.09477521745065,-0.00273546759557,0.16066330767249998,0.986229397973,-0.01560353758965,0.03599034183375,-0.00852152546832,-0.003614011930361,-0.008007101148509999,-0.006702545783195001,0.015712531452850002,0.009508373046765002,-0.4905834794045,1.9504892826050002,8.28854370117,0.3603531718255,0.45762836933150003,0.2952894717455,1812803.0,1521533579.0,45380147.5,,,,,,1317718.5,1521533579.0,624793503.5,,-1.3610000193149998,1.94799998794,-0.0919990539549,-0.014000000432149998,-0.29900000989450004,-0.16849999874850002,141.0,147.0,185.0,194.5,300.5,200.0,210.0,219.0,256.0,310.0,5.0,0.029999986290000225,0.004999995234999721,-0.7849998474119,0.013000000268200002,-0.018000006676000047,0.0
9,55.4278879231,5543.5,1521533579.0,763140439.5,,1812463.0,1521533579.0,177302384.0,,0.7171251183909999,-0.09509450812124999,-0.00261273114513,0.16050004247650002,0.986245826349,-0.015834852623699998,0.036167009414950005,-0.004420476610375,0.018136490572365,-0.0015017778309875,0.01103997870484,0.0017196689027400005,0.015561497603055,-0.443833261728,1.880681395535,8.227144718169999,0.3799680173395,0.5013134032490001,0.301017463207,1264845.5,1521533579.0,177699693.0,,,,,,1317731.5,1521533579.0,755257054.0,,-1.63100001514,-0.351999994181,-0.10199928283675,-0.00999999977648,-0.2985000014305,-0.156500004232,147.0,149.0,163.5,207.0,271.0,211.0,238.0,251.5,267.0,308.0,5.0,-0.2699999958250001,-2.299999982121,-0.010000228881849996,0.0040000006556699975,0.0005000084640000568,0.011999994516500023
10,55.530452025600006,5550.5,1521533579.0,832383990.0,,1812470.0,1521533579.0,247313015.0,,0.7172415808135,-0.09500171051619999,-0.00255120473466,0.16056937774949998,0.986229390213,-0.015841481381700002,0.03630380247225,0.001776772975992,-0.0005660314123500013,0.002540027999255,0.00599100121234,-0.005560131398899999,-0.004511575734949997,-0.501438319683,1.9382079243650001,8.287983894349999,0.36578460037699995,0.474475353956,0.296465009451,1264851.0,1521533579.0,243200498.0,,,,,,1317738.5,1521533579.0,826661077.5,,-0.746000054479,0.12799999508995,0.6730003356934999,-0.02649999968705,-0.282000005245,-0.16250000149,142.5,154.0,159.0,181.0,291.0,224.5,228.0,242.0,276.0,295.0,5.0,0.884999960661,0.47999998927095,0.7749996185302499,-0.01649999991057,0.016499996185499965,-0.005999997257999989
11,55.6330161282,5563.5,1521533579.0,962383031.0,,1812482.0,1521533579.0,367334890.0,,0.716759587328,-0.0949377700407,-0.00276329442159,0.16031550364299998,0.986285816536,-0.0159496295761,0.0358446189508,0.00274578645854,-0.00230109503094,0.00376142955862,0.00124917906668,-0.00439782149821,-0.0040625099848,-0.107400014997,2.04622483253,8.2586183548,0.356990933418,0.648391008377,0.317309856415,1264859.5,1521533579.0,378189789.0,,,,,,1317751.5,1521533579.0,955653577.0,,-0.5510000020265,0.732999999262,1.6979999542250002,-0.017500000074499998,-0.2824999988075,-0.17200000584150002,150.0,156.0,168.0,190.0,263.0,226.0,227.0,251.0,271.5,295.5,5.0,0.19500005245249996,0.60500000417205,1.0249996185315002,0.008999999612550002,-0.0004999935624999674,-0.00950000435150003
12,55.7355802308,5574.5,1521533580.0,72243570.5,,1812496.0,1521533579.0,507314060.5,,0.716854676063,-0.09536776919855,-0.0027518362761350004,0.1605945339965,0.9862370392825,-0.01609843488105,0.03587106436219999,-0.007559099226794499,0.010767562475248502,0.0012214236789000006,0.0143237687823,0.00216484517205,0.0143420176554,-0.057985566556550024,2.479226589205,8.498775005339999,0.303676754236,0.8160208165645,0.31862172484400003,1264869.0,1521533579.0,499700243.0,,,,,,1317762.5,1521533580.0,66591116.5,,-2.48100000918,-1.017000045439,1.26799964905,-0.013999999500835,-0.2614999860525,-0.1374999955295,141.5,155.5,179.0,215.0,260.5,228.0,242.5,257.0,276.0,310.0,5.0,-1.9300000071535002,-1.750000044701,-0.4300003051750001,0.003500000573664999,0.021000012754999964,0.03450001031200001
13,55.8381443333,5583.5,1521533580.0,162600517.0,,1812505.5,1521533579.0,602306423.0,,0.7142010868619999,-0.0939758417571,-0.0006842041214640001,0.161244533583,0.986200422693,-0.01448742969735,0.03462408243225,-0.042233813173200005,0.015996936522605,0.0434743936345,0.0547608416197,0.03509786170165,-0.027649191474450004,-0.875181287527,1.584443569185,11.4840865135,1.042906939982,0.920007646084,0.48280087113349995,716893.0,1521533579.0,595000064.0,,,,,,1317771.5,1521533580.0,157287124.0,,-0.9109999865295,0.21799999866615002,2.993000030515,-0.01849999977275,-0.32949998974800004,-0.166500002146,136.0,150.0,191.5,202.0,286.5,221.0,222.0,235.5,272.0,315.0,5.0,1.5700000226505002,1.23500004410515,1.7250003814650001,-0.004500000271915,-0.06800000369550002,-0.029000006616499985
14,55.9407084359,5592.5,1521533580.0,254579901.5,,1812514.5,1521533579.0,692312725.5,,0.7077862014530001,-0.09363639462375,0.0064160777989450005,0.1629088456115,0.9860593127034999,-0.0145394874597,0.030597356933200006,-0.1102512414849,0.0002436857861700002,0.08954029357269999,0.0022523144817600004,0.1492819257125,-0.025504045940299997,0.7161644548170001,2.255143284795,10.662738323200001,0.3946791291235,1.4660254120799998,0.43634507060050004,1264882.0,1521533579.0,690697950.0,,,,,,1317780.5,1521533580.0,247178125.5,,-1.83100001812,0.30299999210949996,3.433000564575,-0.11300000175830001,-0.39250001311300003,-0.115000002086,142.0,163.5,182.0,186.0,300.5,209.5,217.0,252.0,283.0,326.5,5.0,-0.9200000315904999,0.08499999344334994,0.4400005340599997,-0.09450000198555,-0.06300002336499999,0.051500000059999995
15,56.043272538500005,5602.5,1521533580.0,352255463.0,,1812524.0,1521533579.0,787308085.0,,0.70117640475,-0.0926256337754,0.0184048220413,0.162602315887,0.986163167174,-0.0153057105576,0.0284328999776,-0.0675548603197,0.018501133856,0.14246329050999998,-0.0154426851447,0.024393483377900003,0.0436077161571,2.75185394287,2.45371055603,8.58760356903,0.31683266162900003,1.93423068523,0.462258934975,1264889.0,1521533579.0,790705974.5,,,,,,1317790.5,1521533580.0,346144238.5,,0.7239999741315,0.8030000070095001,2.6879997253400005,-0.06499999761580001,-0.2809999883175001,-0.13050000369550002,148.0,167.0,176.0,182.0,226.0,235.0,273.0,284.0,289.0,324.5,5.0,2.5549999922515,0.5000000149000001,-0.7450008392349994,0.0480000041425,0.11150002479549992,-0.01550000160950002
16,56.145836641,5613.5,1521533580.0,462906479.5,,1812535.5,1521533579.0,902307808.0,,0.6965827139744999,-0.08919110510985001,0.03593271018425,0.161371992961,0.9863157517045,-0.01384436689705,0.03078930065415,0.006674317350914999,0.05796417506135,0.1615749094905,0.109435487697,-0.17567513307250002,-0.0037802655523109,5.9560666084300005,2.8789870739,4.54326653481,0.2392184957865,2.7670283317549997,0.473325535655,716904.5,1521533579.0,896499968.0,,,,,,1317801.5,1521533580.0,457350761.0,,0.418999907374,0.6230000147595001,-0.5720005035392499,-0.08349999785420001,-0.048000001348550016,-0.09900000318865,137.0,153.0,168.5,184.5,199.5,83.0,100.5,107.0,113.0,150.0,5.0,-0.30500006675749997,-0.17999999225000007,-3.2600002288792505,-0.018500000238399997,0.2329999869689501,0.03150000050685002
17,56.248400743599994,5623.5,1521533580.0,562359928.5,,1812543.0,1521533579.0,977611011.0,,0.7001859547660001,-0.0837942447384,0.0476781651503,0.158252268769,0.986563080898,-0.009571789061139998,0.0394700860405,0.048259230718599985,0.07018993400569999,0.14884268682,0.0506372685279,-0.257706803322,0.118295266651,4.88394260406,1.94787919521,3.01489639282,-0.0909898877144,2.3475756645200003,0.338560253382,1812895.0,1521533579.0,965636091.0,,,,,,1317811.5,1521533580.0,556418365.0,,-1.1760000020255,0.5830000091345,-1.5769996643050002,-0.0785000026226,-0.07899999991060001,-0.09250000119225,144.5,150.0,153.5,161.5,165.5,-135.5,-134.5,-131.0,-127.5,-116.5,5.0,-1.5949999093995,-0.04000000562500006,-1.0049991607657502,0.00499999523160001,-0.030999998562049998,0.0065000019963999955
18,56.3509648462,5634.5,1521533580.0,672884583.0,,1812554.0,1521533580.0,87584978.5,,0.704998287777,-0.0770399397754,0.06005893924315001,0.153664352019,0.9869096747125,-0.005369571672825001,0.0486553943198,0.04150648307015,0.0566654181756,0.0919563674191,0.04352653460525,-0.166793090368,0.08532145483539999,3.3593528270699995,1.95734077692,1.1496454477289997,-0.13963325321665,1.7121576666799998,0.33853434026249996,1812907.0,1521533580.0,85642613.0,,,,,,1317822.5,1521533580.0,667435688.0,,-0.9060000210975,0.7830000111845,-2.216999053955,-0.0750000029802,-0.054999999702,-0.0784999988973,119.0,128.0,140.0,161.0,162.0,-205.0,-201.0,-187.5,-180.0,-173.0,5.0,0.2699999809279999,0.20000000205000001,-0.6399993896499998,0.003499999642399998,0.024000000208600013,0.014000002294950006
19,56.4535289487,5643.5,1521533580.0,762134074.5,,1812562.5,1521533580.0,172603304.0,,0.7062780361325001,-0.07325296754275001,0.064464459224,0.151758876387,0.9870590135435,-0.0030862297781300003,0.0517110429926,0.017137108772050002,0.045207971849050003,0.03631528505685,0.052679358848350004,-0.0706947377357,0.0455511331612,3.203775525095,1.619551479815,0.9306478351340001,-0.190361507237,1.6581916213049999,0.301651880145,1812915.0,1521533580.0,165640771.5,,,,,,1317831.5,1521533580.0,757619134.5,,0.5590000122765,1.042999986744,-1.342000961305,-0.0879999995232,-0.0645000021905,-0.0975000001489,102.5,123.0,123.0,129.0,137.0,-213.0,-205.0,-202.0,-196.0,-182.0,5.0,1.4650000333739999,0.25999997555950005,0.8749980926500001,-0.012999996543000006,-0.009500002488500005,-0.019000001251600007
20,56.5560930513,5654.5,1521533580.0,873046517.0,,1812574.0,1521533580.0,287588547.0,,0.7029250057080001,-0.07416413288389999,0.0645243391849,0.150369055154,0.987398107165,-0.00586487475955,0.04898702341519999,-0.07350716347910001,-0.0321657251374,-0.0173380667558,-0.0853168107835,0.177271150599,0.00114833542364,0.293222278357,-0.7817187309270001,4.58090019226,1.11584722996,0.645665884018,0.550295352936,1264923.0,1521533580.0,286831073.0,,,,,,1317842.5,1521533580.0,866785787.5,,-1.1160000294435,1.6029999742299998,-1.72200012207,-0.0869999974966,-0.07349999807775001,-0.08150000125169997,111.0,123.0,125.5,128.5,132.0,-221.0,-216.5,-202.0,-196.5,-187.5,5.0,-1.67500004172,0.5599999874859998,-0.3799991607650002,0.0010000020265999998,-0.008999995887250006,0.015999998897200038
21,56.6586571538,5666.5,1521533580.0,992534995.0,,1812585.5,1521533580.0,402597825.5,,0.6992362548184999,-0.07638365029505001,0.06514130821795,0.149463413815,0.9876903303004999,-0.007556789577125,0.04551176042725,-0.0036966573098485,-0.01792050406404,0.011213687226594998,0.02235000354675,0.0009027265250399996,-0.051016055608750006,2.5663869380950004,0.7368841171264999,6.19864010811,0.6223464608189999,1.3183250427250002,0.446026146412,1264931.5,1521533580.0,401818265.0,,,,,,1317854.5,1521533580.0,986538328.0,,0.08900004327305,1.348000008798,-1.5520000457749998,-0.08850000053645,-0.07550000026824999,-0.06749999895695,92.0,98.0,125.0,129.0,135.0,-219.0,-208.5,-201.5,-195.0,-175.0,5.0,1.20500007271655,-0.2549999654319999,0.17000007629500025,-0.001500003039849998,-0.0020000021904999776,0.014000002294749972
22,56.761221256400006,5676.5,1521533581.0,94238996.0,,1812598.0,1521533580.0,527584134.0,,0.7006104056870001,-0.0771452527789,0.0674337473161,0.15043758193,0.987460195453,-0.00693180938891,0.0473586988613,0.00720679985206,-0.0162919925469,0.020624505094,-0.047228579644400005,-0.017166133641700002,0.0127076868572,0.408163249493,2.2510528564500003,5.53802108765,0.00315459631383,0.691630899906,0.377536326647,1812950.0,1521533580.0,515645470.0,,,,,,1317864.5,1521533581.0,88163276.5,,-0.125999990106,1.4730000088,0.0980014801025,-0.07999999821185,-0.105000000447,-0.07300000265239999,101.0,115.0,123.0,138.0,147.0,-206.0,-200.0,-194.0,-194.0,-173.0,5.0,-0.21500003337905,0.12500000000199996,1.6500015258774998,0.008500002324600006,-0.029500000178750013,-0.005500003695449993
23,56.863785359,5684.5,1521533581.0,172430038.0,,1812606.0,1521533580.0,607591189.0,,0.700276134362,-0.07651071899789999,0.0686696424226,0.149709440483,0.987545900971,-0.00688029178235,0.047883593133300005,-0.0037597741129,0.0187274141056,0.0168608712561,-0.00288579341078,-0.00468691300408,0.0225237312347,2.41563272476,2.49822807312,4.34497356415,-0.235246673226,1.20665848255,0.284194469452,1812958.5,1521533580.0,600650330.0,,,,,,1317872.5,1521533581.0,166068846.5,,-1.0360000461345,1.27300000582,-1.312000274655,-0.09099999815225,-0.06450000032785,-0.05350000038745,110.5,115.0,121.0,127.5,150.0,-188.5,-186.0,-182.0,-176.0,-170.0,5.0,-0.9100000560285,-0.20000000297999998,-1.4100017547575,-0.010999999940400004,0.040500000119150004,0.019500002264949988
24,56.966349461499995,5697.5,1521533581.0,303839445.0,,1812618.5,1521533580.0,732587796.0,,0.701096172149,-0.07290209225639999,0.06993752964104999,0.149440456359,0.9875259695724999,-0.00495510046993,0.049348527927500004,-0.00989059668629,0.01780433425555,-0.00952838158233,0.006016273776793501,0.00586600707729,0.021208503284285,1.5856850743300002,0.8642948567865001,4.387706279750001,0.3941246569155,1.183108985425,0.4074861109255,1812971.0,1521533580.0,725634816.0,,,,,,1317885.5,1521533581.0,296845215.0,,-0.3110000520945,0.1380000153556,-2.416999816895,-0.07499999925494999,-0.06299999915065001,-0.05800000019375,84.5,93.5,109.0,116.0,150.0,-150.0,-147.5,-142.0,-137.5,-130.0,5.0,0.72499999404,-1.1349999904644,-1.1049995422400003,0.015999998897300013,0.0015000011771999916,-0.004499999806299997
25,57.0689135641,5706.5,1521533581.0,392148494.0,,1812627.5,1521533580.0,822597426.5,,0.6996810676915001,-0.07197275133494999,0.06890613631225001,0.148036157966,0.9877829275595,-0.005498959787764999,0.048371724633200004,-0.019917641764850003,-0.001223596398315,-0.007888141556295001,-0.0192353393398,0.033804787523,0.007979762903401999,3.638367652895,2.23310685158,4.874139547344999,-0.24422392994150002,1.756352901455,0.25697979331,1812980.0,1521533580.0,815640491.0,,,,,,1317894.5,1521533581.0,388155092.5,,-1.446000012755,0.8880000023174999,-1.0570011138900002,-0.08499999716880001,-0.058500001207,-0.06200000084935,94.5,101.0,105.5,127.5,155.0,-156.5,-155.0,-150.0,-142.0,-128.0,5.0,-1.1349999606605,0.7499999869618998,1.359998703005,-0.00999999791385002,0.004499997943650004,-0.0040000006556000015
26,57.1714776667,5718.5,1521533581.0,512137055.0,,1812638.0,1521533580.0,926749004.0,,0.700563395936,-0.07213058549569999,0.0692093318011,0.148457472973,0.987685330369,-0.0050218725617200005,0.0491207460159,0.000811778332906,-0.00281225309222,0.00487699641683,0.0153056710757,-0.00543410209984,-0.012797401592899998,3.18717861176,1.57872450352,5.0471611022900005,0.104833938181,1.70901584625,0.361805379391,1812991.0,1521533580.0,925218393.5,,,,,,1317906.5,1521533581.0,507854776.5,,-1.7460000153650002,1.4129999915149998,-1.1319999694849998,-0.08300000056625001,-0.06899999827150001,-0.06799999810755,85.5,102.0,111.5,119.0,151.0,-183.0,-177.5,-173.5,-167.0,-159.0,5.0,-0.30000000261000026,0.5249999891974999,-0.07499885559499964,0.00199999660255,-0.010499997064500007,-0.005999997258200003
27,57.274041769200004,5726.5,1521533581.0,592215537.5,,1812645.0,1521533580.0,996749179.0,,0.7001438620029999,-0.0717281575067,0.06953986773310003,0.148413450214,0.987713328194,-0.00506938791095,0.0486839851482,0.00477270249635,0.00422437508752,0.00739120211535,-0.00868911706313,-0.0157980037817,0.0281344195317,2.39615011215,2.04196739197,4.3804111480699985,-0.146544128656,1.30228257179,0.322390854359,1264974.0,1521533581.0,5905301.5,,,,,,1317914.5,1521533581.0,588461960.5,,-1.701000011715,1.5829999783999995,-3.211999893185,-0.06000000052155001,-0.06000000052155,-0.08850000053644999,87.0,90.5,111.0,119.5,149.0,-192.5,-190.0,-178.0,-171.5,-166.0,5.0,0.04500000365000023,0.16999998688499973,-2.0799999237,0.0230000000447,0.008999997749950008,-0.020500002428899988
28,57.3766058718,5736.5,1521533581.0,692207455.0,,1812656.0,1521533581.0,106745611.0,,0.700162663363,-0.0719602330932,0.0691353864403,0.148345034327,0.987719302481,-0.00526786282773,0.0487501786392,0.011813946707799998,-0.008737510449379999,0.007257222404560002,-0.0185820197304,-0.0185726336839,0.00842911752057,2.87032794952,2.4510974884,4.2207241058300005,-0.397907197475,1.43995416164,0.248080581427,1813009.0,1521533581.0,104836883.0,,,,,,1317924.5,1521533581.0,687603105.5,,-0.6260000497105,1.04800000433,-1.50200080872,-0.0815000012517,-0.055500000715250006,-0.06550000235435,95.5,108.0,113.0,121.0,143.5,-201.0,-194.5,-187.0,-179.0,-169.0,5.0,1.0749999620044999,-0.5349999740699996,1.7099990844649997,-0.021500000730149987,0.004499999806299997,0.022999998182099995
29,57.479169974399994,5747.5,1521533581.0,802311539.5,,1812667.0,1521533581.0,216768056.5,,0.7001376543060001,-0.07073276969445,0.0690495709028,0.147591326178,0.9878189480985001,-0.0048121625809700004,0.0490622466175,-0.009842264068025,0.02550903455295,-0.009712850161251502,0.017707961372099998,0.007919480289435,0.024901910174098003,3.28132390976,2.024149119855,4.845692873005,-0.06308826617919999,1.6256885528600002,0.32739005982900005,1813020.0,1521533581.0,214833694.0,,,,,,1317935.5,1521533581.0,798328964.0,,-0.991000029445,0.297999996878,-0.7019996643070001,-0.09200000017885002,-0.06900000199675001,-0.06500000134110001,103.0,111.5,122.5,123.5,136.0,-183.5,-178.0,-169.0,-165.0,-165.0,5.0,-0.36499997973449994,-0.7500000074519999,0.800001144413,-0.01049999892715002,-0.013500001281500001,0.0005000010132499844
30,57.5817340769,5759.5,1521533581.0,922220945.0,,1812679.0,1521533581.0,336789618.0,,0.7010298546085,-0.06965073332985,0.06959835633835001,0.14752967368249995,0.9877825891325,-0.00375225769371,0.05006444882905,0.015687277202155,-0.005681696952334999,0.01016733374314,-0.0023396388504599987,-0.030375488791749998,-0.007418665790515,2.16355597973,1.3866969347,4.565194368359999,0.12756711477437,1.2872818112399995,0.3715789318085,1264996.5,1521533581.0,322440994.0,,,,,,1317947.5,1521533581.0,919474586.0,,-0.4110000163315,0.393000010587,-1.2119998931899998,-0.07499999925494999,-0.05849999934435,-0.0580000001937,107.0,110.0,120.0,124.0,133.0,-168.5,-165.5,-155.5,-151.0,-147.0,5.0,0.5800000131134999,0.09500001370900002,-0.5100002288829997,0.017000000923900027,0.01050000265240001,0.007000001147400008
31,57.6842981795,5766.5,1521533581.0,992147564.5,,1812685.5,1521533581.0,401786131.5,,0.700983090589,-0.0690866158541,0.06971609825830001,0.14697701744,0.9878564772555,-0.0038097533063499995,0.050226431983199996,-0.0012280544861999994,-0.0037713250168449996,-0.003306240480835,-0.0006767166752445,0.010659299201339996,-0.0093727602482085,2.728224635125,1.665561139585,4.355971574780001,0.00782875251025,1.446123182775,0.35256402194500003,716964.0,1521533581.0,409999872.0,,,,,,1317954.5,1521533581.0,989477536.5,,-0.7359999746085,1.60299998913,-0.8369998931885001,-0.0905000008643,-0.05949999950825,-0.0905000008643,98.5,103.5,124.0,132.0,139.0,-191.5,-188.5,-181.0,-175.5,-164.5,0.0,-0.32499995827699996,1.209999978543,0.3750000000014997,-0.015500001609350014,-0.0010000001639000056,-0.0325000006706
32,57.7868622821,5779.5,1521533582.0,123427510.0,,1812700.5,1521533581.0,551781670.0,,0.700270930409,-0.06978813222934999,0.06901991213175,0.1467045378125,0.987935112886,-0.004362894128365,0.0494228131585,-0.008722523823720001,0.005943380542105,0.0002251018587349999,-0.010035692238950001,0.007823328819599998,0.021833696037500003,2.97592353821,1.7817271947850002,4.850632429120001,-0.022421149536988497,1.5711787343,0.3330333232875,1813053.0,1521533581.0,544839539.0,,,,,,1317967.5,1521533582.0,118243703.0,,-1.25600001514,1.82299998794,-3.092000961305001,-0.0675000026822,-0.05150000005965,-0.0954999998212,93.0,101.5,106.0,123.0,146.0,-222.0,-217.5,-202.0,-200.0,-186.0,-1.0,-0.5200000405315,0.2199999988100001,-2.255001068116501,0.02299999818210001,0.007999999448600005,-0.004999998956899995
33,57.8894263846,5787.5,1521533582.0,202278017.5,,1812708.0,1521533581.0,626788617.5,,0.7012955110789999,-0.06981327909195001,0.06940722038614999,0.14749651653249998,0.9877752735545,-0.003972510245855,0.050286690857750005,0.00198290629498,-0.0008649974437150014,0.0008238836099449991,-0.003508673295949997,-0.002782674149625,-0.0013422020674200002,3.3528423309300006,1.98462945223,4.59349298477,-0.11208803951725001,1.66287052631,0.30790692567850003,1813061.0,1521533581.0,624854724.0,,,,,,1317975.5,1521533582.0,199833966.5,,-0.13099998533749999,1.1879999900254998,-1.506999969485,-0.08650000020860002,-0.06399999931455,-0.09350000321879999,86.0,92.0,93.0,122.0,125.5,-215.5,-212.5,-206.0,-197.5,-191.0,-1.0,1.1250000298025,-0.6349999979145002,1.585000991820001,-0.018999997526400025,-0.012499999254900002,0.0019999966024000088
34,57.991990487200006,5796.5,1521533582.0,292361497.5,,1812718.5,1521533581.0,731789784.5,,0.7016769863315,-0.06988532071760001,0.069773683832,0.147290994957,0.987789355901,-0.00382477388041,0.0506242591582,-0.0004262383207000002,-0.00440527012417,0.002658629401895,-0.0002991409331550001,0.00014673475695000174,-0.009407077463869998,2.71081292629,2.198506236075,4.302118062969999,-0.3242832124235,1.4181712269749998,0.24645993113500006,1265024.5,1521533581.0,725430451.5,,,,,,1317984.5,1521533582.0,289715370.0,,-1.291000019015,1.843000028465,-1.136999130245,-0.08499999716880001,-0.0590000003576,-0.07500000298025,84.5,92.0,111.5,114.0,142.0,-228.0,-223.0,-219.0,-205.0,-191.0,-1.0,-1.1600000336775,0.6550000384395003,0.37000083924000005,0.0015000030398000103,0.004999998956949997,0.018500000238549988
35,58.0945545897,5810.5,1521533582.0,432251453.0,,1812732.0,1521533581.0,866787240.0,,0.701874716303,-0.0696392152325,0.06979356950639999,0.147632383903,0.987747186948,-0.0034059618922,0.0504833965131,0.014058868559,0.0150140385735,0.005000547392439999,0.0171949149596,-0.0269881551022,0.0191846322614,3.37828111649,2.32210302353,4.4408903121900005,-0.419036269188,1.59331071377,0.207615897059,716983.0,1521533581.0,867000064.0,,,,,,1317998.5,1521533582.0,428400628.5,,-1.886000012235,1.4480000177399999,-1.091999053955,-0.08799999952314999,-0.06599999964240001,-0.08800000324844999,80.0,94.0,104.0,111.5,116.0,-234.0,-228.5,-211.0,-205.5,-191.0,-1.0,-0.5949999932200001,-0.39500001072500024,0.045000076290000024,-0.0030000023543499815,-0.00699999928480001,-0.013000000268199988
36,58.197118692299995,5816.5,1521533582.0,492166518.5,,1812737.0,1521533581.0,916783885.0,,0.702613517611,-0.06880275083069999,0.0702041380734,0.147451760786,0.98772666299,-0.00298672970333,0.0514305055847,0.0245280306138,-0.010732015178200004,0.00920340764116,-0.00309786883921,-0.040280684945,-0.0257817175313,2.97032690048,1.96852731705,4.3479218483,-0.209255665541,1.54234027863,0.279704093933,716984.0,1521533581.0,915000064.0,,,,,,1318004.5,1521533582.0,489959874.0,,-1.58600001335,0.6930000001565001,-1.6319999694799998,-0.0799999982119,-0.0559999998659,-0.102499999106,86.0,92.5,104.0,114.0,116.0,-235.0,-229.0,-213.0,-206.0,-187.0,-1.0,0.29999999888499995,-0.7550000175834998,-0.5400009155249998,0.00800000131124999,0.009999999776500013,-0.014499995857550005
37,58.2996827949,5828.5,1521533582.0,612195491.5,,1812748.0,1521533582.0,26783919.0,,0.702270988512,-0.06908608832205,0.07021069619520001,0.14766416382050002,0.987714730248,-0.003197302686265,0.0510345004113,0.003806996464345,0.00890014704613,0.003902174671985,0.001717514335365,-0.00404661238334,0.0018975055446999976,3.749964356420001,2.2950955629350003,4.043415784835,-0.3723973184825,1.657679498195,0.210439518094,1813101.0,1521533582.0,24837738.5,,,,,,1318016.5,1521533582.0,608347179.0,,-1.316000002625,1.2879999989650002,-0.437000274658,-0.08650000020865,-0.06299999915065001,-0.08200000226499997,91.0,106.5,113.0,117.5,133.0,-230.0,-215.0,-214.5,-213.0,-189.0,-1.0,0.270000010725,0.5949999988085001,1.1949996948219999,-0.006500001996749993,-0.006999999284750008,0.020499996841000026
38,58.4022468974,5840.5,1521533582.0,732189058.5,,1812760.0,1521533582.0,146781593.0,,0.702671805047,-0.06830891895415,0.07027357784374999,0.147025816014,0.987785164217,-0.00284219994094,0.051533387461950006,0.0071575366372149994,0.0018665341257950007,0.004210494443981,0.005639804526865,-0.015493366019299999,-0.008957515966495001,3.27450299263,2.1070381403000003,4.3013036251050005,-0.333503499627,1.5627892017349998,0.2324384227395,1813112.0,1521533582.0,134859140.0,,,,,,1318028.5,1521533582.0,730804342.5,,-1.0960000187165,-0.1069999894125,-2.677000045775,-0.06949999928475001,-0.07899999991060001,-0.08850000053644999,94.0,94.0,95.5,118.5,128.0,-221.5,-216.5,-205.0,-198.0,-191.0,-1.0,0.21999998390850006,-1.3949999883775002,-2.2399997711169997,0.017000000923899986,-0.016000000759950006,-0.006499998271450022
39,58.504811,5850.5,1521533582.0,832154988.5,,1812770.0,1521533582.0,246795952.0,,0.7024599536024999,-0.06846045365025,0.07034827234055001,0.1470506769835,0.9877917377465,-0.002967006894565,0.05132906450375,-0.0014462573882399984,0.0046460509346,-0.003199441110125,0.0039406502666999976,0.00119046595705,0.0024805088619899995,3.824232935905,2.2974321842200003,4.003700017930001,-0.4367163777355,1.66397637129,0.164728231728,1813122.0,1521533582.0,234835460.0,,,,,,1318038.5,1521533582.0,828581778.5,,-2.1960000127550003,-0.6220000049100001,-2.7420005798350005,-0.07500000298025,-0.058999998495,-0.08399999886750001,103.0,106.0,113.0,121.0,126.0,-217.5,-213.5,-211.5,-208.0,-190.0,-1.0,-1.0999999940385004,-0.5150000154975001,-0.06500053406000061,-0.005500003695499994,0.020000001415600016,0.004500001668949982
