,Unnamed: 0,.header.seq,.header.stamp.secs,.header.stamp.nsecs,.header.frame_id,.endpoint_state.header.seq,.endpoint_state.header.stamp.secs,.endpoint_state.header.stamp.nsecs,.endpoint_state.header.frame_id,.endpoint_state.pose.position.x,.endpoint_state.pose.position.y,.endpoint_state.pose.position.z,.endpoint_state.pose.orientation.x,.endpoint_state.pose.orientation.y,.endpoint_state.pose.orientation.z,.endpoint_state.pose.orientation.w,.endpoint_state.twist.linear.x,.endpoint_state.twist.linear.y,.endpoint_state.twist.linear.z,.endpoint_state.twist.angular.x,.endpoint_state.twist.angular.y,.endpoint_state.twist.angular.z,.endpoint_state.wrench.force.x,.endpoint_state.wrench.force.y,.endpoint_state.wrench.force.z,.endpoint_state.wrench.torque.x,.endpoint_state.wrench.torque.y,.endpoint_state.wrench.torque.z,.joint_state.header.seq,.joint_state.header.stamp.secs,.joint_state.header.stamp.nsecs,.joint_state.header.frame_id,.joint_state.name,.joint_state.position,.joint_state.velocity,.joint_state.effort,.wrench_stamped.header.seq,.wrench_stamped.header.stamp.secs,.wrench_stamped.header.stamp.nsecs,.wrench_stamped.header.frame_id,.wrench_stamped.wrench.force.x,.wrench_stamped.wrench.force.y,.wrench_stamped.wrench.force.z,.wrench_stamped.wrench.torque.x,.wrench_stamped.wrench.torque.y,.wrench_stamped.wrench.torque.z,.tactile_values.tactile_values_0,.tactile_values.tactile_values_1,.tactile_values.tactile_values_2,.tactile_values.tactile_values_3,.tactile_values.tactile_values_4,.tactile_values.tactile_values_5,.tactile_values.tactile_values_6,.tactile_values.tactile_values_7,.tactile_values.tactile_values_8,.tactile_values.tactile_values_9,.tag,.delta_wrench.force.x,.delta_wrench.force.y,.delta_wrench.force.z,.delta_wrench.torque.x,.delta_wrench.torque.y,.delta_wrench.torque.z
0,53.861334,5383.5,1521543523.0,837475538.0,,2806843.5,1521543522.0,981835167.0,,0.750044035523,-0.100970325952,0.002494370829385,0.4587584900775,0.8883382249145,-0.004752197118560001,-0.01931588072095,-0.02003563389785,-0.00634050235321,-0.009025064651885,-0.02850439940175,0.0392632124059,0.016333770804000003,1.6514975428549998,1.057773828505,5.589637041095001,0.1210265606645,0.8442876935004999,0.35055521130600004,2807196.5,1521543522.0,979917224.0,,,,,,2311097.5,1521543523.0,834880358.5,,-0.8660001277909999,-0.7309999927874999,0.5229999542235,-0.04700000025335,-0.155999995768,-0.0390000008047,2.5,6.0,10.0,21.0,45.0,-89.0,-86.0,-83.5,-76.0,-67.0,5.0,0.0,0.0,0.0,0.0,0.0,0.0
1,53.963898102600005,5394.5,1521543523.0,947468995.5,,2806854.5,1521543523.0,91836427.5,,0.7503314377204999,-0.101365811834,0.002427370972575,0.4590045815635,0.8882154581649999,-0.0046416431774700005,-0.019141687359900003,-0.004538014147335,-0.00883241168035,-0.003155371231711,-0.004194637709378501,0.011793219782495,-0.00841195076635,1.8335313797,0.8889997303485,5.657471418380001,0.232128083706,0.942746400833,0.374723553658,2807207.5,1521543523.0,89899330.5,,,,,,2311108.5,1521543523.0,945056728.0,,-1.0009998798354998,-0.5609999993803001,1.4630004882799998,-0.03800000064075,-0.16449999809250002,-0.0465000011027,7.0,13.0,18.5,37.0,67.0,-91.5,-89.5,-77.0,-67.0,-60.5,5.0,-0.13499975204449988,0.16999999340719985,0.9400005340564999,0.0089999996126,-0.008500002324500017,-0.007500000297999999
2,54.0664622051,5402.5,1521543524.0,27490496.0,,2806862.5,1521543523.0,171832203.5,,0.750174084726,-0.10128900465500001,0.0024549392525549996,0.4590323092475001,0.888197242846,-0.004722649939154999,-0.01930210979165,0.007127581253015001,-0.01152498330789,0.005312329348619999,-0.0020981754849200007,-0.00981313343675,-0.008506989761600001,1.82134580612,0.9676472842695,5.575765132900001,0.15254272148,0.8821250200269999,0.342296138406,2807214.5,1521543523.0,159900983.5,,,,,,2311116.0,1521543524.0,20862102.0,,-0.9209999561319999,-0.8110000003129999,0.77799911499,-0.050000000745050004,-0.15600000321899998,-0.0469999983907,14.0,16.0,31.0,33.0,34.5,-87.5,-85.0,-76.5,-69.5,-67.0,5.0,0.07999992370349984,-0.2500000009326998,-0.6850013732899999,-0.012000000104300003,0.008499994873500033,-0.0004999972880000009
3,54.1690263077,5414.5,1521543524.0,147791504.0,,2806873.0,1521543523.0,277182347.0,,0.750505228952,-0.101224152396,0.0026492148840900004,0.459091080596,0.8881738442749999,-0.00440466153638,-0.019057833527,0.00246535188458,-0.00924884937838,-0.0040759684334,-0.00352703982608,-6.20086743e-05,-0.0158952163826,2.30058956146,1.12763166428,5.623295784,0.08081743121150001,1.08279752731,0.352689087391,1958730.0,1521543523.0,274458884.5,,,,,,2311128.5,1521543524.0,145812864.0,,-1.17099995613,-1.5709999907749999,1.137997817995,-0.054999999702,-0.16349999606600002,-0.018500000238450002,8.0,12.5,24.0,29.0,39.0,-84.5,-81.5,-78.5,-74.0,-65.5,5.0,-0.24999999999800004,-0.759999990462,0.35999870300500014,-0.004999998956949997,-0.0074999928470000365,0.02849999815225
4,54.2715904103,5423.5,1521543524.0,237553476.5,,2806881.0,1521543523.0,357184810.0,,0.7510840509235001,-0.1009477460045,0.00270671817194,0.45947125936300004,0.887989727316,-0.0040615737750349995,-0.0185411094087,0.022637068383150005,-0.007555937965662502,0.010020433961875002,-0.0006603604879649997,-0.042375614520399986,-0.01219734084484,1.44445484877,0.859918296337,5.636051893235002,0.24463502317650002,0.791090220213,0.3510185778145,2807234.0,1521543523.0,355276215.0,,,,,,2311137.5,1521543524.0,236105815.0,,-0.5310000896455,-0.55599999018,1.283000183105,-0.03949999995530001,-0.161000005901,-0.0374999996275,12.0,17.0,18.0,31.5,47.5,-84.0,-83.0,-80.0,-73.0,-69.5,5.0,0.6399998664844999,1.0150000005949997,0.14500236510999986,0.015499999746699994,0.002499990165000021,-0.01899999938905
5,54.3741545128,5435.5,1521543524.0,357488989.5,,2806893.0,1521543523.0,477184760.0,,0.7508261887745,-0.10119454355249999,0.002773662243765,0.4588577938685,0.888302688969,-0.0044692983359000005,-0.01864850247415,0.0024865914031,-0.00186908050096835,-0.0012411024027599998,0.0007102817247999996,-0.005795123426599998,-0.00529372793443,1.6082461476299998,0.9783562123755,5.627698898315001,0.11202803254100001,0.8478225767609999,0.3218922764065,2807245.0,1521543523.0,465283322.0,,,,,,2311149.0,1521543524.0,350301007.0,,-0.0660001754761,-1.64099999852,1.0730010986299998,-0.0410000011325,-0.158999994397,-0.0520000010729,9.0,10.0,13.0,15.0,49.0,-89.0,-85.0,-79.5,-76.0,-71.0,5.0,0.46499991416940006,-1.0850000083399998,-0.20999908447500015,-0.0015000011771999916,0.0020000115040000044,-0.0145000014454
6,54.4767186154,5445.5,1521543524.0,458044051.5,,2806903.0,1521543523.0,577181969.0,,0.7505295540144999,-0.1014982435265,0.0024618156051749995,0.45938367547349995,0.8880213288234999,-0.004646316745885001,-0.0190456817827,-0.007651029825235001,-0.0068208640248200005,-0.010884598228459998,-0.0006731360914999997,0.019105464955445,-0.0028009522482999997,1.8445886969600005,0.9317840635765,5.64368605614,0.1343928910792,0.892463117838,0.31687718629850004,2807256.0,1521543523.0,575273281.5,,,,,,2311159.5,1521543524.0,457427201.0,,-0.1810001850128,-0.8960000012085,0.9180004119875,-0.03949999995530001,-0.1579999998215,-0.026000000536400003,8.5,19.5,24.0,43.0,46.0,-92.0,-84.0,-79.0,-73.0,-67.0,5.0,-0.11500000953669999,0.7449999973114999,-0.15500068664249977,0.0015000011771999916,0.000999994575499985,0.0260000005365
7,54.5792827179,5456.5,1521543524.0,567516922.0,,2806913.0,1521543523.0,677180594.5,,0.750775400696,-0.101025198253,0.00289632265072,0.4588074484575,0.8883278304665001,-0.004442291606745,-0.01869177201325,0.0010218201045550002,-0.011237234867709998,-0.000973265716645,-0.009892453129974998,-5.415004290099996e-05,-0.03011305656555,1.8280019760150001,0.889517724514,5.607287406919999,0.165528930724,0.917956471443,0.3280684649945,1958759.5,1521543523.0,692118800.0,,,,,,2311170.5,1521543524.0,566680485.5,,-0.200999927521,-0.4909999925645,1.072999191285,-0.03649999946355,-0.1689999997615,-0.03949999995530001,10.0,15.0,33.5,52.5,86.0,-79.0,-77.5,-75.0,-70.0,-61.0,5.0,-0.019999742508199997,0.405000008644,0.15499877929750006,0.0030000004917500045,-0.010999999940000005,-0.013499999418900004
8,54.6818468205,5463.5,1521543524.0,637498021.0,,2806921.0,1521543523.0,757181945.0,,0.7505880150650001,-0.100626705176,0.00252230722657,0.458460191216,0.888502548582,-0.00422814700911,-0.0189630431421,-0.00610938618637,0.0133481411685,0.00222389078204,-0.0034209046462300003,0.00482795244305,0.0514564774893,1.56667995453,0.933192074299,5.6264767646800005,0.106224223971,0.819976389408,0.295873612165,1958764.0,1521543523.0,747623148.5,,,,,,2311177.5,1521543524.0,635557772.5,,-0.335999917984,-0.6959999907759999,0.9579994201659999,-0.035000000149,-0.167000003159,-0.0285000000149,17.5,20.5,25.0,39.5,51.5,-82.0,-81.5,-78.0,-76.5,-63.0,5.0,-0.13499999046299999,-0.20499999821149995,-0.11499977111900017,0.001499999314549999,0.001999996602500026,0.010999999940400008
9,54.784410923100005,5475.5,1521543524.0,757606506.0,,2806935.5,1521543523.0,902185099.0,,0.7506091726015001,-0.1010811269,0.0022761675105700003,0.459022352651,0.888210003276,-0.004400151977069999,-0.01902305075895,0.00346476638896,-0.002279885936232,-0.0035828884055399994,-0.002480148133218,-0.009316611657695002,0.010019787513950001,1.9441530704499999,1.0723133683200001,5.598968505859999,0.009484754875299995,0.9312075078485,0.307340666652,2807288.0,1521543523.0,895275228.0,,,,,,2311189.5,1521543524.0,756505191.0,,-0.9360000610344998,-1.1860000059,-0.19700126647955,-0.0180000001565,-0.1689999997615,-0.0384999997914,9.0,13.0,15.0,23.5,41.5,-88.5,-86.0,-82.0,-77.0,-65.5,5.0,-0.6000001430504999,-0.49000001512400004,-1.15500068664555,0.016999999992500004,-0.001999996602500026,-0.009999999776500002
10,54.8869750256,5483.5,1521543524.0,838494538.5,,2806943.5,1521543523.0,982180101.5,,0.7509012924305001,-0.1008063328225,0.002735610970915,0.459024374442,0.8882157723349999,-0.00407527531663,-0.01876955576805,-1.7644524819999778e-05,-0.0033952951174465,-0.004795488187180001,-0.009130160967195,0.00017969929084999878,-0.0008197807194950005,1.813196241855,0.9252680242045,5.59249472618,0.09268628805900002,0.8940905630589999,0.292358905077,2807296.5,1521543523.0,980277109.5,,,,,,2311197.5,1521543524.0,835398465.5,,0.4540000438675,-1.2760000038875,-0.07199935913104999,-0.01699999999255,-0.17899999767549998,-0.0480000004172,10.5,17.0,21.0,25.0,40.0,-86.0,-85.5,-84.0,-67.0,-65.0,5.0,1.3900001049019999,-0.08999999798749991,0.1250019073485,0.0010000001639500003,-0.00999999791399997,-0.009500000625799997
11,54.98953912819999,5494.5,1521543524.0,955085515.5,,2806955.0,1521543524.0,97180262.0,,0.750650014276,-0.100808928519,0.00276117760197,0.458725768439,0.8883683586769999,-0.00440321697671,-0.0187867067797,-0.0101719567257,0.00351749038555,-0.0029690983906,0.00125356258163,0.0239383927576,-0.0101166012928,1.5147548913999995,1.06910514832,5.51813316345,0.0135508477688,0.769725203514,0.29568362235999995,2807308.0,1521543524.0,95273898.0,,,,,,2311209.0,1521543524.0,949931653.0,,0.964000034332,0.49899998717,-0.5869987487789999,-0.0209999997169,-0.172999992967,-0.09000000357629999,9.0,13.0,25.0,42.0,96.0,-92.0,-91.0,-82.0,-81.0,-67.0,5.0,0.5099999904645001,1.7749999910574998,-0.5149993896479499,-0.003999999724350001,0.006000004708499984,-0.04200000315909999
12,55.0921032308,5507.5,1521543525.0,83670019.5,,2806968.0,1521543524.0,227181309.0,,0.7508476241750001,-0.101479786928,0.0025943829552199996,0.4591285340985,0.8881613015445,-0.004368287513825,-0.01874335895855,-0.0037138593827915,-0.006264090210699999,-0.005666854767030001,-0.00990364027689,0.008642070272659999,-0.0037916663361499993,1.90110707283,1.1239619255100002,5.60731911659,0.028060346841799998,0.910447776318,0.289953306317,2807320.5,1521543524.0,220289426.5,,,,,,2311222.0,1521543525.0,80238587.5,,0.6789999485014999,-0.1610000092535,1.0279991149905,-0.0460000000894,-0.16200000047649998,-0.06250000186265,9.5,22.5,35.5,52.0,61.0,-88.0,-84.0,-81.0,-75.5,-62.0,5.0,-0.28500008583050007,-0.6599999964234999,1.6149978637694997,-0.0250000003725,0.010999992490500016,0.027500001713649982
13,55.194667333299996,5516.5,1521543525.0,168429016.5,,2806974.0,1521543524.0,287424767.0,,0.750496519118,-0.100421901374,0.00277078903576,0.458943242899,0.888249234907,-0.00406458360773,-0.0191800845785,0.0107668608094,0.0033305608185100004,-0.0016217398805799998,0.0139907962001,-0.0179934807043,-0.0198516688225,1.87412595749,0.946489691734,5.56122732162,0.116201862693,0.921945214272,0.310387581587,2807326.5,1521543524.0,280500309.0,,,,,,2311230.0,1521543525.0,160629543.0,,0.464000034332,-0.390999998525,0.882998657227,-0.0460000000894,-0.15000000596,-0.0670000016689,10.0,24.0,41.5,46.0,54.5,-87.0,-85.0,-83.0,-73.5,-67.5,5.0,-0.21499991416949993,-0.2299999892715,-0.1450004577634999,0.0,0.011999994516499995,-0.004499999806249988
14,55.2972314359,5526.5,1521543525.0,269806504.0,,2806984.0,1521543524.0,387431883.0,,0.7507897894760001,-0.101587084432,0.00250946853054,0.459412402728,0.888011023883,-0.00453372859097,-0.0188709031804,-0.00877168804413,0.0239049867415,-0.00284309025883,0.017271307759599997,0.00561632767448,0.0262414479195,1.46609604359,0.871122777462,5.63051843643,0.14835560321799998,0.763436615467,0.3222476542,1958808.0,1521543524.0,390760948.0,,,,,,2311240.5,1521543525.0,267036509.5,,0.3789999961855,-1.0560000050815002,0.5330001831055,-0.028499999083599997,-0.1635000035165,-0.0635000001639,2.5,8.0,17.5,20.5,31.5,-88.0,-84.5,-81.0,-75.0,-67.0,5.0,-0.08500003814649998,-0.6650000065565002,-0.3499984741215,0.017500001005800004,-0.013499997556499999,0.003500001504999989
15,55.3997955385,5538.5,1521543525.0,387588023.5,,2806995.0,1521543524.0,497428377.5,,0.7504946141000001,-0.1013877084035,0.002479185400045,0.459245976821,0.8880911130410001,-0.004675951258760001,-0.019100440135300004,-0.0028732817048090003,0.0033044238641545,-0.003124398466155,0.00323803360295,0.00957075598327,0.01005921500875,1.7993575930550003,0.6735022068025001,5.6059267520899985,0.22006319463245005,0.8835945129414999,0.295673087239,1958816.0,1521543524.0,500762459.0,,,,,,2311252.5,1521543525.0,386419152.5,,-0.0959999084474,-1.331000011045,0.7679988861079999,-0.02749999985095,-0.155000001192,-0.056500000879150004,11.0,13.5,21.0,25.5,57.0,-90.0,-82.0,-79.0,-74.5,-70.5,5.0,-0.4749999046329,-0.2750000059634998,0.23499870300249992,0.000999999232649998,0.008500002324499989,0.006999999284750001
16,55.502359641000005,5546.5,1521543525.0,467527508.0,,2807003.0,1521543524.0,577453043.0,,0.750423822802,-0.100880893289,0.0028420499510900003,0.458613223738,0.888424364874,-0.004715283551560001,-0.0188102368786,-0.0013110413249300002,0.015976486735200003,0.0103778280175,0.00932610799868,0.00093175715515,0.0311041061675,2.04213356972,0.770099759102,6.41008758545,0.0271883048117,1.10220789909,0.270271480083,1958821.0,1521543524.0,581262302.0,,,,,,2311260.5,1521543525.0,466841896.5,,-1.7909999609,-2.2260000366700003,1.297997665405,-0.0255000004545,-0.18400000035750003,-0.047500001266599985,15.0,24.0,25.0,27.0,31.0,-87.5,-85.5,-79.0,-75.0,-73.0,5.0,-1.6950000524526,-0.8950000256250004,0.5299987792970001,0.00199999939645,-0.02899999916550003,0.00899999961255002
17,55.6049237436,5555.5,1521543525.0,557814478.5,,2807013.0,1521543524.0,677428494.0,,0.745199301468,-0.103515991512,0.005913243785670001,0.4588103657415,0.8881665608845,-0.0103789142005,-0.023325909470849997,-0.09729997087795,-0.028884760736300006,0.0474330161993,-0.09771911404915,0.232672379062,0.028239187187395,1.581989347935,1.27830672264,8.802456855775,-0.03535756701605001,1.0735379755475,0.28506931662549995,2807365.0,1521543524.0,665507141.0,,,,,,2311269.0,1521543525.0,551912403.0,,-0.25599975585900003,-2.02099999376,1.15299911499,-0.0489999987185,-0.18000000715300002,-0.0489999987185,18.0,23.5,25.5,29.5,43.0,-85.0,-84.0,-82.0,-68.0,-64.5,5.0,1.5350002050409999,0.2050000429100005,-0.14499855041499998,-0.023499998264,0.0039999932045000075,-0.0014999974519000134
18,55.707487846199996,5567.5,1521543525.0,677520513.0,,2807027.0,1521543524.0,817435160.0,,0.7355349069114999,-0.107103673596,0.01902391716745,0.4615434596575,0.8863780516840001,-0.0199506485167,-0.0302220624247,-0.034940260275050004,-0.017476599683645,0.1248208511445,-0.06209632314675,0.0598369742367,-0.11111554013230003,4.809570074080001,3.271456480025,7.311180591585001,-0.260335817933,1.991463780405,0.361064061522,1958837.5,1521543524.0,802754885.0,,,,,,2311281.0,1521543525.0,670892698.0,,-0.336000156403,-1.7410000223700002,0.963000488281,-0.029999999329400007,-0.138999998569,-0.0520000010729,14.0,17.5,22.0,24.5,45.0,-83.0,-73.0,-68.0,-62.5,-56.5,5.0,-0.08000040054399998,0.27999997138999966,-0.18999862670900003,0.018999999389099992,0.04100000858400002,-0.003000002354400004
19,55.8100519487,5576.5,1521543525.0,768757104.5,,2807036.5,1521543524.0,912429969.5,,0.7377366582164999,-0.105786302229,0.03275822457875,0.4626534956825,0.8859705497970001,-0.0171759456446,-0.026693514660150002,0.0306995940262,0.032160715570650006,0.144033630341,0.02444336275845,-0.1329047957,0.014040584745155,4.194407343865,3.518234968185,6.144464015964999,-0.5800813138485,2.05454558134,0.314693212509,2807389.0,1521543524.0,905489331.0,,,,,,2311290.5,1521543525.0,767858564.5,,1.4589999198899999,-0.9760000068715,0.7679988861085001,-0.03500000014905,-0.13800000399350001,-0.0579999983311,4.0,5.0,13.0,22.0,29.0,-67.0,-66.5,-64.0,-61.0,-54.0,5.0,1.7950000762929998,0.7650000154985002,-0.19500160217249995,-0.005000000819649991,0.000999994575499985,-0.005999997258199996
20,55.9126160513,5588.5,1521543525.0,888905047.5,,2807048.5,1521543525.0,32424338.0,,0.7436871237389999,-0.1003348214425,0.04862589966845,0.460518657861,0.88739117184,-0.01026521966895,-0.0188137195659,0.0711132368837,0.0550166377999,0.12336298382099999,0.0685031192777,-0.2206846911725,0.025245479562985,6.757084369659999,2.3755912780750004,2.269035577775,-0.410216540098,3.00025236607,0.30693031847450003,2807400.0,1521543525.0,15508062.5,,,,,,2311302.5,1521543525.0,888466345.5,,1.184000062945,1.334000025317,0.8029987335200001,-0.06299999915065,-0.18800000101349998,-0.0654999986291,15.5,16.5,26.0,26.0,27.0,-80.5,-76.0,-73.0,-68.0,-61.0,5.0,-0.27499985694499984,2.3100000321885,0.034999847411499974,-0.027999999001599996,-0.049999997019999964,-0.007500000297999999
21,56.0151801538,5598.5,1521543525.0,990402579.0,,2807058.0,1521543525.0,127425278.0,,0.7484324480810001,-0.09731637966489999,0.057056686684349996,0.4592516639705,0.8881973517065,-0.00563844715718,-0.012707266933750001,0.0406441406346,0.035571151110850005,0.07863113694110001,0.02058856740785,-0.13444449137685002,0.039058444221699996,3.740491628645,1.33392769098,2.2597965002050002,-0.10447726771254999,2.058167815205,0.2982823252675,2807410.0,1521543525.0,115549194.0,,,,,,2311312.5,1521543525.0,988734823.5,,0.6439998626710001,0.77899995856,1.147999954225,-0.0240000002086,-0.2009999975565,-0.07550000026819999,16.5,17.0,27.0,37.5,44.5,-73.5,-70.0,-62.5,-57.5,-55.0,5.0,-0.540000200274,-0.5550000667569999,0.34500122070499983,0.038999998942049995,-0.01299999654300002,-0.01000000163909999
22,56.1177442564,5606.5,1521543526.0,67499041.0,,2807066.0,1521543525.0,207438093.0,,0.748946356169,-0.0956228795853,0.0605776255702,0.4577839389890001,0.8889797560089999,-0.00470454119388,-0.0112572599408,-0.0115558298078,-0.00544450151497,0.021142234984,0.00231900404173,0.0299111577024,-0.006980804027689999,4.61819696426,1.68966317177,2.21090984344,0.00156651483849,2.1793551445,0.35415163636200003,2807419.5,1521543525.0,210541577.0,,,,,,2311319.5,1521543526.0,58186162.0,,0.9889998912819999,0.948999915643,0.702998352051,-0.0559999998659,-0.1810000017285,-0.0650000013411,16.0,19.5,22.5,25.0,52.0,-75.5,-74.0,-57.5,-56.0,-32.0,5.0,0.3450000286109999,0.16999995708299998,-0.44500160217399987,-0.0319999996573,0.019999995827999995,0.01049999892709999
23,56.22030835899999,5619.5,1521543526.0,197503566.5,,2807076.0,1521543525.0,307678237.0,,0.748936445052,-0.094106767345,0.0607412683702,0.457091738062,0.889339141715,-0.00420420736005,-0.011196367683700002,-0.00613871363737,-0.0185986496463,-0.021954241864,-0.017199779405900003,0.0309651517865,-0.024752432521,2.58474588394,0.8135189414020001,3.4770467281300004,0.218338117003,1.34165179729,0.3198607862,1958872.5,1521543525.0,305384773.5,,,,,,2311332.0,1521543526.0,181617672.5,,1.684000062945,1.08400002532,0.25299949645975,-0.030500000342700003,-0.1460000053045,-0.0819999985397,13.5,15.0,17.5,25.0,45.0,-75.0,-72.0,-72.0,-67.5,-57.0,5.0,0.6950001716630001,0.13500010967699994,-0.44999885559125,0.025499999523199996,0.03499999642400001,-0.0169999971986
24,56.3228724615,5627.5,1521543526.0,277796506.5,,2807084.0,1521543525.0,387677368.0,,0.747630010089,-0.0953771905793,0.0587428199785,0.457420217498,0.8891453527490001,-0.00560701234271,-0.0124838985005,-0.0379807488,-0.0114558468065,-0.0303173090142,-0.0183217167573,0.0956935617611,-0.006038436826439999,1.6507568359399998,0.85014039278,5.16987371445,0.167666479945,0.980306744576,0.298257291317,1958878.0,1521543525.0,394878756.5,,,,,,2311341.0,1521543526.0,271962348.0,,0.34399991035444993,-0.6509999889879999,0.7830001831055,-0.0485000014305,-0.1494999974965,-0.0460000000894,14.5,19.0,24.0,46.0,60.5,-78.0,-75.5,-72.5,-62.0,-57.0,5.0,-1.34000015259055,-1.735000014308,0.5300006866457501,-0.018000001087799995,-0.0034999921920000066,0.0359999984503
25,56.425436564099996,5641.5,1521543526.0,418331503.5,,2807098.5,1521543525.0,532680946.0,,0.7462867761184999,-0.0950336631023,0.057663577247749995,0.45723211526699997,0.889218074365,-0.00622146311611,-0.0138254172052,0.007073457772424998,0.009102049793635002,-0.002690178204804999,0.00966482604044,-0.020677030275689998,0.022110371155290003,3.89971804619,1.65553361177,5.2410881519300005,-0.204932168126,1.779905974865,0.267894312739,1958888.5,1521543525.0,526367495.0,,,,,,2311355.0,1521543526.0,411750657.5,,-0.591000032425,-0.3660000223665,0.9679996490485,-0.03900000080465,-0.1519999951125,-0.06799999997020001,19.5,26.0,37.0,47.0,52.0,-89.0,-80.0,-77.0,-75.0,-60.0,5.0,-0.93499994277945,0.28499996662149996,0.18499946594299999,0.009500000625849998,-0.002499997616000005,-0.02199999988080001
26,56.5280006667,5651.5,1521543526.0,517726063.0,,2807109.0,1521543525.0,637689084.0,,0.7464378486610002,-0.09513699733195,0.05806175919705001,0.4570891940495,0.8892944382929999,-0.00616794201546,-0.0136663192869,0.006966979454230001,0.008897131178774999,0.0125981258156,0.011862222282465,-0.02113644605845,0.0044192634978000005,3.38994848728,1.308764755725,4.50680088997,-0.011630160734099995,1.6231658458700002,0.30672183632850003,1958895.5,1521543525.0,627365822.0,,,,,,2311365.0,1521543526.0,512460237.0,,-0.206000041962,0.25899997763300003,1.20299835205,-0.0469999983907,-0.149000003934,-0.07000000029799999,21.0,23.5,26.0,32.0,102.0,-86.0,-79.0,-78.0,-69.0,-66.0,5.0,0.384999990463,0.6249999999995,0.23499870300150005,-0.007999997586050002,0.0029999911785,-0.0020000003277999834
27,56.6305647692,5660.5,1521543526.0,608187078.5,,2807118.0,1521543525.0,727690682.0,,0.746665262154,-0.0943677762251,0.0583297595973,0.456781653465,0.889457217829,-0.00560377323562,-0.013600604201,-0.00114226356949,0.0010981960954,-0.00883726878834,0.0171444373721,0.00980189875469,-0.0199820413514,3.5949614048000003,1.63870382309,4.26182079315,-0.184238612652,1.72398793697,0.27256760001200003,2807470.0,1521543525.0,715737386.0,,,,,,2311374.5,1521543526.0,607012769.0,,-0.3710000038145001,-1.230999996515,0.9029991149895,-0.056500000879150004,-0.137000001967,-0.042500000447050004,17.0,18.0,18.5,29.0,60.0,-83.0,-80.5,-75.0,-66.5,-61.0,5.0,-0.1649999618525001,-1.4899999741480001,-0.2999992370605,-0.009500002488450003,0.012000001967000018,0.027499999850949988
28,56.733128871800005,5672.5,1521543526.0,727458953.5,,2807132.5,1521543525.0,872694575.5,,0.7462713278705,-0.09515054577165,0.057052824894599986,0.4573678899725,0.8891438230344999,-0.006217706976844999,-0.0141125119079,-0.008626575398934999,0.0014631141463210002,-0.017741114157999997,0.00184570721415,0.02373019611735,-0.00023067400415500118,4.874057769775,1.7457122206650002,3.8188101053199994,-0.168256878853,2.2138713598249997,0.2977834939955,2807484.5,1521543525.0,860784090.5,,,,,,2311386.0,1521543526.0,722267912.0,,-1.09599990845,-0.640999998525,-0.117001342773,-0.008000000379979999,-0.158000007272,-0.0920000001788,9.5,11.5,14.0,15.5,22.0,-79.5,-77.0,-72.5,-65.5,-64.0,5.0,-0.7249999046355,0.58999999799,-1.0200004577625,0.048500000499170005,-0.021000005305000014,-0.04949999973175
29,56.8356929744,5681.5,1521543526.0,817704558.0,,2807141.0,1521543525.0,957677386.0,,0.7451404420700001,-0.0946240392453,0.055637732308800016,0.457088769544,0.88926291334,-0.006862893511399999,-0.0153045224309,0.00688590025914,-0.00956959459068,-0.00849171649061,0.000442755765886,-0.00347494799145,-0.0141076768812,4.3742084503199985,1.3878746032700002,3.92689180374,0.00852430146188,2.00810527802,0.31975913047800003,1958917.5,1521543525.0,954373349.5,,,,,,2311395.0,1521543526.0,812071849.0,,0.284000205994,-0.7409999925640001,0.65299911499,-0.0189999993891,-0.16400000453,-0.06499999761580001,16.5,18.0,23.0,26.5,35.0,-89.0,-83.0,-77.0,-72.5,-67.0,5.0,1.380000114444,-0.09999999403900006,0.770000457763,-0.01099999900912,-0.005999997257999989,0.02700000256299999
30,56.938257076899994,5688.5,1521543526.0,887446045.5,,2807148.5,1521543526.0,32682944.5,,0.744701104489,-0.0955462588856,0.0551545505009,0.4570261590615,0.8892853099435,-0.0074503701758850014,-0.0155921037615,-0.023327042721849996,0.0049297391039499995,-0.011614008223595002,-0.01633246313005,0.049210148823650005,0.02116024317285,5.284228086475,1.89558005333,3.9732365608199998,-0.2406354546545,2.33892047405,0.300530433655,1958923.0,1521543526.0,24866961.0,,,,,,2311401.5,1521543526.0,878592102.0,,0.9490001678465,-0.186000015214,0.6980010986330001,-0.02100000018255,-0.182499997318,-0.089500002563,13.0,17.0,21.0,32.0,36.0,-82.0,-80.0,-77.0,-71.0,-63.5,-1.0,0.6649999618525,0.5549999773500001,0.04500198364300012,-0.002000000793450002,-0.01849999278800002,-0.02450000494719999
31,57.0408211795,5700.5,1521543527.0,7496475.5,,2807159.5,1521543526.0,142706174.0,,0.7443413989769999,-0.0949607651877,0.054388661521800004,0.456938673493,0.8893207528789999,-0.00744624839698,-0.016127044490999998,-0.003216498376115,0.007331259267315,-0.006849118042395001,0.005049456077655,0.007312537594500001,0.00427256985561,4.745876312255,1.731950759885,4.055074214935002,-0.25092983990900003,2.162219166755,0.2818169891835,2807512.0,1521543526.0,135759597.0,,,,,,2311413.5,1521543526.5,498874889.0,,1.259000110625,-0.856000002102,1.0079986572285,-0.03500000014905,-0.149499997497,-0.0620000008494,12.0,23.5,27.0,40.5,44.0,-90.0,-85.0,-83.0,-78.0,-71.0,-1.0,0.30999994277849996,-0.669999986888,0.30999755859549993,-0.013999999966499997,0.03299999982100002,0.0275000017136
32,57.1433852821,5710.5,1521543527.0,107463597.5,,2807170.0,1521543526.0,246814593.0,,0.7433786257680001,-0.0955184607635,0.0538664493331,0.456781141238,0.889378687438,-0.00834364267894,-0.016938800658100002,0.00910973462112,-0.00354622283535,-0.00493048711442,0.00026233243500099995,-0.0191858542006,-0.00520385449304,6.16507339478,2.12684893608,3.21083712578,-0.30591708421700003,2.68239688873,0.313553571701,2807523.0,1521543526.0,244900989.0,,,,,,2311423.5,1521543527.0,98910284.0,,0.8239999294290001,-0.8959999937575001,0.2379981994625,-0.0460000000894,-0.13199999928449999,-0.0650000013411,14.0,20.0,22.0,35.5,43.0,-89.0,-83.5,-81.0,-73.5,-64.0,-1.0,-0.4350001811959998,-0.039999991655500056,-0.770000457766,-0.010999999940350003,0.017499998212500006,-0.003000000491699996
33,57.2459493846,5721.5,1521543527.0,217514991.5,,2807179.0,1521543526.0,336828626.0,,0.7432842111589999,-0.09534835540805,0.05314843258140001,0.45651893392750004,0.8895107558605,-0.008497237150139999,-0.01699251644195,0.0017682851201000008,-0.002615790975185,-0.0013169910668500006,-0.0004979899940750002,-0.0014999675222500015,0.00619394582819,5.7739479541800005,1.96776163578,3.4598668813699995,-0.28190972656,2.53349995613,0.292035475373,2807532.0,1521543526.0,334892648.0,,,,,,2311434.5,1521543527.0,209719892.0,,0.8690000057235,0.0589999895543,0.1479999542235,-0.029500000178850006,-0.168999999762,-0.08300000056625,5.0,11.0,15.0,16.5,34.5,-91.5,-83.0,-81.0,-81.0,-63.5,-1.0,0.04500007629449987,0.9549999833118,-0.08999824523899999,0.016499999910549994,-0.03700000047750002,-0.01799999922515
34,57.3485134872,5733.5,1521543527.0,337544917.5,,2807190.5,1521543526.0,451809481.5,,0.742708150137,-0.09501071123160001,0.052155946772200014,0.45628094123,0.8896150967480001,-0.00858310706819,-0.0178601308998,-0.00454765149927,-0.00188080762885,-0.01734360405895,0.008767210737985,0.02057191793549,-0.004919186580025001,5.815717220305,1.9190801978099998,2.955248355865,-0.245466247201,2.5839902162550006,0.31331105530250003,2807543.0,1521543526.0,444906507.0,,,,,,2311446.5,1521543527.0,330160803.0,,0.9740000247945,1.69900003485,0.6479999542235,-0.0449999999255,-0.140500001609,-0.10249999910580003,-1.0,3.0,11.0,15.0,30.0,-86.0,-82.0,-79.0,-78.0,-65.5,-1.0,0.10500001907099998,1.6400000452957,0.5,-0.015499999746649996,0.028499998153,-0.019499998539550034
35,57.451077589700006,5740.5,1521543527.0,407477021.0,,2807197.5,1521543526.0,521811437.0,,0.7422646425635,-0.09462507623945,0.05132904419485,0.4566276196885,0.8894197353850001,-0.008639360104270001,-0.01868121163495,-0.008690936895959999,-0.008512034501702,-0.0113449657241,-0.010576808566680002,0.036762846866300006,-0.017477932388924998,5.940227508545001,1.8213698267950005,2.9902981519700003,-0.15495701879249998,2.610491633415,0.3171909451485,1110364.0,1521543526.0,519000064.0,,,,,,2311454.0,1521543527.0,402653284.0,,0.7640002250669999,-0.7409999925640001,0.8329994201659999,-0.032999999821200006,-0.143000006676,-0.0810000002384,7.0,16.5,23.0,34.0,45.0,-85.5,-84.0,-81.5,-78.0,-67.0,-1.0,-0.20999979972750005,-2.4400000274140003,0.18499946594249994,0.012000000104299996,-0.0025000050669999885,0.021499998867400033
36,57.5536416923,5752.5,1521543527.0,527489542.5,,2807210.0,1521543526.0,646815383.0,,0.7408660820530001,-0.0952977989386,0.0494579081418,0.456460660317,0.8894583668100001,-0.00992367941028,-0.020223745496200003,-0.0117502843925,0.00652281560379,-0.010471827688,-0.00229426127188,0.0209830614642,0.0261299502441,6.855571746830001,2.24576973915,3.4867482185400003,-0.403373271227,2.95809030533,0.29077872633900004,2807562.0,1521543526.0,634922179.0,,,,,,2311465.5,1521543527.0,519171792.0,,0.9489999294255,-0.7210000004620001,1.47799797058,-0.05099999904635,-0.16200000047649998,-0.044500000774849995,4.5,4.5,13.0,32.5,135.0,-87.5,-81.0,-73.0,-67.5,-64.5,-1.0,0.1849997043585001,0.019999992101999986,0.644998550414,-0.01799999922514999,-0.018999993800499992,0.03649999946355
37,57.656205794899996,5760.5,1521543527.0,607499480.0,,2807217.5,1521543526.0,721812948.0,,0.7411478538959999,-0.09582932004005,0.048315022751000004,0.45713922868249995,0.8891097322354999,-0.009962839261365,-0.02020471743305,-0.004702798400205,0.0005177846783999997,-0.0180201562252,0.018401318587035004,0.016008149066800002,-0.010587808159749999,6.251066207885,1.9999949336099998,3.4857771396649997,-0.32445138692849995,2.797390580175,0.29993657767750004,1958971.0,1521543526.0,718952346.0,,,,,,2311474.0,1521543527.0,602699220.0,,1.00399999619,0.118999991938,1.63299865723,-0.0619999989867,-0.187000006437,-0.0379999987781,9.5,19.0,24.0,31.5,83.0,-89.0,-87.0,-84.0,-68.5,-66.0,-1.0,0.055000066764499866,0.8399999924000001,0.15500068665,-0.010999999940350003,-0.025000005960500005,0.006500001996749993
38,57.7587698974,5770.5,1521543527.0,707543015.0,,2807230.5,1521543526.0,851818494.5,,0.7399262041679999,-0.09535624913205,0.04729917101355,0.456590301536,0.8893555064374999,-0.01075966889485,-0.0213559854703,-0.01280082443313,-0.006805301298234999,-0.01102141118515,-0.016492415016900002,0.027428905594225,0.01174799377231,7.326956510545,2.2394760847049997,3.568527340885,-0.433900818229,3.15321052074,0.292743206024,2807582.5,1521543526.0,839905741.0,,,,,,2311483.5,1521543527.0,698930657.0,,1.01399998665,-1.20100000836,1.1979991912799999,-0.0480000004172,-0.1609999984505,-0.07200000062585,8.0,8.0,17.0,27.0,110.0,-85.5,-82.5,-78.5,-73.0,-70.0,-1.0,0.009999990460000108,-1.3200000002980001,-0.43499946595000005,0.013999998569500002,0.026000007986499984,-0.034000001847750004
39,57.861334,5782.5,1521543527.0,827468037.0,,2807242.5,1521543526.0,971813866.5,,0.7402376582325,-0.0950679653196,0.0476217955003,0.4568365425015001,0.889241049129,-0.01030082382835,-0.0210843423992,0.005984532789955,0.00625904653245,0.008495762548775,0.01641110997889,-0.011607747233477,-0.0126115736593,6.063640594484999,1.883675396445,3.32552564144,-0.2985800728205,2.65819835663,0.2710685133935,1958988.5,1521543526.0,970453403.5,,,,,,2311495.5,1521543527.0,819219248.5,,0.08900003433205,-1.541000004485,0.6629993438720001,-0.044500000774849995,-0.149000003934,-0.0439999997616,16.0,19.0,26.0,27.0,84.0,-84.0,-81.5,-80.0,-80.0,-63.0,-1.0,-0.92499995231795,-0.339999996125,-0.5349998474079998,0.003499999642350003,0.011999994516499995,0.028000000864250002
