,Unnamed: 0,.header.seq,.header.stamp.secs,.header.stamp.nsecs,.header.frame_id,.endpoint_state.header.seq,.endpoint_state.header.stamp.secs,.endpoint_state.header.stamp.nsecs,.endpoint_state.header.frame_id,.endpoint_state.pose.position.x,.endpoint_state.pose.position.y,.endpoint_state.pose.position.z,.endpoint_state.pose.orientation.x,.endpoint_state.pose.orientation.y,.endpoint_state.pose.orientation.z,.endpoint_state.pose.orientation.w,.endpoint_state.twist.linear.x,.endpoint_state.twist.linear.y,.endpoint_state.twist.linear.z,.endpoint_state.twist.angular.x,.endpoint_state.twist.angular.y,.endpoint_state.twist.angular.z,.endpoint_state.wrench.force.x,.endpoint_state.wrench.force.y,.endpoint_state.wrench.force.z,.endpoint_state.wrench.torque.x,.endpoint_state.wrench.torque.y,.endpoint_state.wrench.torque.z,.joint_state.header.seq,.joint_state.header.stamp.secs,.joint_state.header.stamp.nsecs,.joint_state.header.frame_id,.joint_state.name,.joint_state.position,.joint_state.velocity,.joint_state.effort,.wrench_stamped.header.seq,.wrench_stamped.header.stamp.secs,.wrench_stamped.header.stamp.nsecs,.wrench_stamped.header.frame_id,.wrench_stamped.wrench.force.x,.wrench_stamped.wrench.force.y,.wrench_stamped.wrench.force.z,.wrench_stamped.wrench.torque.x,.wrench_stamped.wrench.torque.y,.wrench_stamped.wrench.torque.z,.tactile_values.tactile_values_0,.tactile_values.tactile_values_1,.tactile_values.tactile_values_2,.tactile_values.tactile_values_3,.tactile_values.tactile_values_4,.tactile_values.tactile_values_5,.tactile_values.tactile_values_6,.tactile_values.tactile_values_7,.tactile_values.tactile_values_8,.tactile_values.tactile_values_9,.tag,.delta_wrench.force.x,.delta_wrench.force.y,.delta_wrench.force.z,.delta_wrench.torque.x,.delta_wrench.torque.y,.delta_wrench.torque.z
0,45.892201,4588.5,1521542063.0,913243055.0,,2660852.0,1521542063.0,66989319.0,,0.8120247607909999,-0.0468479298943,0.122616950398,0.468074162728,0.883572873815,-0.0104738608605,-0.00979045880543,0.004921321443439999,0.033798271619700004,0.00225110991556,0.0419584879024,-0.0167704720527,-0.017899152041599996,8.87919712067,4.8108215332,5.81341743469,-1.28025972843,3.67143154144,-0.0196842476726,2661206.0,1521542063.0,75071118.0,,,,,,2165255.5,1521542063.0,911186267.5,,-0.053000020980999984,-1.0010000005355,0.006999206543000007,-0.06299999915065001,-0.14849999547,-0.02649999968705,4.5,12.5,18.0,30.5,41.0,-25.0,-25.0,-18.0,-13.5,19.0,4.0,0.0,0.0,0.0,0.0,0.0,0.0
1,45.9947651026,4599.5,1521542064.0,23253082.5,,2660863.0,1521542063.0,176989138.0,,0.8130654312279999,-0.04541524861394999,0.12288119932050001,0.46963163394249996,0.882767916649,-0.008783223325004998,-0.009469060467370002,-0.0011890686294945,0.004127062059737001,-0.0006501320000449999,0.006042268652300002,0.008040708562840001,-0.0007061111237900001,7.67126059532,4.244383096695,4.717855930325,-1.171976149082,3.11192548275,0.015376087278105,1856847.0,1521542063.0,181027069.5,,,,,,2165266.5,1521542064.0,20751119.0,,-0.7579999446850001,-1.705999976395,-0.22300033569355,-0.05049999989569999,-0.117499999702,-0.0420000012964,7.0,8.0,10.0,15.0,24.5,-22.5,-20.0,-15.0,-13.5,-7.0,4.0,-0.7049999237040001,-0.7049999758595,-0.22999954223655,0.012499999254950017,0.030999995768000013,-0.015500001609349997
2,46.0973292051,4609.5,1521542064.0,123287439.0,,2660873.5,1521542063.0,281983795.5,,0.8137666539664999,-0.04550803045969999,0.11974566477,0.4692599285385,0.882969952461,-0.008626384445844999,-0.009192803775909999,0.028007959775400004,-0.00027731595905499973,-0.045573762664400004,0.010370377903711502,-0.0560397463062,-0.004020471024335,7.319500684735,3.882427334785,5.22078537941,-1.0064837634569999,2.79260122776,-0.00447948276995,1856855.0,1521542063.0,291531346.5,,,,,,2165276.5,1521542064.0,122267978.5,,-0.8780000090605,-1.1360000170775,0.6169998168945,-0.06600000336765001,-0.134500004351,-0.0449999999255,2.0,13.0,19.0,29.0,33.0,-31.0,-30.0,-25.0,-23.5,-22.5,4.0,-0.12000006437549993,0.5699999593175,0.84000015258805,-0.015500003471950019,-0.01700000464900002,-0.002999998629100005
3,46.1998933077,4617.5,1521542064.0,204077482.0,,2660882.0,1521542063.0,366992770.0,,0.8161533310955,-0.044334539554749995,0.11574782987150001,0.4691423456045,0.8830686389719999,-0.00625114875127,-0.007482016810900002,0.01652155611278,0.012392569038593001,-0.06748550314280001,0.02374484966355,-0.0301265901087,0.01195301465129,3.7383781671499996,2.7393147945400003,5.62223625183,-0.709300160408,1.6725522279750002,-0.004614178091275001,1052486.0,1521542063.0,350000128.0,,,,,,2165284.5,1521542064.0,202422964.5,,-0.7129999876019999,-0.2510000079872,0.6219989776615,-0.07149999961255,-0.1340000033375,-0.049000000581149984,0.5,2.0,9.5,12.0,14.5,-23.5,-18.5,-15.5,-12.5,-9.0,4.0,0.16500002145850012,0.8850000090903,0.0049991607670000215,-0.005499996244899996,0.0005000010135000066,-0.004000000655649982
4,46.3024574103,4627.5,1521542064.0,303346991.0,,2660892.0,1521542063.0,467006399.0,,0.8166667291080001,-0.044457798969200005,0.109274647509,0.4697460947575,0.8827540068055,-0.00609266859912,-0.00682867267867,-0.01295256649125,0.001342358085194999,-0.08435091284530001,-0.003101043586815,0.027692751236850003,-0.045498080013349984,4.622919559475,1.89139598608,4.3423225879650005,-0.209898151457,2.02450209856,0.007826205342984999,1856868.0,1521542063.0,462544500.5,,,,,,2165294.5,1521542064.0,302219525.5,,0.172000002861,-0.331000006199,0.4119998931885001,-0.0614999998361,-0.1370000019665,-0.0609999988228,-4.5,-3.0,2.5,3.5,5.5,-22.5,-19.0,-13.5,-11.5,-5.0,4.0,0.8849999904629999,-0.07999999821179998,-0.20999908447299992,0.009999999776450004,-0.0029999986289999947,-0.011999998241650017
5,46.4050215128,4641.5,1521542064.0,443905591.5,,2660908.0,1521542063.0,626980679.0,,0.8123032691709999,-0.043353154393,0.0962580963158,0.467508324573,0.8838754373280001,-0.00923609317452,-0.0107178508419,-0.0196136738266,-0.0254277256167,-0.0661745113241,-0.0153281298113,0.0709671752869,0.0175092207693,1.52699661255,1.73181581497,5.893971443180001,-0.190432727337,0.670092463493,0.0487239360809,2661260.0,1521542063.0,615060874.5,,,,,,2165308.5,1521542064.0,443410508.5,,-0.8729999542240001,0.09899997115150001,0.321999740601,-0.08850000053645,-0.14450000226499998,-0.061000000685449994,6.0,8.0,10.0,16.5,34.0,-28.0,-18.0,-15.0,-10.5,-6.0,4.0,-1.0449999570850002,0.4299999773505,-0.0900001525875001,-0.027000000700350003,-0.007500000298499981,-1.862649992578902e-09
6,46.5075856154,4648.5,1521542064.0,513390540.5,,2660914.5,1521542063.0,691987183.5,,0.8107127310265,-0.043155247684499985,0.091689001627,0.46651121968599996,0.8843757484385,-0.0102666357156,-0.011882518072200001,-0.03536121898765,-0.00252344251554,-0.08615106371574999,-0.008144949002664999,0.07711935087025,0.033466346030349994,7.73877763748,3.917576432225,5.975621461869999,-1.005004405973,3.002916693685,0.02992119267581,1856883.5,1521542063.0,694528478.5,,,,,,2165314.5,1521542064.0,503725216.0,,-1.11299996376,-1.2110000014315,0.21700019836410006,-0.06599999871085001,-0.155000001192,-0.05250000022355,-3.0,1.0,4.5,8.5,11.5,-22.0,-20.0,-19.0,-11.5,-9.5,4.0,-0.24000000953599998,-1.309999972583,-0.10499954223689995,0.022500001825599997,-0.010499998927000015,0.008500000461899991
7,46.6101497179,4659.5,1521542064.0,623252034.0,,2660926.0,1521542063.0,806984970.5,,0.809836392899,-0.043035064116150004,0.08000855615784999,0.4656496897655,0.884815144974,-0.00945430132707,-0.0135277828237,0.003832959335915,0.01423989022815,-0.10669270166200001,0.037395083846199995,-0.0141157218334,0.01856805548005,7.823045730564999,-0.15071311593050002,3.2240612506849997,0.563046485186,3.0758934020999997,0.07555781677359999,1856891.5,1521542063.0,805039872.0,,,,,,2165326.0,1521542064.0,616959887.0,,-1.18800001144,1.7990000486400002,0.307000350952,-0.07400000095369999,-0.115000002086,-0.045000001788099986,-2.0,1.0,5.0,23.0,40.0,-19.0,-18.5,-13.0,-11.5,-7.5,4.0,-0.0750000476799999,3.0100000500715005,0.09000015258789995,-0.008000002242849982,0.039999999105999995,0.007499998435450017
8,46.7127138205,4672.5,1521542064.0,753291487.5,,2660938.5,1521542063.0,931995530.0,,0.8126284615180001,-0.0443000184358,0.0680360569106,0.4663854717785,0.8844787090705,-0.006412842626435,-0.0118668481676,0.01304669821683,-0.017865981514195002,-0.09202896400464998,0.035431972364099985,-0.017821138120581996,-0.011456537228660002,6.025226831435,0.8048574626465,4.7599484920499995,-0.08679816871900001,2.924837589265,0.092130050063,1856900.0,1521542063.0,921039761.5,,,,,,2165339.0,1521542064.0,746511974.0,,0.35699994564070003,0.23899999596000002,-0.8830001831045,-0.0814999993892,-0.1334999985995,-0.059000000357599995,4.0,10.0,16.0,19.0,22.0,-36.0,-35.0,-30.0,-13.0,-9.0,4.0,1.5449999570807,-1.5600000526800002,-1.1900005340565,-0.007499998435500005,-0.01849999651350001,-0.01399999856950001
9,46.815277923100005,4681.5,1521542064.0,843238472.0,,2660947.5,1521542064.0,21989422.5,,0.8093891833660001,-0.04736955878445,0.060746952263100014,0.466844481919,0.8841453697549999,-0.00958272727024,-0.01584316724745,-0.022843495984350003,-0.05151597438055,-0.07178580005594999,-0.0138666515835,0.0984924533391,-0.04044184532135,0.5184665918340001,0.7516534924505001,7.180906772615,0.07867156527939999,0.20109935849899999,0.1162314973775,1052512.0,1521542064.0,8000000.0,,,,,,2165348.5,1521542064.0,843040704.5,,-0.7330000877380001,-1.3709999978549998,0.256999206543,-0.05750000104305,-0.1405000016095,-0.0405000001192,-1.0,9.5,11.0,31.5,43.0,-26.5,-24.5,-23.5,-21.5,-17.5,4.0,-1.0900000333787,-1.6099999938149998,1.1399993896475,0.023999998346149992,-0.007000003009999978,0.018500000238399997
10,46.9178420256,4689.5,1521542064.0,923382997.0,,2660954.0,1521542064.0,87002937.0,,0.8088600601945,-0.04981079454585,0.056605209517449996,0.46843320084299994,0.8832657220029999,-0.010138206526549998,-0.017583894354999997,-0.01686886286916,-0.03672474582585,-0.06751314415755,0.009160949129175,0.08311740801425,-0.0351685617441,7.107928276060001,1.9248065948500002,4.68410909176,-0.372460976243,2.770922124385,0.19639789313099998,2661306.0,1521542064.0,75073375.5,,,,,,2165356.0,1521542064.0,917085237.0,,-1.21799998283,-0.280999994278,0.277001571655,-0.0579999983311,-0.148000001907,-0.0489999987185,2.5,11.5,13.0,19.0,26.5,-22.0,-20.0,-19.0,-15.0,-11.0,4.0,-0.48499989509200003,1.0900000035769999,0.020002365111999987,-0.0004999972880499956,-0.0075000002975000035,-0.0084999985993
11,47.020406128199994,4701.5,1521542065.0,43363094.0,,2660966.0,1521542064.0,206989615.5,,0.810957221859,-0.05765972689019999,0.049388840636849986,0.46807984654749996,0.8834462263625,-0.01167019639125,-0.0169629945133,0.04018337780825,-0.07470707481285001,-0.055581447292600006,-0.021055025510650003,-0.049095280018100006,-0.0479945196398,5.777399539945001,2.1959246397050003,7.606052160264999,-0.5682336688040001,2.32667052746,0.187567688525,1856919.0,1521542064.0,206535781.0,,,,,,2165368.0,1521542065.0,36050121.0,,0.0120000362396,-0.321000015736,0.786999893188,-0.0439999997616,-0.184000000358,-0.0500000007451,-3.0,-2.0,0.0,2.0,6.0,-18.0,-16.0,-13.0,-11.0,-5.0,4.0,1.2300000190696,-0.040000021458000024,0.509998321533,0.013999998569499995,-0.03599999845099999,-0.0010000020265999998
12,47.1229702308,4712.5,1521542065.0,159062981.5,,2660977.5,1521542064.0,321993240.0,,0.8140625391734999,-0.06495701913335,0.042285030766650016,0.47129887469899995,0.8817565295005001,-0.010700016718549999,-0.016377802953499998,0.0206714742183,-0.0628888949137,-0.074221506447,0.02436121696295,-0.0016526346622750005,-0.05126937024925,10.010069370255001,0.06989128887649998,1.44434094429,0.3032953441145,3.9149025678649996,0.2225460410115,1856926.5,1521542064.0,309051042.0,,,,,,2165379.5,1521542065.0,152709942.5,,-0.13800005912764998,0.16899996399895,0.35699958801250004,-0.06299999915065001,-0.160499997437,-0.0489999987185,0.0,4.0,6.0,17.0,20.5,-9.5,-8.5,-6.5,-5.5,7.0,4.0,-0.15000009536724998,0.48999997973495,-0.4300003051755,-0.018999999389050004,0.02350000292099999,0.0010000020265999998
13,47.2255343333,4723.5,1521542065.0,263890981.0,,2660988.0,1521542064.0,426988458.5,,0.8173717166550001,-0.07193611602305,0.0352937692329,0.47269991423,0.8810450488860001,-0.011366504274,-0.013569552010649999,0.034923075095800005,-0.07600146507239999,-0.07454727497659999,-0.0955567479892,-0.05706703707365,-0.0363076553294,3.7283987999,2.3489718437200002,5.0868103504199995,-0.7403317093845001,1.489582955835,0.16105976700750002,2661341.0,1521542064.0,425073473.0,,,,,,2165390.5,1521542065.0,262176318.0,,-0.34299998283350003,-0.3859999984501,-0.0779998779296,-0.06499999947845,-0.15699999779450002,-0.032500000670550006,-1.0,0.0,3.0,15.0,18.0,-19.5,-19.0,-17.0,-11.5,-5.0,4.0,-0.20499992370585005,-0.55499996244905,-0.43499946594210004,-0.0020000003277999973,0.0034999996424999735,0.016499998047949993
14,47.3280984359,4730.5,1521542065.0,334372520.0,,2660994.5,1521542064.0,491983659.0,,0.8187891505705001,-0.07538734775325,0.02980513364165,0.473270605222,0.880740942574,-0.013797696682549999,-0.010946400479649999,0.01688411751438,-0.07307483783924999,-0.08285556698705,-0.1251672843185,-0.014497093675600004,-0.0343385745034,5.289979219435001,2.953374266625,3.5692054033300002,-0.6529729664325001,2.142822861675,0.131072767079,2661348.0,1521542064.0,495070881.5,,,,,,2165396.5,1521542065.0,322875757.0,,-0.123000073433,-1.1410000011335,0.06700057983415,-0.051000000909000004,-0.15900000184750002,-0.04399999976155001,1.0,3.0,3.0,7.5,9.5,-27.0,-25.0,-24.5,-21.0,-13.0,4.0,0.21999990940050002,-0.7550000026834,0.14500045776375,0.01399999856945,-0.002000004052999993,-0.011499999091000003
15,47.4306625385,4742.5,1521542065.0,456686496.5,,2661009.0,1521542064.0,637001223.0,,0.8186403302634999,-0.0743794661294,0.0125574958939,0.47413803428049994,0.8802417583625001,-0.01300719776585,-0.0140841451234,0.00742277633078,-0.004130801888220001,-0.142248003658,0.006415301873561,0.03018791999432,-0.04450524942030001,10.49946641922,3.65982401371,2.125601649285,-1.292027950285,3.9833314418800003,0.163833677769,2661361.5,1521542064.0,630069203.0,,,,,,2165409.5,1521542065.0,453579659.5,,1.837000083925,1.129000031945,0.01199836730999998,-0.0645000003278,-0.13650000095349998,-0.037499999627449994,1.0,2.5,7.0,7.5,18.0,-31.5,-29.5,-26.0,-24.0,-20.0,4.0,1.960000157358,2.2700000330785,-0.055002212524150024,-0.013499999418799993,0.022500000894000033,0.006500000134100015
16,47.533226641000006,4750.5,1521542065.0,533445000.5,,2661017.0,1521542064.0,716986786.0,,0.818995809271,-0.0749967029019,0.00269371406316,0.473992147128,0.8803000043829999,-0.0138067037459,-0.0145849811577,-0.00088827379811,-0.014421875027,-0.114902415812,-0.0160739135767,0.0367869355754,0.062885141494,8.39321231842,3.5138559341400004,4.418464183809999,-1.2431552410100002,3.39494132996,0.160634666681,2661369.5,1521542064.0,710055780.5,,,,,,2165417.0,1521542065.0,527529535.5,,1.7769999027255,0.6439999878397501,1.13700027466,-0.0565000008792,-0.1530000045895,-0.023500000126650003,1.0,1.5,6.5,8.0,10.0,-36.5,-34.5,-32.0,-24.0,-20.0,4.0,-0.060000181199500124,-0.4850000441052499,1.1250019073500002,0.007999999448599998,-0.016500003636000016,0.01399999950079999
17,47.6357907436,4763.5,1521542065.0,663390516.5,,2661030.0,1521542064.0,846983343.0,,0.8169311397875001,-0.07676359398794999,-0.0029294174044100004,0.473903587165,0.8802239723019999,-0.018364744682300004,-0.016843752795149998,0.031020410015100006,-0.007702039457899999,0.011136441592610001,-0.017775821985049997,-0.06284210660525,-0.035087842910849994,10.61013197899,3.065969944,-1.1918034553499999,-0.5002864003180001,3.5258316993700003,0.1145486943422,2661382.0,1521542064.0,835086643.0,,,,,,2165430.0,1521542065.0,656757806.0,,0.421999883652,-0.791000014544,-6.21300010681,0.256999999285,-0.21400000155,-0.0520000010729,8.0,12.0,15.0,18.0,97.0,-33.0,-32.0,-29.0,-23.5,-22.0,4.0,-1.3550000190734999,-1.4350000023837501,-7.35000038147,0.3135000001642,-0.060999996960500014,-0.02850000094625
18,47.7383548462,4771.5,1521542065.0,743519544.0,,2661037.5,1521542064.0,921985679.0,,0.821119703643,-0.07682258585474999,-0.0019738343469000003,0.474807698757,0.8798555075245,-0.01519492715965,-0.013446482221299998,0.06249743484325,-0.0006899404674799993,0.00367998630639,0.036609578061199986,-0.13541804329399998,-0.017185139007149998,10.62815904618,3.304733991625,-0.979515727607,-0.995050549505,3.8025007247900002,0.130247142166,2661391.0,1521542064.0,925079230.0,,,,,,2165438.5,1521542065.0,742625719.0,,1.20699996948,-2.5710000157350006,-3.14799957275,0.2829999923705,-0.08700000122185002,0.014500000514099998,9.0,10.5,11.5,14.0,38.5,-26.5,-24.5,-20.0,-9.0,0.0,4.0,0.785000085828,-1.7800000011910004,3.06500053406,0.025999993085499995,0.12700000032815,0.06650000158700001
19,47.8409189487,4783.5,1521542065.0,863695025.0,,2661048.5,1521542065.0,32031273.5,,0.824719918743,-0.07815762985105001,-0.0028234534808800004,0.475072199774,0.8797817575469999,-0.01382347196845,-0.00991995845299,0.0029453780735650002,-0.006734412833989999,-0.012528984686925,-0.015074129311950003,-0.00488383758722,0.051748545470749995,7.758874893189999,1.7034026384349998,-2.223759651185,0.2172008007765,2.263266444205,0.149103574455,2661401.5,1521542065.0,30107798.0,,,,,,2165449.5,1521542065.0,855117609.5,,-0.5279999256135001,-3.15099999905,-6.858000564575001,0.6049999892710001,-0.125999998301,-0.02149999979885,8.0,10.0,11.5,14.0,30.0,-48.0,-39.5,-36.5,-35.5,-29.0,4.0,-1.7349998950935,-0.5799999833149996,-3.7100009918250008,0.3219999969005001,-0.03899999707914999,-0.036000000312949997
20,47.9434830513,4795.5,1521542065.0,983576536.0,,2661059.0,1521542065.0,137083079.0,,0.8257926476035,-0.078192211242,-0.0025234926556350003,0.474199108614,0.8802763032755001,-0.013147206455700002,-0.008714784675504999,0.0207785815605,-0.0015191257132000007,0.00472421043937,-0.0001944205559600001,-0.04740558842495,-0.0031834241527550003,3.0117756128299997,1.9612554311750001,-2.133027791975,0.1860898062585,0.07973042130500002,0.1317082569005,2661412.0,1521542065.0,135172020.0,,,,,,2165462.0,1521542065.0,978547773.5,,0.35199995040885,-6.6310000181149995,-7.452999877930001,0.764499992132,-0.14649999886749998,-0.006499999901279999,1.0,4.0,16.0,21.5,28.5,-47.5,-44.0,-43.0,-39.5,-36.0,4.0,0.8799998760223501,-3.4800000190649993,-0.5949993133550002,0.15950000286099997,-0.020500000566499976,0.014999999897570001
21,48.046047153800004,4803.5,1521542066.0,64519404.5,,2661067.0,1521542065.0,217075298.0,,0.826001485094,-0.0781338686103,-0.00211788738184,0.47515110902,0.879766382525,-0.012622785598,-0.009121461521549998,0.0032968791576,-0.0026680926741100004,0.0105596166326,0.00164233592959,-0.00646751483216,-0.00852375817511,6.53012895584,2.16587519646,-0.976363956928,-0.137693911791,1.82621145248,0.06565900146959999,1856990.0,1521542065.0,222079630.5,,,,,,2165470.0,1521542066.0,57991660.0,,0.212000083923,-2.92099997997,-5.15299873352,0.537000000477,-0.128999993205,-0.014999999664700003,-2.5,0.0,2.0,2.5,7.5,-46.5,-43.5,-38.5,-35.0,-33.5,4.0,-0.13999986648585003,3.7100000381449996,2.3000011444100013,-0.227499991655,0.017500005662499984,-0.008499999763420005
22,48.1486112564,4811.5,1521542066.0,143440008.0,,2661075.0,1521542065.0,297077111.0,,0.8256396176234999,-0.07740533711940001,-0.00222730821601,0.474395888395,0.880170753634,-0.012809525932149998,-0.009156193783825,9.143237834999957e-05,0.014636374307549998,0.007052191590435001,0.016006825448359997,-0.0024181881762500024,0.0027801202431299997,9.21933078766,3.00357282162,-0.5301137119529999,-0.7432060837744999,3.19764947891,0.03710206225515,1856995.0,1521542065.0,303062871.0,,,,,,2165477.5,1521542066.0,134998240.0,,0.29700000286100003,-2.34100005627,-4.447998809815,0.401000007987,-0.1185000017285,-0.02149999979885,-2.5,-2.0,0.5,2.0,35.0,-53.5,-50.0,-48.0,-46.0,-40.0,4.0,0.08499991893800005,0.5799999237,0.7049999237049995,-0.13599999249000005,0.010499991476499992,-0.0065000001341499955
23,48.251175358999994,4826.5,1521542066.0,293401002.0,,2661089.5,1521542065.0,442088111.5,,0.825095245607,-0.07770355993745,-0.00243373119487,0.47439497141500003,0.880157336146,-0.013281243602149998,-0.00979865510983,0.001236201565681,0.0190261297976,0.002366903827413,0.022907156342349997,-0.005694756683280001,0.024367223853,9.68454837799,3.0853420496,-0.243247024715,-0.711461752653,3.4662313461300003,0.054866200312949996,1857006.5,1521542065.0,443574675.0,,,,,,2165493.0,1521542066.0,287627679.0,,0.371999931335,-1.34099999666,-3.99299888611,0.291999995708,-0.123000003397,-0.0120000001043,6.0,9.5,11.5,19.0,31.0,-56.5,-54.0,-53.0,-46.0,-41.5,4.0,0.07499992847399994,1.00000005961,0.454999923705,-0.10900001227899997,-0.004500001668499995,0.00949999969455
24,48.3537394615,4834.5,1521542066.0,373553037.0,,2661097.0,1521542065.0,517067074.0,,0.8254303127429999,-0.0775843754881,-0.0019710947829,0.474553816071,0.88007869347,-0.0129216574142,-0.00965400030359,0.00723499951977,0.00208740479377,0.0112027678455,0.00367369879834,-0.016402840951200003,-0.0242444623106,10.216539382899999,3.3346683979,-0.31182032823600003,-0.8115624189380001,3.6377351284,0.037227630615199986,1857011.5,1521542065.0,524562100.5,,,,,,2165501.0,1521542066.0,369630806.0,,0.7470000505450001,-0.4510000146925001,-3.823000717165,0.2785000056025,-0.13050000369550002,-0.0169999995269,-3.0,-2.0,2.0,7.0,35.0,-52.0,-48.0,-45.5,-45.0,-44.0,4.0,0.3750001192100001,0.8899999819674997,0.1699981689450003,-0.013499990105500015,-0.007500000298500023,-0.004999999422600002
25,48.4563035641,4845.5,1521542066.0,483364462.5,,2661111.5,1521542065.0,662066336.0,,0.8255831487784999,-0.0774697502218,-0.0016680372736550002,0.4745436861905,0.880087952351,-0.012798233354700001,-0.00946232911123,0.0013195454312399993,-0.007698187579099998,-0.0039646177792,0.009562896529900005,0.0029722137508649995,-0.00460036670305,9.77299547195,3.049172997475,-0.1337461136285,-0.7486882209775,3.4832885265349995,0.045641247183099996,1857020.5,1521542065.0,665077202.0,,,,,,2165512.0,1521542066.0,477846014.0,,-0.257999944687,-1.7310000419599998,-4.3030002594,0.277000010014,-0.115000002086,-0.00999999977648,6.5,10.0,14.0,20.0,22.0,-56.0,-54.5,-54.5,-49.5,-41.0,4.0,-1.0049999952320001,-1.2800000272674996,-0.4799995422350003,-0.0014999955885000027,0.01550000160950002,0.00699999975042
26,48.5588676667,4856.5,1521542066.0,594485997.5,,2661122.5,1521542065.0,772070261.0,,0.8250110299044999,-0.07770013602985,-0.00244658458864,0.4745117693485,0.8800920378665,-0.01342535436285,-0.00981013550184,0.0014280125153899991,0.004438891968365,-0.00026122879075999965,0.0026989181950500003,-0.00559895663955,0.0160491540636,9.039630889895001,2.890852451325,-0.08730315603305001,-0.673763304949,3.19442284107,0.05200704745945,1857029.0,1521542065.0,780576694.0,,,,,,2165523.5,1521542066.0,594303872.5,,-0.0730000019075,-0.33600001633149995,-4.11799888611,0.2705000042915,-0.1240000016985,-0.039500001817900005,4.5,5.5,7.5,14.0,32.0,-53.5,-50.5,-46.0,-42.5,-40.0,4.0,0.1849999427795,1.3950000256284998,0.18500137329000044,-0.00650000572249998,-0.008999999612500004,-0.029500002041420004
27,48.6614317692,4864.5,1521542066.0,674069523.0,,2661130.5,1521542065.0,852081969.5,,0.8255068096060001,-0.07759712365015001,-0.0019164793130650002,0.474685607666,0.8800080799525,-0.0131327280439,-0.009313923928135,0.006807929639445001,0.017443045834564998,0.00934603135818,0.0203794499353,-0.021503522228590498,0.008986415243654997,9.959071636185,3.1692634820950003,-0.06969698145985001,-0.7807739973064999,3.5468617677699994,0.048958845436550005,2661483.5,1521542065.0,850151626.5,,,,,,2165531.0,1521542066.0,668874311.0,,1.237000060083,-1.0760000109675,-4.0530002594,0.2545000091195,-0.131000004709,-0.0035000001080349994,3.5,4.0,4.5,9.0,62.5,-54.0,-54.0,-52.5,-47.0,-41.0,4.0,1.3100000619905,-0.7399999946360001,0.06499862670999956,-0.015999995172000014,-0.007000003010499994,0.036000001709865004
28,48.763995871800006,4873.5,1521542066.0,763697027.5,,2661139.0,1521542065.0,937066372.0,,0.824810232141,-0.07742325135539999,-0.0020723940803,0.474439810274,0.880129718918,-0.0134597390635,-0.00986811675204,-0.0113549027553,-0.00787462812807,-0.00956886657327,-0.00325714784325,0.0290337895363,-0.0341531686985,9.027632713320001,2.80506658554,-0.0477744266391,-0.639866232872,3.1820261478400003,0.034368053078699994,1857040.5,1521542065.0,937060673.5,,,,,,2165540.0,1521542066.0,759417868.5,,0.936999988556,-0.8860000133515,-3.8279998779300004,0.26550000906,-0.131500005722,0.009000000427494999,1.0,1.5,6.5,12.5,40.5,-55.5,-53.5,-52.0,-46.0,-43.0,4.0,-0.30000007152700003,0.18999999761600006,0.22500038146999968,0.010999999940499994,-0.0005000010129999899,0.012500000535529998
29,48.8665599744,4885.5,1521542066.0,883765458.5,,2661149.0,1521542066.0,37066155.0,,0.8257942326719999,-0.0777159699157,-0.0016725868729900002,0.4747979204,0.8799543327789999,-0.0126585818556,-0.00933098667867,0.006026026531960001,0.011644958781700002,0.019773012171,0.0283943924642,-0.015773760422200002,-0.00915773186676,9.355228424069999,3.0330295562700003,-0.07829646766189999,-0.7633692622179999,3.31939935684,0.0345857590437,2661502.5,1521542066.0,40171884.5,,,,,,2165552.0,1521542066.0,878556862.0,,0.9920000553155001,-1.946000015735,-5.08800010681,0.28499999642350005,-0.1375000029805,-0.00900000007823,-0.5,1.0,7.0,11.5,19.5,-55.0,-53.5,-49.5,-41.0,-31.0,4.0,0.05500006675950009,-1.0600000023835,-1.2600002288799996,0.01949998736350006,-0.005999997258500006,-0.018000000505725
30,48.969124076899995,4897.5,1521542066.5,503253459.5,,2661161.0,1521542066.0,157077006.0,,0.8254006198720001,-0.0775705388672,-0.00182839376848,0.474673445206,0.8800142191249999,-0.0129371268698,-0.009629397835110002,-0.0122273294124,-0.00434754712167,-0.012294534334499998,-0.015622002845299996,0.0210418570422,0.0262750543247,7.57533454895,2.52969765663,0.8761312961579999,-0.617696583271,2.6376080513,0.0524984002113,1857055.0,1521542066.0,162580499.0,,,,,,2165563.5,1521542066.0,994943639.0,,0.032000017166500035,-1.771000033615,-4.6680000305150005,0.26049999892700004,-0.142999999225,-0.0140000004321,-4.0,-1.5,8.5,19.5,23.0,-52.0,-49.0,-45.0,-38.0,-36.0,4.0,-0.960000038149,0.1749999821199999,0.4200000762949996,-0.024499997496500003,-0.005499996244500011,-0.00500000035387
31,49.0716881795,4906.5,1521542067.0,93339085.0,,2661170.5,1521542066.0,252065495.5,,0.8254469186495,-0.07738995684010001,-0.0016412749067149998,0.47473291976899995,0.8799845125075001,-0.01286439887415,-0.00948585801902,-0.0070918118128850014,0.00127226045123,-0.00598196350673,-0.0063227575181,0.0135332748266015,-0.009633769222295,7.16066932678,2.36378824711,1.04443758726,-0.4934886544945,2.478840589525,0.05263549648225,2661523.0,1521542066.0,245160624.0,,,,,,2165573.0,1521542067.0,88502423.0,,1.2119998455,-2.24100003242,-4.823000717159999,0.25999999046300004,-0.15000000596,-0.00400000018999,-2.5,-2.0,0.5,10.0,37.5,-54.0,-54.0,-49.5,-46.5,-43.0,-0.5,1.1799998283335,-0.4699999988050001,-0.1550006866449989,-0.0005000084640000013,-0.007000006734999981,0.01000000024211
32,49.1742522821,4917.5,1521542067.0,203283428.5,,2661181.0,1521542066.0,357184523.0,,0.8253246572565,-0.07701854054804999,-0.001898251729935,0.4744110568495,0.8801575999955,-0.0127990725027,-0.0096280149817,-0.003908403938775,0.005604012313428001,-0.004433483713404999,0.003721116283555,0.006710328738099999,0.0139334069332171,7.3875648975349995,2.34714615345,0.9850162863725,-0.494268447161,2.5587028265000002,0.0628558844328,1857069.0,1521542066.0,363643548.5,,,,,,2165584.0,1521542067.0,198769654.0,,1.40199990273,-0.631000008807,-3.90299873352,0.234999999404,-0.143999993801,-0.0340000018477,-3.0,-1.0,0.5,5.5,48.0,-52.5,-52.0,-46.5,-44.0,-39.0,-1.0,0.19000005723000002,1.610000023613,0.9200019836399993,-0.024999991059000054,0.006000012158999979,-0.030000001657710003
33,49.276816384600004,4928.5,1521542067.0,313255905.5,,2661191.0,1521542066.0,457184906.0,,0.8250084047,-0.0774437526494,-0.00218924689933,0.47442395467,0.880142840238,-0.0131597323231,-0.0098647583556,0.006070063935579999,-0.005692698250789999,0.00826174771643,-0.0182595784182,-0.013416546449200002,0.0221322277163,7.00571346283,2.27397918701,1.04555594921,-0.4478510022160001,2.40591430664,0.048588901758199986,2661545.0,1521542066.0,465283927.5,,,,,,2165594.5,1521542067.0,304692958.0,,0.4920000553135001,0.52399995327,-3.838000106815,0.2404999956485,-0.11849999800349999,-0.0340000018477,5.5,6.5,9.0,14.5,38.5,-47.0,-45.5,-41.5,-37.5,-29.5,-1.0,-0.9099998474165,1.154999962077,0.064998626705,0.005499996244500011,0.025499995797500022,0.0
34,49.3793804872,4938.5,1521542067.0,413533091.0,,2661205.0,1521542066.0,597186401.0,,0.8254220098329998,-0.0774042589342,-0.0019483771836699998,0.4744753133235,0.880121415973,-0.0130138576009,-0.00948657386858,-0.005581079781745,0.013375132829529998,0.0026296989030050004,0.007304085762305,0.007054159633000001,0.01810895902178,7.563856840129999,2.4637550115550004,0.9679711163045,-0.5416202247140001,2.6354355812050003,0.06327751651409999,2661557.0,1521542066.0,585251540.0,,,,,,2165604.5,1521542067.0,406495224.0,,0.46699995994599997,-2.08600000143,-4.537998962405,0.2639999985695,-0.13349999487400002,0.004499999806285,6.0,9.0,9.0,33.5,66.0,-49.0,-48.0,-41.5,-39.0,-34.5,-1.0,-0.02500009536750014,-2.6099999547,-0.6999988555900001,0.02350000292100002,-0.014999996870500035,0.038500001653985004
35,49.4819445897,4948.5,1521542067.0,514184951.5,,2661215.0,1521542066.0,697184967.5,,0.8251387564895001,-0.07722903238055,-0.00187022559341,0.474464650965,0.880123336075,-0.01306547978195,-0.009731373873475,0.007365181130445,-0.004369755759267,0.008226950587135,0.01684475857636,-0.010384668086799996,-0.02358497320395,7.327425241470001,2.303101062775,0.9899728894215,-0.487299516797,2.5422149896599997,0.0592183843255,1052618.0,1521542066.0,688000000.0,,,,,,2165615.0,1521542067.0,510778631.0,,-0.5130000591275,-0.9760000057515,-3.75299911499,0.229000002146,-0.110500000417,-0.02150000026449,2.5,3.5,5.5,10.0,37.5,-52.0,-47.0,-43.5,-38.5,-34.0,-1.0,-0.9800000190735,1.1099999956784998,0.784999847415,-0.03499999642350002,0.022999994457000017,-0.026000000070775
36,49.5845086923,4957.5,1521542067.0,603899001.5,,2661224.0,1521542066.0,787188073.0,,0.8252558628409999,-0.07699324976425001,-0.0018802248878399999,0.474699668075,0.8800005133734999,-0.0128654753944,-0.00967226740145,0.0022658481681199997,-0.002754860955415,0.00331441305017,0.00046010433134999884,-0.003143737569205001,0.001458718394800003,7.468304157255,2.439453959465,0.9768935143945,-0.533899188042,2.58684396744,0.06367069110269999,1857099.0,1521542066.0,781635540.0,,,,,,2165623.5,1521542067.0,596391630.5,,-0.6030000925065,-0.161000019312,-3.61799888611,0.23399999737750002,-0.1160000003875,-0.033499998971800005,5.0,6.0,7.5,10.0,46.0,-51.5,-49.5,-47.5,-43.0,-36.0,-1.0,-0.09000003337899998,0.8149999864395,0.13500022888000007,0.004999995231500021,-0.005499999970499991,-0.011999998707310004
37,49.6870727949,4968.5,1521542067.0,713320970.0,,2661234.5,1521542066.0,892187568.5,,0.825231958501,-0.0769505755675,-0.001896512426805,0.4740885174035,0.8803312748309999,-0.012699516731749998,-0.009758542215905,-0.0103924404250315,0.01612040838645,-0.00561905927490835,0.0136962038783,0.016368676965425003,0.0069154904615015,7.13486814499,2.3019008636500002,0.996424615384,-0.47795329988000007,2.467455506325,0.048650925979050005,1052626.0,1521542066.0,888999936.0,,,,,,2165634.5,1521542067.0,706398738.5,,-0.26300005912799995,-0.1560000017285,-3.69799880981,0.241500005126,-0.11499999836100001,-0.013499999884525,-4.5,-0.5,9.0,10.0,34.5,-51.0,-42.0,-40.5,-34.5,-27.5,-1.0,0.34000003337850004,0.005000017583499994,-0.07999992369999998,0.007500007748499987,0.0010000020264999826,0.019999999087275004
38,49.7896368974,4980.5,1521542067.0,833258986.0,,2661246.0,1521542067.0,7314636.0,,0.825004623515,-0.0775398098872,-0.00222035550593,0.474352017743,0.880181029314,-0.013171122153200002,-0.00990153724617,0.008839893955440001,0.00979742407478,0.00456354129664,0.0243883173703,-0.017040975471,-0.0138252336462,7.167957305910001,2.27989339828,1.00747358799,-0.432573586702,2.47217321396,0.07942758500580001,1052630.0,1521542066.0,990000128.0,,,,,,2165646.5,1521542067.0,827036221.0,,1.11199994087,-0.2510000079875,-3.418000030515,0.22350000590100003,-0.112500000745,-0.0384999997914,0.0,2.0,20.0,23.0,24.0,-53.0,-45.0,-40.5,-40.0,-37.5,-1.0,1.374999999998,-0.09500000625899999,0.27999877929500006,-0.01799999922499998,0.0024999976160000187,-0.024999999906875
39,49.892201,4986.5,1521542067.0,893256067.5,,2661250.0,1521542067.0,47321988.5,,0.825023984158,-0.07731655832605,-0.002141671844845,0.474079120509,0.8803273616435001,-0.0133704233918,-0.009685918066729998,0.001627901707449999,-0.00362689963605,0.0008929102140900002,0.0025490558426166502,-0.00020187065760000032,0.005051661622286501,7.176830768584999,2.259786725045,1.0242142677285,-0.4255969524385,2.489749193195,0.0641688052565,1052632.0,1521542067.0,40000000.0,,,,,,2165652.5,1521542067.0,886072874.0,,0.321999979019,0.4440000295635,-3.0829990386949997,0.230999998748,-0.1119999997315,-0.03150000050665,-2.0,-0.5,1.5,13.5,69.5,-46.5,-41.5,-41.0,-39.5,-36.5,-1.0,-0.7899999618510001,0.6950000375509999,0.3350009918200003,0.007499992846999981,0.0005000010134999927,0.006999999284750001
