,Unnamed: 0,Unnamed: 0.1,.header.seq,.header.stamp.secs,.header.stamp.nsecs,.header.frame_id,.endpoint_state.header.seq,.endpoint_state.header.stamp.secs,.endpoint_state.header.stamp.nsecs,.endpoint_state.header.frame_id,.endpoint_state.pose.position.x,.endpoint_state.pose.position.y,.endpoint_state.pose.position.z,.endpoint_state.pose.orientation.x,.endpoint_state.pose.orientation.y,.endpoint_state.pose.orientation.z,.endpoint_state.pose.orientation.w,.endpoint_state.twist.linear.x,.endpoint_state.twist.linear.y,.endpoint_state.twist.linear.z,.endpoint_state.twist.angular.x,.endpoint_state.twist.angular.y,.endpoint_state.twist.angular.z,.endpoint_state.wrench.force.x,.endpoint_state.wrench.force.y,.endpoint_state.wrench.force.z,.endpoint_state.wrench.torque.x,.endpoint_state.wrench.torque.y,.endpoint_state.wrench.torque.z,.joint_state.header.seq,.joint_state.header.stamp.secs,.joint_state.header.stamp.nsecs,.joint_state.header.frame_id,.joint_state.name,.joint_state.position,.joint_state.velocity,.joint_state.effort,.wrench_stamped.header.seq,.wrench_stamped.header.stamp.secs,.wrench_stamped.header.stamp.nsecs,.wrench_stamped.header.frame_id,.wrench_stamped.wrench.force.x,.wrench_stamped.wrench.force.y,.wrench_stamped.wrench.force.z,.wrench_stamped.wrench.torque.x,.wrench_stamped.wrench.torque.y,.wrench_stamped.wrench.torque.z,.tactile_values.tactile_values_0,.tactile_values.tactile_values_1,.tactile_values.tactile_values_2,.tactile_values.tactile_values_3,.tactile_values.tactile_values_4,.tactile_values.tactile_values_5,.tactile_values.tactile_values_6,.tactile_values.tactile_values_7,.tactile_values.tactile_values_8,.tactile_values.tactile_values_9,.tag,.delta_wrench.force.x,.delta_wrench.force.y,.delta_wrench.force.z,.delta_wrench.torque.x,.delta_wrench.torque.y,.delta_wrench.torque.z,.wrench_stamped.wrench.force.magnitude,.wrench_stamped.wrench.torque.magnitude,.endpoint_state.wrench.force.magnitude,.endpoint_state.wrench.torque.magnitude,.endpoint_state.twist.linear.magnitude,.endpoint_state.twist.angular.magnitude
0,0,56.028115,5600.5,1521545155.0,59366464.0,,2969960.5,1521545154.0,152651503.0,,0.8039177794354999,-0.175831143054,0.008719593638779999,0.8640361112525,0.5026772286425001,-0.02544437290395,-0.010466734415,-0.003892038777382,0.013065745344815,-0.004760117464783001,0.0039639830907,0.004932186056300001,0.012311591550445,3.04014348984,-0.1249502860009,9.750875949860001,-0.048090333119,0.8730774223805,0.09937597066175001,2072538.5,1521545154.0,145847271.5,,,,,,2474045.5,1521545155.0,54962580.5,,0.4549998760225,-2.118000012635,3.95899810791,0.150499999523,-0.160499997437,-0.1334999985995,224.5,417.0,464.0,661.5,821.0,204.0,280.0,281.0,488.0,558.0,5.0,0.0,0.0,0.0,0.0,0.0,0.0,4.512938616814693,0.25735723937703114,10.214581087951988,0.8800298001516991,0.014440234954415808,0.013842503665966805
1,1,56.13067910260001,5612.5,1521545155.0,179142475.0,,2969972.5,1521545154.0,272641943.5,,0.8030333744179999,-0.17685860947749998,0.007955940548775,0.864069126179,0.5025624544734999,-0.02656176875555,-0.010484369999950002,0.009837535377815,-0.0012035312146300005,0.004135003139435,0.0057715438261750004,-0.0179889314258,-0.014360369229950001,2.95955765247,-0.1254423931241,9.782179832455,-0.053899816237515,0.8328640162944999,0.0877141021192,2970325.5,1521545154.0,270715332.5,,,,,,2474057.5,1521545155.0,175361332.5,,-0.314999985695,-3.227999967335,3.963999176025,0.12650000304,-0.15299999713899998,-0.114500001073,195.5,418.0,475.0,656.0,849.0,188.0,258.0,283.0,509.0,543.0,5.0,-0.7699998617174999,-1.1099999547,0.005001068114999896,-0.023999996483,0.00750000029800002,0.01899999752650001,5.121767102048813,0.22917569709585484,10.22084925858785,0.8392028500542764,0.010738893828392559,0.02373041458550795
2,2,56.2332432051,5620.5,1521545155.0,259672999.0,,2969978.5,1521545154.0,332010381.5,,0.8036884600399999,-0.176766852172,0.008664572471615,0.8641935434294999,0.5023915973449999,-0.02580232936915,-0.01031508694895,0.0017437467344800005,-0.0168802410322,-0.00323787258685,-0.013389252264585,-0.0030983507637000023,-0.0177007690192,2.8353996276849998,-0.133868433535,9.73024511337,-0.034503234550349995,0.782980322838,0.0950525626539,2072551.0,1521545154.0,332047266.0,,,,,,2474065.5,1521545155.0,255614224.5,,-0.08999996185325003,-3.118000012635,4.134001159665003,0.1379999965425,-0.154500000179,-0.1169999986885,221.5,416.0,481.5,670.0,833.5,186.0,272.5,277.5,493.0,543.0,5.0,0.22500002384174994,0.10999995470000057,0.17000198364000152,0.011499993502499998,-0.0015000030400000306,-0.002499997615500002,5.178801952192904,0.23791437281961342,10.135831577746055,0.7894831529633858,0.017276197754941706,0.02240957557676373
3,3,56.3358073077,5634.5,1521545155.0,399178504.5,,2969992.0,1521545154.0,467010557.0,,0.803402044339,-0.176166503088,0.00832073365736,0.8641122893790001,0.502523611595,-0.0258093748625,-0.0106699251654,0.0110297719195,0.0075140296198900015,0.0068620494983000005,0.0181837981754,-0.0174184436935,-0.0105969693466,2.8858811855299997,-0.206269875169,9.8030796051,0.0285369716585,0.828874826431,0.115512385964,2970344.0,1521545154.0,455098159.0,,,,,,2474079.5,1521545155.0,396114828.5,,-1.7300000369550002,-2.52300001383,4.3539985656699995,0.120000001043,-0.1570000052455,-0.1219999976455,222.5,420.0,484.0,661.0,850.0,219.0,266.0,289.0,496.0,553.5,5.0,-1.6400000751017498,0.5949999988049997,0.21999740600499876,-0.017999995499499998,-0.0025000050664999995,-0.0049999989569999995,5.321252926473886,0.23223479782950063,10.221116730686813,0.8373714515993212,0.015006806223907014,0.027319378765266432
4,4,56.4383714103,5643.5,1521545155.0,489385485.0,,2970001.0,1521545154.0,557004521.0,,0.804225499049,-0.17625335642999998,0.00891655701342,0.8641405386579999,0.502514307902,-0.0252049193797,-0.010257282272600001,-0.028632587307899998,0.00808335295422,-0.0198260361395,0.010798354171899999,0.0617075934454,0.002931222146650001,2.9595181942,-0.181605309248,9.685648918150001,0.0461947619915,0.8522441387180001,0.11497458815600001,2072567.0,1521545154.0,554545284.5,,,,,,2474088.5,1521545155.0,486166645.5,,-0.61500005722035,-3.508000057935,4.55900039673,0.121500000358,-0.16449999809250002,-0.13499999791349998,228.5,415.0,483.0,663.0,821.0,206.0,264.0,293.5,479.0,573.0,5.0,1.11499997973465,-0.9850000441050001,0.2050018310599997,0.0014999993150000002,-0.00749999284700001,-0.01300000026799998,5.785220315099269,0.24504591181260607,10.1293397314834,0.861204496003289,0.035752445509807766,0.06271382307687497
5,5,56.5409355128,5653.5,1521545155.0,589319467.0,,2970011.0,1521545154.0,657011103.0,,0.8036277448549999,-0.17615312491300006,0.008806778048149999,0.863960679809,0.502792583187,-0.025805910573700002,-0.0102770139291,0.006364971955319999,0.0159849116984,-0.0005043562510880001,0.024261738617599997,-0.013670119672700001,0.00835059917883,2.9210934638999997,-0.115591131151,9.75952911377,-0.0189651306719,0.842358708382,0.0867890864611,2970364.0,1521545154.0,655101232.0,,,,,,2474098.5,1521545155.0,584400676.5,,-0.05999999046315,-2.5079999983350003,3.823999786375,0.1335000023245,-0.155000001192,-0.137000001967,214.5,411.0,446.0,631.5,840.0,200.0,268.0,289.0,502.0,576.0,5.0,0.5550000667572,1.0000000595999996,-0.7350006103550002,0.012000001966499987,0.009499996900500018,-0.002000004053500009,4.573471149652087,0.2462036789512283,10.187961369035726,0.8470302328117608,0.01721292088013149,0.029072953741581864
6,6,56.643499615399996,5662.5,1521545155.0,679412483.5,,2970019.0,1521545154.0,737004622.0,,0.8037738162190001,-0.17612767710299998,0.00879856240274,0.863965331262,0.502795139895,-0.025626161677900005,-0.0102104609192,-0.013832814203899998,0.0142190903505,-0.00434933894861,0.00219441739991,0.0228601988055,0.0280310838901,2.8685483932499998,-0.223252117634,9.7158613205,-0.002880403772,0.802463650703,0.0870685353875,2970373.0,1521545154.0,745102437.5,,,,,,2474107.5,1521545155.0,675368162.0,,-1.79000006914,-3.22799996734,3.994001770015,0.1215000003575,-0.156500004232,-0.111999999732,205.0,406.0,446.0,646.0,865.0,196.0,270.5,293.0,501.0,560.0,5.0,-1.7300000786768501,-0.7199999690049999,0.1700019836400002,-0.01200000196699999,-0.0015000030400000028,0.025000002234999985,5.438394448323072,0.22759284116917325,10.132935043294871,0.807178503975422,0.020308767281280164,0.036237353948734105
7,7,56.7460637179,5674.5,1521545155.0,799085020.5,,2970034.5,1521545154.0,892014273.5,,0.8040309957810001,-0.1759680685535,0.008591284766665002,0.8639080059729999,0.5029038073569999,-0.0254371211115,-0.01017455154385,0.007741702827889998,0.01104822558475,0.00529791439017,0.008281001684324999,-0.01935162215978,-0.005294401107859999,2.9799560308500004,-0.196946233511,9.721878051755,-0.008079895749649998,0.8642267882825001,0.0995951108635,2072590.0,1521545154.0,889051157.5,,,,,,2474119.5,1521545155.0,795857522.0,,-1.43000005484,-3.842999976875,4.689001464845001,0.13550000637749998,-0.1585000008345,-0.134000003338,195.0,397.0,450.0,644.0,836.0,200.0,265.0,291.0,498.0,591.5,5.0,0.36000001429999995,-0.6150000095349997,0.6949996948300008,0.014000006019999985,-0.0019999966024999982,-0.02200000360599999,6.228987374880624,0.24786791419508708,10.170242800341056,0.8699841449177814,0.014493624396004432,0.021704629741177137
8,8,56.8486278205,5685.5,1521545155.0,909080028.0,,2970045.5,1521545154.5,502016907.0,,0.8034179945685,-0.17637757707,0.008281335736545,0.8639488690025,0.5027913553575001,-0.026278646719650002,-0.010130080184549998,-0.0007827503628149999,-0.005240547538980501,0.00044973136338035,0.0022714211489249987,0.0017756578472000004,-0.010091673292185,3.273091554645,-0.166166447103,9.72629451752,0.03014070075005,0.9641188681125,0.11581062152999999,1174797.0,1521545154.0,995000064.0,,,,,,2474130.5,1521545155.0,905751076.5,,-1.58500002623,-2.517999988795,4.80900039673,0.13499999791349998,-0.15550000220549998,-0.134500004351,195.5,402.0,439.0,682.0,849.0,203.0,253.0,278.0,513.0,591.5,5.0,-0.15499997138999988,1.3249999880799996,0.11999893188499923,-0.0005000084640000013,0.0029999986290000225,-0.0005000010130000175,5.655000781827534,0.24595833243249662,10.263602908081102,0.9715172431570102,0.005317734004066915,0.010495436373124594
9,9,56.951191923100005,5696.5,1521545156.0,19083022.5,,2970056.5,1521545155.0,112010192.5,,0.8041759384005001,-0.17649617840999998,0.008625538351960001,0.8639958072555001,0.502756595298,-0.02546227835445,-0.009930957345345,0.00198869258309,0.0004600823440250005,-0.0034562166864550003,-0.0010105845189500003,-0.004417568120325,0.008239341350081,3.4713112115850002,-0.014251239597775,9.75306224823,-0.0470845848322,1.0435043573349998,0.0970201008022,2072605.5,1521545155.0,106050600.5,,,,,,2474141.5,1521545156.0,15937765.5,,-2.5000000178799997,-2.81800000072,4.38400115967,0.120000001043,-0.17099999636399998,-0.12899999693,212.0,411.0,420.0,658.0,835.0,201.5,269.5,277.5,527.0,591.0,5.0,-0.9149999916500002,-0.3000000119249999,-0.4249992370600007,-0.014999996870499981,-0.01549999415850001,0.005500007421000014,5.780189465877899,0.24552392595172476,10.352411692130246,1.049062058157486,0.004013976549140602,0.009403347013207997
10,10,57.0537560256,5705.5,1521545156.0,109074950.0,,2970065.5,1521545155.0,202018573.5,,0.8041429014545001,-0.1769984984785,0.008439501113355,0.8642352510304999,0.5023403545095,-0.02553541156975,-0.009969938390775,-0.0033685677690765,-0.0059705738894325,-0.00519352625153,-0.006964744146049997,0.00744180571488,-0.0018741755246499995,3.6264699697500014,0.017235279083450003,9.695908069609999,-0.07835681550200001,1.0973674654965,0.09175664931535,1174805.0,1521545155.0,198000128.0,,,,,,2474150.5,1521545156.0,107510667.5,,-2.230000036955,-3.12300006747,3.97399749756,0.14000000059599998,-0.1875,-0.1335000023245,211.5,403.0,429.0,660.5,826.0,196.0,276.0,280.5,491.0,600.5,5.0,0.2699999809250002,-0.3050000667499995,-0.41000366210999983,0.019999999552999984,-0.016500003636000016,-0.00450000539449999,5.524371973070791,0.26940397322148296,10.351918411129018,1.103981171741351,0.00860044861093684,0.010363429317323269
11,11,57.156320128199994,5716.5,1521545156.0,219081997.5,,2970076.5,1521545155.0,312018182.5,,0.8044072114065001,-0.1762788291545,0.008822659311025001,0.8640176639720001,0.5027350244575,-0.025197303914900004,-0.009792460900025,0.01240704257985,0.007234633723815,0.0178579120101,-0.01039343969292,-0.0272043468563,-0.0018670040192499977,3.622695684435,-0.07839946076269999,9.75043821335,0.00622160267087,1.116141378875,0.10273099690689999,2072619.5,1521545155.0,307051588.5,,,,,,2474161.5,1521545156.0,215709020.0,,-1.2099999666215,-1.388000008462,4.954000854489999,0.1164999976755,-0.16250000149,-0.143500000238,237.0,403.0,444.0,657.0,869.0,216.5,258.0,307.0,473.0,580.0,5.0,1.0200000703335002,1.7350000590079997,0.9800033569299988,-0.02350000292049997,0.02499999851000001,-0.009999997913500008,5.285146015863912,0.24611125535202064,10.401976535727611,1.120876417676037,0.02291679846873132,0.029181942713536742
12,12,57.2588842308,5725.5,1521545156.0,309318900.0,,2970084.0,1521545155.0,387010840.0,,0.8035567273399999,-0.176572003424,0.00828215521444,0.863871348365,0.502936070369,-0.0261545543518,-0.009876329391059998,-0.010071862851700001,0.00471649104327,-0.00184099564443,-0.00015532496088100002,0.018241465036900002,0.0189822228582,3.46581912041,-0.12342868745300001,9.69130897522,0.0391109138727,1.0408973693799999,0.11091960966600001,2970437.0,1521545155.0,385099827.0,,,,,,2474170.5,1521545156.0,307229419.0,,-0.870000052452,-2.02799997926,3.689001464845,0.1464999988675,-0.189500004053,-0.148000001907,245.5,388.0,436.0,648.0,816.0,207.0,273.5,287.5,503.0,576.5,5.0,0.33999991416950004,-0.6399999707980002,-1.2649993896449985,0.030000001192,-0.027000002563000003,-0.004500001668999998,4.298652790674492,0.2815608313823791,10.293133947902634,1.0475209577734563,0.011272842322480645,0.026326791623254978
13,13,57.3614483333,5734.5,1521545156.0,399088501.5,,2970091.5,1521545155.0,462007746.5,,0.8043838572655,-0.17659122672650002,0.008507633813665,0.8642685569419999,0.502293923517,-0.025389869800550004,-0.009790842114995,0.0039160125964000005,-0.00976256510711,-0.0007426976473500005,-0.00914965657865,0.0051253344443999965,-0.017795614247350003,5.520493507385,-0.48843704163999996,10.26680803295,0.13397994264945,1.82052975893,0.046555580571300006,2072631.0,1521545155.0,470054620.5,,,,,,2474179.5,1521545156.0,396896342.5,,-1.755000042915,-1.962999981645,4.483999633784999,0.1530000045895,-0.2374999970195,-0.199500001967,239.0,400.0,434.5,672.0,811.0,213.0,280.0,311.5,493.5,581.5,5.0,-0.8849999904630002,0.0649999976150002,0.7949981689399994,0.006500005721999991,-0.04799999296649998,-0.05150000006,5.199966037807741,0.34585473941162426,11.667123317003751,1.8260467272948973,0.01054487704627723,0.020655971415420592
14,14,57.4640124359,5746.5,1521545156.0,519103407.5,,2970103.5,1521545155.0,582021857.5,,0.8034835191590001,-0.17649482742449998,0.010829276572,0.8646550526045,0.5014332636634999,-0.02846994800895,-0.01121322168285,-0.014280241226899996,-0.01095940893211,0.03058976598125,-0.01085642498052,0.08818463719744997,-0.047563308783050005,9.94471406939,0.9542707800865,14.3104090691,-0.674457639456,4.653789043424999,0.009822346270095,2072639.0,1521545155.0,594055250.0,,,,,,2474191.5,1521545156.0,515780574.5,,1.004999947548,-0.847999994457,9.40400161743,-0.20250000059599998,-0.07550000026824999,-0.0744999982417,167.0,222.0,390.0,715.0,743.5,198.0,279.0,292.0,470.0,546.5,5.0,2.759999990463,1.114999987188,4.920001983645,-0.3555000051855,0.16199999675125,0.1250000037253,9.495492367739368,0.2285973534840223,17.452672527972037,4.702418744285687,0.03549320662362456,0.10078025869879129
15,15,57.5665765385,5753.5,1521545156.0,590074061.5,,2970111.0,1521545155.0,657010967.0,,0.802105113241,-0.17864725860999994,0.0148636511195,0.8667344177449999,0.497564464169,-0.0326216974522,-0.0116994849756,-0.034678600690800004,-0.0247507331867,0.058915883481099995,-0.0508041653848,0.141169216224,-0.12752037884099998,10.2835388184,2.76953864098,15.279493331900001,-1.3823802471200002,4.85101127625,0.034769304096699996,1174823.5,1521545155.0,659499904.0,,,,,,2474198.5,1521545156.0,587337476.5,,1.0950001001335,-0.5379999995229999,8.724001312255,-0.226999998093,-0.0515000000596,-0.041500000283150006,221.0,260.5,375.5,618.0,726.5,183.0,245.0,301.0,477.0,560.0,5.0,0.09000015258549987,0.3099999949340001,-0.6800003051749997,-0.024499997496999992,0.024000000208649997,0.03299999795855,8.808897099808016,0.23643920817804787,18.62483372792889,5.044253607268332,0.07270684607043355,0.19690418443876892
16,16,57.669140641000006,5765.5,1521545156.0,709074496.5,,2970122.5,1521545155.0,772007488.5,,0.800108290954,-0.1793730468285,0.023826549905,0.8678137587474999,0.4952032840190001,-0.038903436157300006,-0.012582593766800002,0.004075533627150005,0.0012359866114499995,0.09698648486030001,-0.03219105033335,0.053035588718614995,-0.0331049146339,11.0977540016,4.2822484970099985,13.47595357895,-1.66501736641,4.633469343185,0.028908450156435006,2970475.5,1521545155.0,770071394.0,,,,,,2474210.5,1521545156.0,707700404.5,,-0.3350000858305,-1.533000004295,7.66399993896,-0.16400000453000002,-0.1579999998215,-0.07899999991060001,227.5,250.5,290.0,346.0,586.5,150.0,194.0,314.0,449.0,505.0,5.0,-1.430000185964,-0.995000004772,-1.060001373295,0.06299999356299997,-0.1064999997619,-0.037499999627450015,7.822992338936157,0.24104149314030734,17.974958162181867,4.923632468327889,0.09707994583232377,0.07032050031969456
17,17,57.7717047436,5778.5,1521545156.0,839100003.0,,2970136.0,1521545155.0,907011959.0,,0.8026637598645,-0.17797458180950002,0.0318030907848,0.8685549316310001,0.49388478787199996,-0.03970633467795,-0.01065327775095,0.018423545510700003,0.008541558409825,0.05268440163470002,-0.0743557685239,-0.012103656875670001,0.04275119617465002,12.244289875,3.7068635225300004,12.36743354795,-1.126541376115,5.0603265762300005,0.031727751717,1174833.5,1521545155.0,912499968.0,,,,,,2474223.5,1521545156.0,836921806.5,,-2.79500002712,0.9369999945175,8.939001464845001,-0.0595000013709,-0.3270000070335,-0.08050000295045,91.0,102.5,135.0,200.0,227.0,31.5,72.0,151.5,202.5,400.5,5.0,-2.4599999412895,2.4699999988125,1.275001525885001,0.10450000315910002,-0.169000007212,-0.0015000030398499842,9.412531079886412,0.34197880817101606,17.7937316007815,5.184303924388281,0.0564626551346965,0.086619533575904
18,18,57.874268846199996,5784.5,1521545156.0,899078011.0,,2970144.5,1521545155.0,992017692.0,,0.80475929781,-0.1760515070045,0.036799110016300006,0.8677758195630001,0.49540221659100003,-0.03824774743315,-0.008867849977010001,0.05936367390125,0.0268508611655,0.0853973463153,0.0162549825031,-0.1471422307925,0.04198027596948002,6.420127630234997,2.49559307098,7.080146074295,-0.5580727458,2.374526023865,0.0848338473587,2072667.0,1521545155.0,982542746.5,,,,,,2474229.5,1521545156.0,897316494.0,,-1.1500000238415,-1.57799999118,1.3840011596700001,-0.07349999994039999,-0.179500006139,-0.10000000149,45.5,50.0,66.0,109.0,114.0,-44.5,-19.0,-5.0,9.0,155.0,5.0,1.6450000032785002,-2.5149999856975,-7.5550003051750005,-0.013999998569499987,0.14750000089450002,-0.01949999853955001,2.3933330810748923,0.2182258062034365,9.877980157794667,2.4406998605470847,0.1074137853447042,0.15387463764130568
19,19,57.9768329487,5798.5,1521545157.0,39115071.0,,2970158.0,1521545156.0,127009277.0,,0.818802372748,-0.168205531426,0.0553388269981,0.866917623393,0.498002157327,-0.021020882716200003,-0.00240998730529,0.114355728678,0.0615548597011,0.16354818683,0.041571601297300004,-0.303613292216,0.056298695124,3.6259226799,1.78197836876,5.89467906952,-0.487795472145,1.8439296484,0.0761959627271,1174842.0,1521545156.0,123000064.0,,,,,,2474243.0,1521545157.0,30374542.0,,-1.47500007153,-0.608000022173,0.05399932861330002,-0.0729999989271,-0.148000001907,-0.118000000715,32.0,37.0,44.0,54.5,57.0,-100.5,-100.5,-73.0,-69.0,-56.0,5.0,-0.3250000476885,0.969999969007,-1.3300018310567,0.000500001013299986,0.031500004232,-0.01799999922499999,1.5963098588515203,0.20287188217337712,7.146327974560006,1.9088810323405754,0.2088402328328501,0.31157466571806663
20,20,58.0793970513,5808.5,1521545157.0,139086961.0,,2970168.5,1521545156.0,232007405.0,,0.8291166023650001,-0.1625114284545,0.07172159778935,0.8656038562424999,0.5006353561865,-0.008767410640804999,0.004153162619025,0.0942760925272,0.0567227677099,0.165704119428,0.005455970291299999,-0.255751470815,0.06448246414084999,7.030112743380001,1.62408643961,4.432852029805,-0.2582768462596,3.05150938034,0.1197227425875,1174846.0,1521545156.0,224999936.0,,,,,,2474253.5,1521545157.0,137322010.0,,-0.689999985697,-1.373000004145,-1.2660003662100001,-0.127500001341,-0.08550000190734999,-0.1060000024735,25.0,27.5,34.0,39.0,42.0,-104.0,-96.0,-82.0,-79.0,-66.5,5.0,0.785000085833,-0.7649999819719999,-1.3199996948233002,-0.0545000024139,0.06249999999965,0.011999998241499998,1.9909761221290134,0.1865542848408845,8.468194557643635,3.0647593645683653,0.19890527693924395,0.26381161956504373
21,21,58.1819611538,5816.5,1521545157.0,219156980.0,,2970176.5,1521545156.0,312013354.5,,0.8367767086,-0.1577386399355,0.08295513348464999,0.8646234575965001,0.5023525103975001,0.0011057239126260002,0.00816883820376,0.0938755525661,0.05161431370825001,0.1415321104215,0.02244871120948,-0.258659728881,0.0441910780967,2.86602807045,0.289187684655,3.29693853855,0.156926803291,1.6001355648050002,0.165889516473,2970529.5,1521545156.0,310106548.0,,,,,,2474261.5,1521545157.0,216924279.5,,-0.6849999904635,-1.22300000191,-0.7909999847414999,-0.08949999883769999,-0.14199999719849998,-0.110500000417,22.0,23.0,27.5,35.5,44.0,-106.0,-103.0,-81.5,-80.5,-79.0,5.0,0.004999995233500032,0.15000000223499987,0.4750003814685,0.03800000250330002,-0.05649999529114999,-0.004499997943500006,1.6095449566470357,0.20095894876436657,4.378076077975311,1.616347480902728,0.1775049155080724,0.26336600267139204
22,22,58.2845252564,5826.5,1521545157.0,319774985.0,,2970184.0,1521545156.0,387194238.0,,0.8415013141859999,-0.153585083963,0.0906916474763,0.8635093653810001,0.504154336861,0.0071246072631299985,0.0113675192728,0.06806613486890001,0.0319468194042,0.08323792820039999,-0.0028283269951,-0.184627866273,0.0369478776971,1.79835855961,-0.0123117659241,3.6303851604500004,0.277064949274,1.0880389213600001,0.151392742991,2970536.0,1521545156.0,375342855.0,,,,,,2474271.5,1521545157.0,317943235.0,,-0.2600000381472,-0.5230000138285,-0.0409980773926,-0.08749999850989999,-0.149500004947,-0.1015000008045,19.0,22.0,28.5,32.0,48.0,-107.0,-106.0,-97.0,-83.0,-49.0,5.0,0.4249999523163,0.6999999880814999,0.7500019073488999,0.0020000003277999973,-0.007500007748500016,0.008999999612500005,0.5854996811707469,0.20077039468432348,4.0514122848357825,1.1329225230088666,0.11217018622223465,0.18830983538952992
23,23,58.387089358999994,5839.5,1521545157.0,449170469.5,,2970196.0,1521545156.0,507194749.0,,0.8459782019140001,-0.151375057249,0.09660490207039996,0.863272226497,0.504396497416,0.012893784718200001,0.0133785899501,0.0108408803809,0.03812757220330002,0.0102563712899,0.035317458005599996,-0.0378707948114,0.0544515941986,3.0858232975,-0.589677155018,2.77718091011,0.546776592731,1.6908354759200002,0.19690345227699999,2072704.0,1521545156.0,518624611.5,,,,,,2474284.5,1521545157.0,447586232.5,,-1.6900000452999997,-0.4229999899865,-2.13099822998,-0.0925000011921,-0.0939999967815,-0.11050000041750001,22.0,24.0,25.5,26.5,27.5,-105.0,-103.0,-100.5,-96.0,-69.5,5.0,-1.4300000071527996,0.10000002384200002,-2.0900001525874,-0.005000002682200022,0.055500008165499985,-0.008999999612999994,2.7524866213699335,0.1720537698155086,4.193179983976756,1.7879206409980104,0.0409442254974633,0.07514317035096063
24,24,58.4896534615,5848.5,1521545157.0,539495467.5,,2970204.0,1521545156.0,587193484.0,,0.844670322511,-0.153070943676,0.09368028008,0.8637767873469999,0.50360033398,0.0106714683256,0.012746961174200001,-0.0231673341744,-0.0386832135578,-0.0448405635563,-0.0181884030682,0.0747581097178,-0.0375742495981,5.762707710269999,0.383847951889,4.640505313869999,0.19167034328,2.71662282944,0.152815163136,2970558.0,1521545156.0,595256094.0,,,,,,2474293.5,1521545157.0,537714736.0,,-0.4500000953675,-1.51300000753,0.034000778198100004,-0.08200000226495,-0.1739999949935,-0.08500000089410001,14.5,17.0,22.0,25.0,27.5,-106.0,-102.0,-99.0,-89.5,-64.5,5.0,1.2399999499324996,-1.0900000175434998,2.1649990081781,0.01049999892715002,-0.07999999821199999,0.025499999523399985,1.5788683167175837,0.21029740555029877,7.408807527006649,2.7276600946620797,0.06359082106682744,0.08562369536296742
25,25,58.5922175641,5856.5,1521545157.0,619485497.0,,2970212.5,1521545156.0,672193814.0,,0.842422953205,-0.15511190776550002,0.09028397286005,0.8642299179735,0.5029097665600001,0.007510175756625,0.01143872140995,-0.03398136028225,-0.0424638010415,-0.0555033099505,-0.03219118771605,0.1054816125741,-0.04359540610135,3.601622104645,0.388131916523,7.227667093275,0.08903380250568002,1.7398307323500002,0.126085743308,2970566.5,1521545156.0,680265571.0,,,,,,2474301.5,1521545157.0,617835014.5,,-0.5000000476834999,-0.7329999923699999,0.03899993896475,-0.08149999752645,-0.1474999934435,-0.07899999991060001,14.5,15.0,16.5,20.5,33.0,-104.0,-101.5,-99.5,-94.0,-64.5,5.0,-0.049999952315999914,0.7800000151600001,0.004999160766649996,0.0005000047384999956,0.026500001549999985,0.006000000983499995,0.8881497800130203,0.18611689243193028,8.084645927961322,1.7466641376875203,0.07770794464522561,0.1185883746028426
26,26,58.6947816667,5869.5,1521545157.0,749091028.5,,2970226.0,1521545156.0,807193725.0,,0.839425886302,-0.15989742081900002,0.0865506220238,0.8654754141940001,0.500846668944,0.00372777023688,0.00954072124758,-0.018255303189400003,-0.0355771430254,-0.027041660051,0.00237401501553,0.055363800198999995,-0.0300981275181,5.61390733719,0.6539888978,5.9465718269300005,-0.00884451810271,2.44859480858,0.127600640059,1174869.0,1521545156.0,805000064.0,,,,,,2474314.5,1521545157.0,747649823.5,,-0.1000000715255,-0.7579999983310001,-0.010999298095800013,-0.08549999818205001,-0.1579999998215,-0.107499998063,9.5,11.0,11.0,12.0,30.0,-101.5,-96.0,-91.0,-80.0,-55.0,5.0,0.3999999761579999,-0.02500000596100016,-0.04999923706055001,-0.0040000006556000075,-0.010500006378,-0.02849999815239998,0.764646974971785,0.20935734813058166,8.203985224379611,2.4519332546888104,0.04827256548703969,0.06306095146653405
27,27,58.7973457692,5877.5,1521545157.0,829150557.0,,2970235.0,1521545156.0,897193825.0,,0.8397148476719999,-0.163636589531,0.0866885067652,0.866468977521,0.49911895645300003,0.0033325498269699996,0.010033564415799999,0.008392672060680001,-0.028070688368799997,0.00435670509369,0.00481899794651,-0.0157703018732,-0.0205685065049,5.34009504318,1.3427970409399999,5.74758195877,-0.375902533531,2.44656324387,0.08976549655200003,2970588.0,1521545156.0,895293176.0,,,,,,2474322.0,1521545157.0,822202854.5,,0.79999990463,-0.8129999905799999,-0.2060009002685,-0.0905000008643,-0.1530000045895,-0.0914999991655,11.5,13.0,14.5,41.0,48.0,-92.0,-91.0,-89.0,-83.5,-58.0,5.0,0.8999999761555,-0.054999992248999874,-0.1950016021727,-0.005000002682249996,0.0049999952320000105,0.015999998897500006,1.1590535807297786,0.19992874082560474,7.959548814859496,2.476899728560272,0.029620624049634513,0.02636263686019357
28,28,58.899909871800006,5890.5,1521545157.0,959995508.0,,2970250.0,1521545157.0,47199401.0,,0.83986008749,-0.167362037205,0.08641978342599999,0.8676020160690001,0.497135114815,0.0026472166889699995,0.0107894195471,0.0024360609112,-0.0192607012363,-9.34142919233e-05,-0.020643057074,-0.00327044550101,0.0125063083118,4.82912778854,1.9685248136500002,5.59197711945,-0.576947927475,2.1893084049200002,0.0681613981724,2970602.0,1521545157.0,35297345.5,,,,,,2474335.0,1521545157.0,952507102.0,,0.144999933243,-0.558000010252,0.0140022277832,-0.07400000095369999,-0.155000001192,-0.0869999974966,7.5,11.5,15.0,16.0,21.0,-97.0,-92.5,-89.5,-83.5,-71.0,5.0,-0.6549999713870001,0.254999980328,0.2200031280517,0.016499999910600013,-0.0019999966024999982,0.004500001668899981,0.5767018765918828,0.19253571116828172,7.646291470017169,2.265079729076191,0.01941436919158128,0.024356505634538294
29,29,59.0024739744,5899.5,1521545158.0,51217555.5,,2970259.0,1521545157.0,137198060.0,,0.839332050358,-0.167969206949,0.08554764409530001,0.867319115853,0.497626483432,0.00191316956478,0.011035127775700001,-0.026388352678099997,-0.00648675482065,-0.0255336422908,0.017123005651,0.072162231003,-0.012808337707499999,3.9339427948,1.23837578297,4.6758894920300005,-0.06853114813569999,1.8484090566599998,0.13273544609500001,2072747.0,1521545157.0,135146511.5,,,,,,2474344.5,1521545158.0,48450502.5,,0.14500005245225,-1.2930000012749998,-0.13600120544414998,-0.08200000226495,-0.1605000048875,-0.0924999974668,12.0,12.5,15.0,21.0,23.0,-94.0,-85.0,-84.0,-81.0,-68.5,5.0,1.19209249999086e-07,-0.7349999910229998,-0.15000343322735,-0.008000001311250005,-0.005500003695499993,-0.005499999970199995,1.308193543169575,0.20258455388231683,6.234855494258224,1.854435563091246,0.037287934158404965,0.07526379222895879
30,30,59.105038076899994,5907.5,1521545158.0,129098415.0,,2970266.5,1521545157.0,212194070.5,,0.8380323355149999,-0.1685188865715,0.08456617393480001,0.867590795803,0.4971687813395,0.00040803181302599993,0.01044397593185,-0.02665785290565,0.017262619062395,-0.02024845982525,0.009105803056540001,0.055284522382,0.023985077793935,7.891019105910001,1.5178781747799999,4.807555675505,-0.2402251288295,3.3953574895850003,0.08610190078614999,2072752.0,1521545157.0,214129652.0,,,,,,2474352.5,1521545158.0,127845468.5,,-1.290000009537,-0.433000010252,0.299000167847,-0.0925000011921,-0.1469999998805,-0.08199999853965001,8.5,11.0,17.0,27.0,44.0,-83.0,-81.0,-76.0,-73.0,-69.0,5.0,-1.4350000619892502,0.8599999910229998,0.43500137329115,-0.01049999892715002,0.013500005006999992,0.010499998927149992,1.393194219718208,0.19206574381161287,9.364012401550442,3.4049337925899663,0.03766482793970256,0.06094733809684772
31,31,59.2076021795,5918.5,1521545158.0,239111423.0,,2970278.5,1521545157.0,332196312.0,,0.8356939406570001,-0.16760675798049998,0.081616104133,0.867184673331,0.4979008119985,-0.00198078992625,0.009022253354015,-0.0245195216902,0.0020397789519849994,-0.02467994214335,-0.00755443356023,0.06977893525824999,0.005122075064079999,5.915309667590001,1.1978952288599998,4.605226039885,-0.1048997156325,2.584873318675,0.114284679294,2072760.5,1521545157.0,329145510.0,,,,,,2474363.5,1521545158.0,238432893.5,,-1.340000021455,-1.568000000715,0.32399978637679994,-0.0940000005068,-0.140500001609,-0.09200000017885003,14.5,18.5,26.0,33.0,39.0,-73.5,-72.0,-67.0,-61.0,-57.5,2.5,-0.05000001191799997,-1.1349999904630002,0.024999618529799927,-0.00149999931469999,0.006499998271499996,-0.010000001639200009,2.0878697088932183,0.19245843857912753,7.59170259699655,2.5895240898394865,0.03484920639395182,0.07037332538080777
32,32,59.3101662821,5929.5,1521545158.0,350017547.0,,2970287.0,1521545157.0,417197552.0,,0.8334817935600001,-0.167506680697,0.0789631931512,0.867103538386,0.498056923297,-0.00434400277038,0.00720309057913,-0.0303592871405,-0.00328680556895,-0.0378291460531,-0.010543397912899998,0.0870886129673,-0.011199841516,6.20961809158,1.2808898687399999,4.99700689316,-0.167282626033,2.62951612473,0.10398029536,2970639.5,1521545157.0,410291904.5,,,,,,2474374.5,1521545158.0,348408562.0,,-0.8950000286094999,-2.103000026945,-0.7259994506834999,-0.06250000186265,-0.166500002146,-0.10449999943375002,12.5,13.5,19.5,28.5,34.5,-66.5,-63.5,-59.0,-43.0,-41.0,-1.0,0.4449999928455002,-0.5350000262300001,-1.0499992370603002,0.03149999864415,-0.026000000536999995,-0.012499999254900002,2.3980636703253775,0.20627348552129288,8.072800851588436,2.6368827105145813,0.048616187609007155,0.088436565956065
33,33,59.4127303846,5940.5,1521545158.0,459115385.5,,2970298.0,1521545157.0,527198349.0,,0.8320564073800001,-0.16820454907100002,0.07596206272474999,0.867029649277,0.498160614805,-0.00659386760793,0.007215042359624999,-0.006627399883285001,-0.010766249657895,-0.02516189961215,-0.009066019617030002,0.0196939195317,-0.009424314726534998,7.945373773575,1.6246255636200002,5.726272821425001,-0.2999657690525,3.434357643125,0.08997542411085001,2970651.0,1521545157.0,525261131.0,,,,,,2474385.0,1521545158.0,452621521.5,,-1.34000002146,-2.25799999833,-0.2310005187985,-0.07500000298025,-0.1330000013115,-0.1050000004473,6.5,9.5,15.5,22.5,26.0,-65.5,-59.0,-52.0,-46.0,-43.0,-1.0,-0.4449999928505002,-0.15499997138499966,0.4949989318849999,-0.012500001117599996,0.0335000008345,-0.0005000010135499805,2.635815867934681,0.1853078543662667,9.927667049673436,3.44860659693713,0.028159470041195813,0.023640238710347917
34,34,59.5152944872,5952.5,1521545158.0,579156041.0,,2970310.0,1521545157.0,647198221.5,,0.830971447573,-0.167575554718,0.07356213531894999,0.8667707180825,0.4986032709265,-0.007874690865505,0.006413708398345001,-0.0023673079982505004,0.014137696423784997,-0.00531888891134,-0.002153163393895,0.0076756391885,0.026815031850919997,6.9520123004900025,1.4299750924099999,5.15982723236,-0.281649619341,3.028307080265,0.09872562810755,2072783.0,1521545157.0,648144383.5,,,,,,2474397.0,1521545158.0,572894454.0,,-0.8850000381470001,-1.1580000042899998,-0.915998077393,-0.0710000023246,-0.127000004053,-0.109999999404,6.0,7.0,10.5,13.0,16.0,-92.0,-90.0,-84.0,-81.0,-49.0,-1.0,0.454999983313,1.09999999404,-0.6849975585945,0.004000000655649996,0.005999997258500006,-0.0049999989567000025,1.7214068534903373,0.1824006612609593,8.774914293534788,3.0429783157464807,0.015289512306835017,0.02797494383763264
35,35,59.61785858970001,5961.5,1521545158.0,669234037.0,,2970318.5,1521545157.0,732197653.5,,0.8308872936635,-0.16837354153700002,0.07332338495610001,0.867236436709,0.4977915559655,-0.008065902238955001,0.006262624031475,-0.0092915001104,0.002692299772049999,-0.013998354136299998,-0.010939935147250002,0.020729022834450002,0.0023268764543799988,8.658256053925001,1.80003798008,5.117937326430002,-0.395493477583,3.670712947845,0.07989218086005001,2072789.0,1521545157.0,738630143.0,,,,,,2474406.0,1521545158.0,662398971.0,,-0.37500004768399997,-2.1180000126400005,0.103998565674,-0.0790000036359,-0.152999997139,-0.11500000208599999,5.0,6.0,10.5,11.0,13.0,-98.0,-88.0,-85.0,-79.0,-71.0,-1.0,0.5099999904630002,-0.9600000083500008,1.019996643067,-0.008000001311299992,-0.025999993086000008,-0.005000002682000002,2.1534541534400713,0.20706279284020637,10.217573934272503,3.6928216037131008,0.017015709532353065,0.023553957687215403
36,36,59.7204226923,5970.5,1521545158.0,759098052.5,,2970328.0,1521545157.0,827196849.0,,0.830444476562,-0.167811762574,0.0729833230052,0.866856272719,0.49845411293700004,-0.008319497379619999,0.00587245329403,-0.00557953457113,0.00194035664342,0.00348168177348,0.00210833343581,0.010980503865,0.008638362352520001,8.10874938965,2.04679703712,5.193406581880001,-0.525288164616,3.5118329525,0.07265221327539999,1174909.0,1521545157.0,830000128.0,,,,,,2474415.0,1521545158.0,751927460.0,,-0.0049999237060500005,-2.5080000579400004,0.11400070190400001,-0.0879999995232,-0.131999999285,-0.103000000119,8.5,8.5,11.5,13.5,18.0,-99.5,-89.5,-83.0,-79.5,-73.0,-1.0,0.37000012397795,-0.3900000452999999,0.01000213623,-0.008999995887300008,0.020999997854,0.012000001967000004,2.5105946406974415,0.18914808947445702,9.844423126828051,3.551644222926098,0.006856988982482165,0.014129325501922207
37,37,59.8229867949,5982.5,1521545158.0,879100560.5,,2970342.5,1521545157.0,972195937.5,,0.8296897582055001,-0.16723612037,0.07245372415625001,0.8666276024905001,0.4988379601975,-0.009171312611155,0.005754690118390001,-0.0110784859451,0.0019821367362549995,-0.00747649798645,-0.006556465041405,0.02814490334585,0.0097933399093,6.87244915962,2.10210132599,4.86974644661,-0.6211437880995,2.971289396285,0.07064566388725001,2970694.5,1521545157.0,960277207.5,,,,,,2474427.0,1521545158.0,872022936.0,,-0.135000038147,-1.97299997583,-0.346000289917,-0.07550000026824999,-0.13900000602,-0.10000000149005,6.0,9.0,12.0,13.0,36.5,-93.0,-86.0,-84.0,-73.5,-62.5,-1.0,-0.13000011444095,0.5350000821100003,-0.460000991821,0.012499999254950015,-0.0070000067350000075,0.002999998628950007,2.007652887216194,0.18713965911071814,8.681233661788012,3.0363417284285292,0.013511466945464536,0.030512822300886765
38,38,59.9255508974,5990.5,1521545158.0,959117531.0,,2970350.0,1521545158.0,47197466.0,,0.8294784776690001,-0.167058911067,0.0721950265763,0.866542804381,0.498981654591,-0.00942822396861,0.005655541518189999,-0.00273138142097,0.0121774676856,0.000871824864733,0.0064164359323200006,0.0105462466399,0.010755012094,6.54189634323,1.7662217616999998,4.34292840958,-0.392333000898,2.86281275749,0.09635583311319999,2970703.0,1521545158.0,45293214.0,,,,,,2474435.0,1521545158.0,953888138.5,,-1.0000000476835,-2.17800001502,-0.3959995269775,-0.07699999958279999,-0.15150000154999999,-0.0925000011922,7.0,9.0,13.0,13.0,23.0,-92.5,-81.5,-78.5,-76.5,-55.0,-1.0,-0.8650000095365,-0.20500003918999976,-0.04999923706050002,-0.001499999314549999,-0.012499995530000002,0.0075000002978499875,2.429094437472641,0.19348772732645914,8.048414393394873,2.8911773578623756,0.012510445327621996,0.016372667876838384
39,39,60.028115,6002.5,1521545159.0,79362988.0,,2970362.5,1521545158.0,172200115.0,,0.8285626237429999,-0.166060325808,0.0711772472842,0.866102122245,0.49973303947549996,-0.010296923093,0.005282228286249999,-0.0021941452191750013,0.004576974654635,-0.006413939296095,0.0024994569483399987,0.0029128968752000013,0.0024967348858100005,9.107250690465,1.7742294073099998,4.6588783264149995,-0.4217818528415001,3.87252020836,0.08409042656410001,2970714.5,1521545158.0,160288164.5,,,,,,2474447.0,1521545159.0,73922881.0,,-0.714999961853,-1.8580000221700002,-0.106000518799,-0.0750000029802,-0.151999995112,-0.10599999874800001,6.0,9.0,13.0,16.0,32.0,-92.0,-89.0,-80.5,-78.0,-63.0,-1.0,0.2850000858305001,0.3199999928499999,0.2899990081785,0.0019999966025999877,-0.0004999935619999785,-0.013499997555799987,1.993646191734925,0.19991247758870387,10.38243961644267,3.8963295414252013,0.008179339064129284,0.004578857754088426
