,Unnamed: 0,Unnamed: 0.1,.header.seq,.header.stamp.secs,.header.stamp.nsecs,.header.frame_id,.endpoint_state.header.seq,.endpoint_state.header.stamp.secs,.endpoint_state.header.stamp.nsecs,.endpoint_state.header.frame_id,.endpoint_state.pose.position.x,.endpoint_state.pose.position.y,.endpoint_state.pose.position.z,.endpoint_state.pose.orientation.x,.endpoint_state.pose.orientation.y,.endpoint_state.pose.orientation.z,.endpoint_state.pose.orientation.w,.endpoint_state.twist.linear.x,.endpoint_state.twist.linear.y,.endpoint_state.twist.linear.z,.endpoint_state.twist.angular.x,.endpoint_state.twist.angular.y,.endpoint_state.twist.angular.z,.endpoint_state.wrench.force.x,.endpoint_state.wrench.force.y,.endpoint_state.wrench.force.z,.endpoint_state.wrench.torque.x,.endpoint_state.wrench.torque.y,.endpoint_state.wrench.torque.z,.joint_state.header.seq,.joint_state.header.stamp.secs,.joint_state.header.stamp.nsecs,.joint_state.header.frame_id,.joint_state.name,.joint_state.position,.joint_state.velocity,.joint_state.effort,.wrench_stamped.header.seq,.wrench_stamped.header.stamp.secs,.wrench_stamped.header.stamp.nsecs,.wrench_stamped.header.frame_id,.wrench_stamped.wrench.force.x,.wrench_stamped.wrench.force.y,.wrench_stamped.wrench.force.z,.wrench_stamped.wrench.torque.x,.wrench_stamped.wrench.torque.y,.wrench_stamped.wrench.torque.z,.tactile_values.tactile_values_0,.tactile_values.tactile_values_1,.tactile_values.tactile_values_2,.tactile_values.tactile_values_3,.tactile_values.tactile_values_4,.tactile_values.tactile_values_5,.tactile_values.tactile_values_6,.tactile_values.tactile_values_7,.tactile_values.tactile_values_8,.tactile_values.tactile_values_9,.tag,.delta_wrench.force.x,.delta_wrench.force.y,.delta_wrench.force.z,.delta_wrench.torque.x,.delta_wrench.torque.y,.delta_wrench.torque.z,.wrench_stamped.wrench.force.magnitude,.wrench_stamped.wrench.torque.magnitude,.endpoint_state.wrench.force.magnitude,.endpoint_state.wrench.torque.magnitude,.endpoint_state.twist.linear.magnitude,.endpoint_state.twist.angular.magnitude
0,0,49.239954,4921.5,1521546682.0,467045545.0,,3122695.5,1521546681.0,501817352.0,,0.6362783458635,-0.196995521419,0.02217241659015,-0.27415132038400003,0.9603483276245,-0.01916321310385,0.04695526842355,0.000703178805430001,-0.0023367979278850004,-0.0029894859538299994,-0.00825930962417,0.0014141934364450002,0.007746927603787,-0.5925211012365,1.977566301825,8.379385471345,1.074521720408,0.852368205786,0.684717744589,1235191.0,1521546681.0,500999936.0,,,,,,2626628.0,1521546682.0,461186887.0,,0.466999876499,-1.26999997795,-1.23300209045,0.330000013113,-0.119999997318,-0.156000003219,26.5,31.0,100.0,365.0,627.5,-115.5,-57.0,78.0,95.0,246.0,5.0,0.0,0.0,0.0,0.0,0.0,0.0,1.830650972658948,0.3842343152494688,8.629944994663175,1.5329601676555267,0.0038590298335618575,0.011411880907278533
1,1,49.3425181026,4932.5,1521546682.0,577056526.5,,3122705.0,1521546681.0,596830927.5,,0.6368585113684999,-0.196559743004,0.0223538347255,-0.273519833713,0.960516748568,-0.0187712743492,0.0473506227397,-0.00585503915221,-0.004770598746729899,-0.0053994439335775,-0.0071486691376035,0.0156544964516,0.010044179973935002,-0.695615053177,2.09948325157,8.23495388031,1.0131721496585,0.7819540798660001,0.6766217648985,1235195.0,1521546681.0,601999872.0,,,,,,2626638.5,1521546682.0,568899702.0,,0.4719998717295001,-1.244999971985,-1.708000564575,0.33149999380100004,-0.1230000033975,-0.133999995887,26.0,34.5,47.0,358.5,625.0,-117.5,-65.0,87.5,107.0,232.0,5.0,0.0049999952305000974,0.02500000596499996,-0.474998474125,0.0014999806880000575,-0.003000006079499989,0.022000007332000002,2.165658038043826,0.3781233206555291,8.526791637929364,1.4476833219309635,0.00928407726529997,0.019926170754585006
2,2,49.4450822051,4944.5,1521546682.0,697001456.5,,3122717.0,1521546681.0,716828356.5,,0.6362604988989999,-0.196313580969,0.0223270614748,-0.2741449381905,0.9603555100985,-0.0188307201578,0.046979302033350004,0.003151906894400001,0.0007716722180215,6.158461219999897e-05,0.0033005478111599994,-0.011056480111765,0.0019038155062999981,-0.725490540266,2.1833589077,8.392764568325,0.958719372749,0.8086827397345,0.671858638525,3123070.0,1521546681.0,714871219.0,,,,,,2626650.5,1521546682.0,688794903.0,,-1.018000018598,-1.45999997556,-0.417999649048,0.3125,-0.0989999994635,-0.121500000358,30.0,38.5,64.0,351.5,623.0,-110.0,-50.0,65.0,106.0,247.0,5.0,-1.4899998903275002,-0.21500000357499996,1.290000915527,-0.01899999380100004,0.02400000393399998,0.012499995529000009,1.8282909158842802,0.3495990560352917,8.70240712350209,1.4228508844532513,0.0032455797244086157,0.011694609091270916
3,3,49.547646307700006,4951.5,1521546682.0,766998410.0,,3122724.0,1521546681.0,786812650.0,,0.636347155843,-0.197445807127,0.0220336317682,-0.273352051335,0.960595567931,-0.018963116385400002,0.0466391586472,0.005103663541220001,-0.00880023304835,0.0043090577485,-0.0019103400712900001,-0.0135111546609,-0.0163435727969,-0.380977988243,2.44403886795,8.16666507721,0.8413339853290001,0.901950240135,0.635736644268,2179139.5,1521546681.0,788954641.0,,,,,,2626657.5,1521546682.0,759884330.5,,-1.052999985218,-1.110000011325,-0.06300010681169999,0.31599999964250003,-0.11000000312899999,-0.13650000095349998,37.0,39.5,52.5,362.0,631.5,-103.0,-39.0,71.0,92.0,235.0,5.0,-0.034999966619999816,0.349999964235,0.3549995422363,0.003499999642500029,-0.011000003665499995,-0.015000000595499982,1.5312994506199284,0.3613699637805355,8.533046859059043,1.3876304232086798,0.011048052404254684,0.02129115006819279
4,4,49.6502104103,4963.5,1521546682.0,887004494.0,,3122736.0,1521546681.0,906817568.0,,0.635955241642,-0.19661629450649998,0.022112263868800004,-0.2739714366205,0.9604271280034999,-0.01885443024455,0.04651627361965,0.0008314683449415003,-0.001984638951885,-0.0023972693664650003,0.006412026102474999,0.0023154691422600003,-0.004463937393550001,-0.7976835668084999,2.19745874405,8.3381023407,0.970967918633,0.7702820599075,0.6576355695725,3123089.0,1521546681.0,904906810.0,,,,,,2626669.5,1521546682.0,879713087.5,,-1.39800001383,-1.634999987485,0.0519996643067,0.31599999964250003,-0.10200000181800001,-0.1074999980625,30.5,34.0,44.0,356.0,659.0,-109.5,-51.0,57.0,84.0,240.5,5.0,-0.3450000286120001,-0.5249999761599999,0.11499977111839997,0.0,0.00800000131100001,0.029000002890999983,2.151820848219628,0.34902184706457784,8.659623239410879,1.403067244716656,0.0032213400617399045,0.0081487553123844
5,5,49.752774512799995,4973.5,1521546682.0,987004518.0,,3122748.5,1521546682.0,31826367.5,,0.6364036882390001,-0.1967682054615,0.02235626540465,-0.2740758173355,0.9603709093015,-0.0190531123718,0.04697794518735,-0.011943637198265,0.00781332194986,-0.007128178154075,-0.0027981888283000003,0.01676446939379,0.0187317884298,-0.7275074720385,2.27695453167,8.241530418395,0.964553296566,0.8061991930005001,0.655766427517,3123100.0,1521546682.0,14877015.0,,,,,,2626679.5,1521546682.0,979244130.0,,-1.1630000591299998,-1.77999996841,0.0619998931884,0.334000006318,-0.1074999980625,-0.11100000143049996,22.0,24.0,39.5,347.0,675.0,-104.0,-61.0,50.0,102.5,235.0,5.0,0.2349999547000001,-0.144999980925,0.010000228881699998,0.018000006675499947,-0.005499996244500011,-0.003500003367999965,2.1271607865489055,0.3680125733197611,8.581177815340645,1.4178680503380434,0.015953350532479864,0.025293421922565833
6,6,49.8553386154,4986.5,1521546683.0,117007493.5,,3122761.5,1521546682.0,161819160.0,,0.6360289433945,-0.196454535121,0.02219120627955,-0.27424743378649996,0.9603386908304999,-0.01892111722455,0.04668925621955,0.012692611370240001,0.0126300881063,0.005885991546390001,0.00660242331572,-0.02738796390225,0.027526608633500003,-0.8949931561944999,2.2757171392449997,8.296213150025,0.9966604113565,0.7661065459249999,0.6699357032775,2179166.5,1521546682.0,161956404.5,,,,,,2626692.5,1521546683.0,109229609.0,,-0.14800001382810002,-2.6900000542400004,-0.06799926757800001,0.3455000072715,-0.105000000447,-0.08750000223515,24.0,41.5,83.0,377.0,676.0,-96.0,-61.5,28.0,84.5,224.0,5.0,1.0150000453018997,-0.9100000858300006,-0.12999916076639997,0.011500000953500013,0.002499997615500002,0.02349999919534997,2.6949263804964074,0.3715528300385126,8.649107114502408,1.4244525481041341,0.018848512022253135,0.039387900974954086
7,7,49.9579027179,4995.5,1521546683.0,206998586.0,,3122770.5,1521546682.0,251819377.5,,0.6364140986410001,-0.1964014038405,0.022263314533150003,-0.2743347243665,0.960299935237,-0.01881805688485,0.04701398341115,-0.00529206679547,-0.005607622982634999,-0.0018317609212850003,-0.005753671378094997,0.014996841535465003,-0.004308816452215,-0.8137983381749999,2.3248943090450003,8.33252620697,0.9941640496240001,0.8268567323684999,0.6706445813180001,2179172.5,1521546682.0,252454712.0,,,,,,2626701.5,1521546683.0,198625937.0,,-0.33300007581700003,-2.454999920725,-1.018001937864,0.3719999939205,-0.109500002116,-0.09800000116245,38.0,51.0,65.5,365.5,654.5,-116.0,-65.0,37.5,70.0,224.5,5.0,-0.1850000619889,0.2350001335150007,-0.950002670286,0.026499986649,-0.004500001668999998,-0.010499998927299995,2.678477479231204,0.3999728067857817,8.68898119881083,1.4566462741101904,0.00792507126503221,0.016630570933850605
8,8,50.060466820500004,5006.5,1521546683.0,317000508.0,,3122781.5,1521546682.0,361813817.5,,0.6361039050615,-0.196510715186,0.02221241536285,-0.273791126925,0.9604651741215,-0.0187276466435,0.046838798069550006,0.0009537535515599998,-0.00229491490868,0.0009220195829495,0.0032845687352359995,-0.0004524420883400002,-0.011403461799235,-0.8821441531184999,2.287649512295,8.341471195219999,1.0328112244595,0.7955569922925,0.672742217779,2179180.0,1521546682.0,361944628.0,,,,,,2626712.5,1521546683.0,310275897.0,,-1.0230000138265,-2.1849999398,-0.0480007171631,0.3505000025035,-0.1015000008048,-0.13650000095349998,35.0,41.0,112.5,362.0,659.5,-107.0,-61.0,60.0,121.0,219.0,5.0,-0.6899999380095001,0.26999998092499977,0.9700012207009,-0.021499991416999983,0.008000001311200003,-0.03849999979104998,2.4131012896401995,0.3895956264880721,8.694346456098334,1.4670351205534338,0.0026507358198314323,0.01187569099574434
9,9,50.1630309231,5017.5,1521546683.0,427119493.0,,3122792.5,1521546682.0,471813571.0,,0.6358933977215,-0.1962267412255,0.02194784135775,-0.27418636810700003,0.960369774302,-0.01861945811905,0.046526475529849995,0.01976348526425,0.013941420001649999,0.00890128400082,0.014592861680735003,-0.03229933261605,0.0043886904101099996,-1.017064601185,2.3526962995500003,8.14840364456,0.9698150455965,0.7124172747135,0.6493341028690001,3123145.0,1521546682.0,464870002.0,,,,,,2626723.5,1521546683.0,419970767.5,,-1.4180000543595002,-3.6899999350300003,0.06699905395505,0.3680000007150001,-0.11299999803300001,-0.11299999803300001,42.0,54.5,138.0,367.0,667.0,-102.0,-45.0,17.0,109.5,231.5,5.0,-0.3950000405330001,-1.50499999523,0.11499977111815,0.017499998211500112,-0.011499997228199998,0.023500002920499988,3.953645475749669,0.40120069745347664,8.542018627676866,1.3673749936006,0.025771911033446622,0.035713570291852466
10,10,50.26559502560001,5025.5,1521546683.0,507081031.5,,3122798.0,1521546682.0,527629037.0,,0.636480428384,-0.196052685597,0.02219778175,-0.27405346523,0.96038061001,-0.018436585250599997,0.04715797319619999,-0.0198220532053,-0.0024025020286,-0.00662984199044,-0.0262395330338,0.029546978621999998,0.0212398554513,-0.9246758222579999,2.34398508072,8.250369071960003,1.03679251671,0.8098903298379999,0.684006810188,3123151.5,1521546682.0,530708499.5,,,,,,2626731.5,1521546683.0,499312171.5,,-0.06300009489080001,-2.884999987485,-0.5780014038085001,0.370499998331,-0.124499998987,-0.127999998629,49.0,58.0,84.5,372.5,689.0,-114.0,-46.0,30.0,107.0,241.0,5.0,1.3549999594686999,0.8049999475449998,-0.6450004577635501,0.0024999976159998942,-0.011500000954000014,-0.015000000596,2.9430051924095033,0.41128396292593034,8.62657992824854,1.4828102998881962,0.021039025977677116,0.04486277409069712
11,11,50.3681591282,5034.5,1521546683.0,597216486.5,,3122807.0,1521546682.0,617638950.0,,0.6359623823830001,-0.196317920913,0.0222412668107,-0.274084400982,0.9603930538009999,-0.01869606230355,0.046618021060100004,0.00166863795637,-0.0014740411538000002,0.0005407093046900006,4.582890450000043e-05,-0.001864160696423,-0.012887659613049999,-0.8466339409349999,2.40652537346,8.002925395965,0.8715871870515,0.753251820803,0.6305843591689999,2179198.0,1521546682.0,614846805.5,,,,,,2626740.5,1521546683.0,590061254.0,,-0.253000032902,-2.18999993503,-0.7330001831055001,0.3550000041725,-0.118499998003,-0.1130000017585,26.0,47.0,58.0,372.5,661.0,-106.0,-45.5,36.0,113.5,248.0,5.0,-0.1899999380112,0.6950000524550002,-0.154998779297,-0.01549999415850001,0.006000000984000012,0.014999996870499991,2.323230079116684,0.39094277443969605,8.399700488495496,1.3132742151599412,0.0022911823377271896,0.013021864908392192
12,12,50.4707232308,5046.5,1521546683.0,717092990.5,,3122819.0,1521546682.0,737644303.0,,0.635417219,-0.19590629860000008,0.022007194946350003,-0.27367522130849997,0.9605362304575,-0.0181509839415,0.04628775342835,-0.016431891648875,-0.0015765339224550002,-0.008067923153170002,-0.010497735196555,0.0243336874082,0.004536610723750001,-0.9112943708895,2.20382273197,8.15348863602,1.003867030144,0.7351394891740001,0.6601249575615,3123172.0,1521546682.0,735706859.0,,,,,,2626752.5,1521546683.0,710214261.0,,-0.47300006151199997,-3.0750000447000003,-0.917999649048,0.34800000488750005,-0.10200000181800001,-0.122499998659,34.0,36.0,41.5,364.5,660.0,-87.0,-43.0,87.5,122.0,236.0,5.0,-0.22000002861000006,-0.8850001096700004,-0.18499946594249994,-0.006999999284999947,0.016499996185000004,-0.009499996900500005,3.243775221674216,0.38277180335550715,8.495096762372391,1.4085254851612437,0.01837345657121914,0.026887015899794912
13,13,50.5732873333,5055.5,1521546683.0,807126521.5,,3122828.0,1521546682.0,827632104.5,,0.6355246333815,-0.1960318473595,0.022036159795049998,-0.2738824359915,0.9604729716405,-0.0183600615303,0.04629181058805,0.0101059112959,-0.0004513176621600001,0.004744561068785,0.00297934482601,-0.016333591432795,-0.01021503071944,-0.8495783805849999,2.33521270752,8.04880475998,0.8662929534909999,0.7503989934919999,0.6234255731105,2179213.0,1521546682.0,825841592.0,,,,,,2626761.5,1521546683.0,799609139.0,,0.03699992895150006,-2.9800000160950004,-0.4780010223390001,0.334499999881,-0.1035000011325,-0.09499999880789999,38.0,39.0,61.5,348.0,659.0,-98.5,-52.0,26.0,129.0,263.0,5.0,0.5099999904635001,0.0950000286049999,0.43999862670900003,-0.01350000500650006,-0.0014999993145000112,0.02749999985110001,3.0183197425100188,0.3628050439675798,8.423672588508946,1.304692138364496,0.011173360751725822,0.0194938338272606
14,14,50.6758514359,5068.5,1521546683.0,937040567.0,,3122841.5,1521546682.0,962634111.0,,0.635205532147,-0.1943790024155,0.022449522370799998,-0.276298199978,0.9597948190155,-0.01728835332965,0.04641433268515,-0.01588358103775,0.01190334210829,0.0024656702528935,0.02081094305815,0.025448432979000003,0.08675792875825,-1.72161155939,1.0585924386965,10.335700988775,2.11956483126,1.1129950881,0.988725304603,3123194.5,1521546682.0,960682770.5,,,,,,2626774.5,1521546683.0,929637090.5,,-0.008000028133410001,-3.100000020865,0.5319992065429999,0.4214999973775,-0.09200000017865,-0.112999998033,35.0,40.0,48.5,363.0,651.5,-99.0,-62.0,61.0,104.5,212.5,5.0,-0.044999957084910065,-0.1200000047699996,1.010000228882,0.0869999974965,0.01150000095385001,-0.01799999922510001,3.1453278502527393,0.4459767341213688,10.531442410327998,2.5901526727224504,0.020001430691972136,0.09277745574479718
15,15,50.778415538500006,5076.5,1521546684.0,17001509.0,,3122851.5,1521546683.0,62638494.0,,0.630365154985,-0.1923751707725,0.02481672397345,-0.2768146249225,0.9598222435054999,-0.010428576388175,0.04478516838925,-0.07032100503385001,0.04247438361465,0.03240438198535,0.1913206736205,0.0880829206538,-0.0333244420048,-1.6566448807749998,0.756559640169,13.7976694107,2.0189827084550003,1.43623292446,1.11871832609,2179229.0,1521546683.0,61842688.5,,,,,,2626782.5,1521546684.0,8862063.5,,-0.8680000424384999,-2.65499996841,4.006999588015,0.30500000715250003,-0.273000009358,-0.1085000000895,38.0,44.0,45.0,359.5,522.0,-46.0,-6.0,81.5,140.0,225.5,5.0,-0.8600000143050899,0.4450000524550002,3.475000381472,-0.11649999022499995,-0.18100000917935,0.004499997943500006,4.88451580039237,0.4234693135186004,13.917346583206768,2.7185633859582574,0.08831285854431212,0.2132433340117266
16,16,50.880979641,5088.5,1521546684.0,137009024.0,,3122863.5,1521546683.0,182637722.0,,0.6141888369990001,-0.19177242846450002,0.0338728281108,-0.275853309777,0.9606347230005,-0.004759144749135,0.03259526452375,-0.1664749840655,-0.033398871846250004,0.111334883097,-0.08520140244995,0.2875191631305,0.00984177778745,0.6840890944005,-0.08159115910550001,10.51897382735,1.6328287124649998,1.488137483595,1.0469766259200002,2179237.5,1521546683.0,177362151.0,,,,,,2626794.5,1521546684.0,130719710.0,,-0.6430000185970001,0.5950000055135,-0.247999572753755,-0.0570000009611,-0.12249999865874996,-0.08899999782445,66.5,69.5,76.5,158.5,170.5,-65.0,-60.0,-45.0,-20.0,21.5,5.0,0.22500002384149986,3.2499999739235004,-4.2549991607687545,-0.36200000811359995,0.15050001069925004,0.01950000226505,0.9104821901403962,0.16179075806025278,10.541510583725476,2.4447582353994424,0.2030390631243982,0.30003901202463484
17,17,50.983543743599995,5096.5,1521546684.0,216999411.0,,3122871.5,1521546683.0,262635528.0,,0.6066444025615,-0.1935549312055,0.044054043791650004,-0.2789853101195,0.9598274797600002,-0.006372277353845,0.029284898885400007,-0.052421220956000006,0.001223763562425,0.1248847282905,-0.00211027972014,-0.08618486247534997,0.1081726675052,7.332903862,-0.04866862297034999,7.383782863615,1.99390715361,3.6414856910699998,1.1390450000749999,2179243.0,1521546683.0,262343925.5,,,,,,2626802.5,1521546684.0,209989931.5,,2.37699996233,1.4649999767560002,2.201999282835,-0.1109999977051,-0.030999999493350007,-0.09650000184794999,53.0,53.0,61.5,67.0,71.0,-23.0,-17.0,-11.5,4.0,17.0,5.0,3.019999980927,0.8699999712425003,2.449998855588755,-0.053999996744000016,0.09149999916539996,-0.007500004023499998,3.556002614512222,0.15031383773882648,10.406444977090441,4.305056014464916,0.1354462157609673,0.13832429213837594
18,18,51.0861078462,5108.5,1521546684.0,336998581.0,,3122883.5,1521546683.0,382634664.0,,0.6089399690724999,-0.193475917362,0.0593811016445,-0.284842109118,0.957689595729,-0.010229668042125,0.0398790483211,0.06608541326049999,-0.012199484893525,0.1342479827785,-0.061937861618949985,-0.2724198569185,0.1274901344885,1.6663685441,-0.9211228191865,6.8310816288,1.761268258095,1.5374529957749998,1.0018851459015,2179251.5,1521546683.0,378357172.0,,,,,,2626814.5,1521546684.0,329824394.5,,-0.34800006151199997,0.55,-1.323000335695,-0.0679999999702,-0.0650000013411,-0.08999999985115001,48.0,54.0,56.0,73.5,83.0,196.0,233.5,239.0,245.5,258.0,5.0,-2.7250000238419996,-0.9149999767560002,-3.5249996185300003,0.04299999773490002,-0.03400000184774999,0.006500001996799995,1.4744266448560397,0.13018832568052022,7.091468648462101,2.5435411215013977,0.150128711969346,0.3070873027940426
19,19,51.1886719487,5119.5,1521546684.0,446995496.5,,3122894.5,1521546683.0,492633728.5,,0.6124312468785,-0.1954278121255,0.07045179042230001,-0.2871657102705,0.9565413504815,-0.014828098959500003,0.048420679615599996,0.02385815611265,0.0016399483094514994,0.0867233534388,0.0302076318484,-0.1205882436079,-0.0928787424213,4.692080497739999,-0.4277947694065,2.3885422944999997,1.929735183715,2.56054019928,1.11728137732,3123247.5,1521546683.0,490706183.5,,,,,,2626825.5,1521546684.0,441418444.5,,0.8869999527929999,-0.5899999707935,-1.6479991912849998,-0.04299999959765,-0.135499998927,-0.1080000028015,42.5,45.0,54.0,79.5,90.0,258.5,268.5,287.0,320.0,349.0,5.0,1.235000014305,-1.1399999707935,-0.32499885558999986,0.025000000372549992,-0.07049999758589999,-0.018000002950349994,1.9623379464982906,0.1785308104494541,5.2824011637340575,3.3953735681810486,0.089960219404047,0.15517888487835224
20,20,51.291236051300004,5127.5,1521546684.0,527035474.5,,3122901.5,1521546683.0,562646196.5,,0.6143218799054999,-0.194717789694,0.07457017333314997,-0.283329349037,0.957508921572,-0.014070699936549998,0.0519900030025,0.006154490245810001,0.02319068790885,0.038160586583199985,0.08654850369700001,-0.0546065204055,-0.09427732844385,1.8860954493295,1.534166157245,4.9592965841300005,0.7779678404335,1.4020322859285002,0.783260732889,3123254.0,1521546683.0,555777317.0,,,,,,2626833.5,1521546684.0,520786879.0,,-0.5579999804494999,-0.8599999517190001,-1.26800003052,-0.07100000232455,-0.05199999921025,-0.116000000387,32.0,38.5,46.5,60.0,73.0,133.0,143.0,156.5,166.0,166.5,5.0,-1.4449999332425,-0.2699999809255001,0.3799991607649997,-0.0280000027269,0.08349999971674997,-0.00799999758549999,1.6305790298348148,0.1456056329189778,5.52319150956952,1.7844959700768372,0.045076780322526974,0.13914284107166808
21,21,51.3938001538,5136.5,1521546684.0,617014526.5,,3122909.0,1521546683.0,637631090.0,,0.614245804975,-0.194466577183,0.0756040357397,-0.283779832696,0.957320941371,-0.014151224147700004,0.0529656928778,0.00304709127567,0.00603896151931,0.0139448729335,-0.010958591709999998,-0.035206637180800006,0.025437116869700002,-0.47670444846199994,1.26289176941,6.92434406281,0.666058540344,0.6787432432170001,0.7555115222930001,1235276.0,1521546683.0,624999936.0,,,,,,2626842.5,1521546684.0,609825675.0,,-0.17799998521799998,-1.309999999405,-0.5030006408694999,-0.045999999158100005,-0.14000000059599998,-0.12300000339749999,21.5,24.0,29.0,44.5,50.5,136.0,144.0,154.0,162.0,166.0,5.0,0.3799999952315,-0.4500000476859999,0.7649993896505002,0.025000003166450003,-0.08800000138574998,-0.007000003010500007,1.4144941279106944,0.1919505168662231,7.054692300348689,1.2145468412932447,0.015498816167870114,0.044795590725982694
22,22,51.49636425640001,5150.5,1521546684.0,757053017.5,,3122922.0,1521546683.0,767635720.0,,0.6126601725,-0.192938400273,0.0769953392154,-0.285571837892,0.9567832652330001,-0.014546574283200001,0.05294247774830002,-0.022268231191500003,0.0008366112615580001,0.0181172751657,-0.00731116920385,0.036941980023,-0.0190062056831,1.7822706699400002,0.283227443695,5.56542730331,1.35431075096,1.29453635216,0.899186253548,1235282.0,1521546683.0,776000000.0,,,,,,2626856.5,1521546684.0,750742824.0,,-0.28300012350065,0.1250000029805,-1.25299873352,-0.07849999889735003,-0.07550000026819999,-0.11549999937449999,22.5,26.0,37.5,43.0,56.5,162.0,172.5,177.0,184.5,192.0,5.0,-0.10500013828265004,1.4350000023855,-0.7499980926505002,-0.032499999739250024,0.0645000003278,0.007500004022999995,1.2906277142728773,0.15875373924066058,5.85069975252694,2.078104399639067,0.02871950031304078,0.042182922345605195
23,23,51.598928359,5160.5,1521546684.0,857002496.5,,3122933.0,1521546683.0,877628798.0,,0.610311060754,-0.188975334907,0.0767957022957,-0.284533006347,0.957189229712,-0.0108537876614,0.052076310496699994,-0.0231980601291,0.04286801158819999,-0.00238061405133,0.0888831059873,0.0691034842075,-0.07354907439160001,-0.175488442183,-0.241375267506,7.528008937839999,1.34855937958,0.607672393322,0.8845563530920001,2179286.0,1521546683.0,876846507.5,,,,,,2626866.5,1521546684.0,851212504.0,,0.5369999289509999,-0.8999999731799999,-1.0829986572274999,-0.0760000012815,-0.07050000131129999,-0.124999996275,19.0,24.5,26.5,28.0,62.0,157.5,166.0,168.5,175.0,181.0,5.0,0.8200000524516501,-1.0249999761605,0.17000007629250002,0.002499997615850028,0.004999998956899995,-0.00949999690049999,1.507068335203798,0.16239227028535352,7.533921739791456,1.7234610757584,0.04880044809774576,0.1344803495066358
24,24,51.701492461499996,5171.5,1521546684.0,967073440.5,,3122944.0,1521546683.0,987630128.0,,0.609512198235,-0.187654643723,0.0769394328669,-0.285872559074,0.956811212481,-0.0105234271153,0.0517536580339,-0.0043088885476400005,-0.0163736435375,-0.0049201307391,-0.00470502391068,0.010313261447799999,-0.0134758293059,0.8441059589390001,0.16833078861200002,6.33370828629,0.9431123733519999,0.809725761414,0.7553358078,2179293.5,1521546683.0,982841738.0,,,,,,2626877.5,1521546684.0,961579195.5,,-1.32300002575,-1.0449999541055,-0.34799995422350005,-0.08650000020859999,-0.0670000016689,-0.108500000089,16.5,17.0,28.0,31.0,102.0,127.5,129.5,135.0,140.5,148.0,5.0,-1.8599999547009998,-0.14499998092550004,0.734998703004,-0.01049999892709999,0.003499999642399998,0.016499996185999996,1.7214697035831203,0.15408926075179089,6.391925436058346,1.4545270502854193,0.017631517509815637,0.0176096163266694
25,25,51.8040565641,5180.5,1521546685.0,57004451.5,,3122954.5,1521546684.0,92629812.0,,0.6098816040105001,-0.188142850465,0.07707603674534999,-0.2857938967195,0.9567996328265,-0.010913719466,0.052317424727250005,0.005863275244445,-0.01419206471541,0.00021880621434499983,-0.007885539503894999,-0.014406272312935,-0.0068591307004600005,0.8145358264445,0.16075819730750002,6.164078712465,0.9414356648925,0.8712298870084999,0.7524929344654999,2179301.0,1521546684.0,88842643.5,,,,,,2626886.5,1521546685.0,50965026.5,,-0.4380000948905,-2.699999925495,-2.1030010223400004,-0.07149999961260001,-0.08100000023845,-0.08300000056625001,8.0,10.5,12.0,21.0,31.5,82.0,86.5,94.0,95.0,129.0,5.0,0.8849999308595,-1.6549999713894998,-1.7550010681165005,0.015000000595999985,-0.013999998569550004,0.02549999952274999,3.450283608742936,0.1362433487449138,6.2197410061856555,1.4871409629113597,0.015357101733007536,0.017798036104804345
26,26,51.9066206667,5190.5,1521546685.0,157029986.0,,3122965.0,1521546684.0,197630016.0,,0.6096732367665,-0.189082098747,0.07680940829035,-0.2855516672105,0.9568980240495,-0.011218676281199998,0.051773343603250005,-0.002844471539658,-0.00591715728078,0.0027338159746640002,-0.023258355006400003,-0.0011109932262000008,0.008680230983209998,1.111239135265,0.0924238860605,6.355307579040001,1.0540564060200002,0.9277432262895,0.7717952728274999,3123318.0,1521546684.0,195682505.0,,,,,,2626896.5,1521546685.0,150847098.0,,-1.05800004005,-1.480000016095,-1.3230003356949998,-0.08049999922515,-0.07149999961260001,-0.0905000008643,9.5,10.5,17.0,19.5,38.5,60.0,64.5,71.5,86.0,99.0,5.0,-0.6199999451595,1.2199999093999998,0.7800006866450007,-0.008999999612549991,0.009500000625849991,-0.007500000298049994,2.2494652743787986,0.14065116414836124,6.452389403520397,1.6023140591521767,0.0071117872865222986,0.024850186990730536
27,27,52.0091847692,5197.5,1521546685.0,227111577.5,,3122971.5,1521546684.0,262629015.0,,0.6100856265925,-0.1885778562645,0.07709364096065,-0.2859463229955,0.9567426299725,-0.011395469373650002,0.05242393477085,-0.013663407247025,-0.014940006257855,-0.009682589609229,-0.01718043079895,0.0203517926533985,-0.0030543786466500013,1.633562982085,0.3301614820955,6.26507806778,0.7978247106074999,1.124536573885,0.7461496293545,3123324.5,1521546684.0,260688671.5,,,,,,2626903.5,1521546685.0,221502675.5,,0.24199997186650002,0.5050000121814999,-1.1829990386949998,-0.07899999991060001,-0.0655000023544,-0.1189999990165,1.0,2.0,5.0,33.0,67.0,56.0,62.0,68.5,73.0,85.0,5.0,1.3000000119165,1.9850000282765001,0.14000129699999994,0.0014999993145499851,0.00599999725820001,-0.0284999981522,1.3088451872700588,0.15713767867773856,6.482957489917385,1.5677519077477828,0.02244203703150744,0.026808429561642477
28,28,52.1117488718,5211.5,1521546685.0,367004990.0,,3122986.0,1521546684.0,407635652.0,,0.611090434333,-0.188835130833,0.07784640630010001,-0.285962051779,0.956687415968,-0.0118162450587,0.053247248042400004,-0.0106317550039,-0.006881669758350001,-0.0124516142558,0.00246834814176,0.0207067160991,-0.00317682865363,0.792721092701,0.514966130257,6.1333694458000005,0.692197203636,0.822284698486,0.6957076787950001,3123338.0,1521546684.0,395710531.0,,,,,,2626917.5,1521546685.0,361412618.5,,0.4669999957085,0.425000007451,-1.608000183105,-0.082499999553,-0.06699999794365,-0.09249999746680004,1.0,2.0,7.5,13.5,36.5,54.5,61.0,64.0,75.0,84.0,5.0,0.225000023842,-0.08000000473049995,-0.42500114441000014,-0.003499999642399984,-0.00149999558925,0.026500001549699972,1.727535409533131,0.14089534833362,6.2057890396627196,1.280350838020594,0.01776046988965054,0.02109391083825334
29,29,52.214312974399995,5219.5,1521546685.0,447378516.0,,3122994.0,1521546684.0,487635647.0,,0.609752276038,-0.18911891843150005,0.0768849116617,-0.285744588067,0.9568290577465,-0.0113990760757,0.05194259997095002,0.009373074646424999,-0.008620159542420002,0.007710565553385002,-0.010172603807780001,-0.017244188079228,-0.005020285227429998,1.50453525782,0.6393043994905,5.90081977844,0.698060840368,1.0118356943150002,0.6945076584815,2179328.0,1521546684.0,486346200.0,,,,,,2626925.5,1521546685.0,440847845.5,,-0.4329999804495,0.43000001013300004,-1.24300041199,-0.08399999886750001,-0.07750000059605,-0.1085000000895,3.0,5.5,9.5,16.0,66.0,65.0,65.0,74.0,80.0,99.5,5.0,-0.899999976158,0.0050000026820000145,0.3649997711149999,-0.0014999993145000112,-0.010500002652400005,-0.016000002622699974,1.3847162221881266,0.15758965677210307,6.123071983478562,1.4118928064249965,0.014886722272457329,0.02064090973059572
30,30,52.3168770769,5229.5,1521546685.0,547001004.0,,3123002.0,1521546684.0,566821951.0,,0.610354949678,-0.189381305594,0.0771081754938,-0.285527895928,0.9568681109020001,-0.0115086062613,0.052390752697400005,0.0201792126583,-0.0232096958305,0.010203928075299998,-0.0205587336731,-0.0357751823746,-0.0103395763998,1.28743064404,0.547243058681,6.00739383698,0.669040560722,0.978000164032,0.6896640062330001,3123355.0,1521546684.0,564844713.0,,,,,,2626935.5,1521546685.0,540482667.5,,-1.1179999828349998,0.07000001072899997,-1.70300140381,-0.08599999919535001,-0.06949999928475001,-0.0634999983013,8.0,9.5,13.0,41.5,57.0,60.5,67.5,70.5,78.0,104.0,5.0,-0.6850000023854999,-0.35999999940399996,-0.4600009918200001,-0.002000000327849999,0.008000001311299992,0.0450000017882,2.0383909694903846,0.12750882144559866,6.16812235133781,1.371034658289563,0.03240386940195753,0.04253741934232315
31,31,52.4194411795,5240.5,1521546685.0,657000899.0,,3123012.5,1521546684.0,671787050.0,,0.6100665553575,-0.1887726037895,0.07690178377475,-0.286383847161,0.9566216062225,-0.0114940402845,0.0522219531077,0.01859817774816,0.005421693201169,0.008495384366675001,0.0168221692295,-0.03032581024285,-0.011796951212055,1.4198346138,0.7776198089124999,5.68526148796,0.554541051388,0.9840251505375,0.6465443968775,3123365.5,1521546684.0,669862165.5,,,,,,2626946.5,1521546685.0,652209022.0,,-0.523000073433,0.3200000219049,-1.43800010681,-0.07750000059605,-0.06350000202655001,-0.08799999952314999,2.5,6.0,11.0,28.0,83.0,60.5,71.5,76.0,79.5,99.0,0.0,0.5949999094019998,0.25000001117590004,0.2650012970000002,0.008499998599300005,0.005999997258199996,-0.02450000122184999,1.5632573038420872,0.13335104148762394,5.911245307398337,1.3014764430056152,0.021153215553605602,0.036630700271369214
32,32,52.522005282100004,5250.5,1521546685.0,757029533.0,,3123022.0,1521546684.0,766789327.0,,0.610007269586,-0.18872258468199998,0.07689706813310003,-0.28642860141800003,0.956602935258,-0.0116782752822,0.0522790438976,0.00498841658161,-0.0033947570412100002,-5.01620623722e-05,0.00271667105854,0.00444551995493,-0.0143406003189,1.56827783585,0.772355496883,5.63990831375,0.493379354477,0.9909568428990001,0.613403022289,2179348.0,1521546684.0,777440310.5,,,,,,2626956.5,1521546685.0,751768619.5,,0.046999919414499984,0.7450000077504999,-2.618000411985,-0.0605000015348,-0.07450000196695,-0.09600000083464999,0.0,4.5,10.0,25.0,129.0,85.5,88.0,90.5,93.5,119.0,-1.0,0.5699999928475,0.4249999858455999,-1.1800003051750003,0.01699999906125,-0.01099999994039999,-0.008000001311500013,2.72234460734251,0.13574424716738148,5.904624812085025,1.265575726563122,0.0060341686745588995,0.01525764617548934
33,33,52.6245693846,5261.5,1521546685.0,867027997.5,,3123033.0,1521546684.0,876826060.0,,0.610528176315,-0.188293692177,0.0772420663724,-0.286894846309,0.9564353195559999,-0.011864763005600002,0.05274518050969999,0.018351056303299997,0.00345570220572,0.0138123696184,-0.0029940960756599994,-0.04596094386519999,0.026993934136700003,1.7222646474799999,0.615878939629,5.50686883926,0.534866333008,1.0927712917299999,0.6245188117029999,1235325.0,1521546684.0,892000000.0,,,,,,2626967.5,1521546685.0,861451706.0,,-0.7530000329015,0.6050000071530001,-2.42299880981,-0.07149999961260001,-0.06000000052155,-0.1034999974075,0.0,2.0,12.0,36.0,93.5,81.5,82.0,82.5,83.5,92.5,-1.0,-0.799999952316,-0.14000000059749984,0.1950016021750005,-0.010999998077800006,0.0145000014454,-0.007499996572849998,2.6084396275446875,0.1393718029966618,5.802681000800469,1.3675726073542145,0.02322680993285139,0.05338581695981476
34,34,52.7271334872,5273.5,1521546685.0,987000941.5,,3123045.5,1521546684.5,501785914.0,,0.6106891374819999,-0.188896467223,0.07701044495545001,-0.2872502700795,0.956339662333,-0.012423716921250001,0.05241419679615,-0.01025717102142,-0.007793117050245,-0.005515658259460001,-0.026170675037475,0.018360594811080003,0.008741349417729999,1.954462468625,0.335269331932,5.273915767669999,0.5677459239960001,1.117096722125,0.6039409637455,2179365.0,1521546684.5,503937831.5,,,,,,2626979.5,1521546685.0,981312634.5,,-0.698000025749,0.30000001862649994,-1.843000793455,-0.07400000095364999,-0.07049999758605001,-0.1134999990465,2.0,8.5,18.0,34.5,65.0,68.5,77.5,85.5,87.5,89.5,-1.0,0.055000007152499975,-0.3049999885265001,0.5799980163549998,-0.0025000013410499816,-0.010499997064500008,-0.010000001639,1.9934532780572671,0.15273670018803195,5.634404723719809,1.3910374576144005,0.014013019544574498,0.03314252349137922
35,35,52.829697589700004,5282.5,1521546686.0,76999425.5,,3123057.5,1521546685.0,121788749.0,,0.6108226260715001,-0.190029284717,0.0768645863087,-0.28727423240850003,0.956320780005,-0.01340266861335,0.05238531550295,0.012958149629785,-0.009310401207925,0.006430357454523499,-0.009182981916754998,-0.015429897833284998,-0.016729356109885,3.031356930735,0.9496265947820001,5.4426367282850014,0.3684767186640001,1.4941455721899999,0.5562463402744999,3123410.0,1521546685.0,114899599.0,,,,,,2626988.5,1521546686.0,72710628.5,,-0.008000028133500037,0.51999999880795,-1.758001708985,-0.0759999975562,-0.06500000134110001,-0.09400000050665,6.5,18.5,24.0,26.5,36.0,67.0,70.5,73.0,79.0,111.0,-1.0,0.6899999976154999,0.2199999801814501,0.08499908446999993,-0.0019999966025500138,0.005499996244949998,0.019499998539850016,1.8333123050927753,0.13724795043327825,6.301841799593928,1.636354507483371,0.017203101739900695,0.024541398898196676
36,36,52.932261692299996,5290.5,1521546686.0,156982898.0,,3123065.5,1521546685.0,201786599.0,,0.6124399669975,-0.1905563659675,0.07753743712955,-0.286617920759,0.9564516938025001,-0.013782540214699998,0.053481760988050006,0.0178640772827,-0.00260948452798435,-0.0009622148552649996,0.023245565147550003,-0.0262104090741,-0.03213529431205,2.4330741167100003,0.573611855507,5.190158605580001,0.5001054406165,1.3483943343149998,0.594466596842,3123418.5,1521546685.0,199862888.0,,,,,,2626996.5,1521546686.0,151925668.0,,-0.4980000972745,0.9750000119185,-1.5829986572249997,-0.0769999995828,-0.06599999964235,-0.15100000053649998,9.0,10.5,13.5,19.0,117.0,62.0,65.0,78.0,88.0,111.0,-1.0,-0.490000069141,0.4550000131105501,0.1750030517600003,-0.0010000020265999998,-0.0009999983012499852,-0.057000000029849986,1.9247113728823444,0.18189557457663558,5.760783503071302,1.5561694211453725,0.018079284391030542,0.04753965695482802
37,37,53.034825794899994,5304.5,1521546686.0,296996950.5,,3123079.5,1521546685.0,341792701.0,,0.6138068321315,-0.19128924890700005,0.0777188466862,-0.2853644879335,0.9567992442805,-0.01369216165245,0.05398830493815,0.0183428740939,-0.00934139409213,0.004532381285679999,0.0145908217214,-0.023423335357645,-0.04907295360485,2.3827856779100003,0.6777583956719999,4.808211803435,0.3898696154355,1.270530462265,0.549042791128,2179387.0,1521546685.0,330942893.5,,,,,,2627010.5,1521546686.0,292114043.5,,-0.317999970913,0.8100000053645,-2.2080005645750003,-0.0805000029504,-0.06850000098345,-0.11700000241399999,7.5,9.0,12.0,18.0,24.0,84.5,87.0,88.5,102.0,113.0,-1.0,0.18000012636150006,-0.16500000655400004,-0.6250019073500006,-0.003500003367599993,-0.0025000013410999967,0.03399999812249997,2.373286852311511,0.15767530299518392,5.4088746312378655,1.4379478290510972,0.021077598386152332,0.05630008430976051
38,38,53.1373898974,5311.5,1521546686.0,367002009.5,,3123086.5,1521546685.0,411799128.0,,0.6150288120274999,-0.19149549127,0.07812724225760001,-0.284613110017,0.956972000684,-0.0139653992983,0.05481532278955,0.03603927717685,-0.015045784758100002,0.021714254621,-0.01688684535265,-0.062066817117,-0.018983416209063502,2.176011800765,0.5170285105704999,5.029803037645,0.6343608796600001,1.224115133285,0.6184574067590001,3123439.5,1521546685.0,409885315.0,,,,,,2627017.5,1521546686.0,363228306.5,,0.35699998140350003,0.445000005141,-1.69800033569,-0.08850000053645,-0.07250000163914999,-0.1275000050665,3.0,6.5,13.5,22.0,69.0,80.0,82.0,85.5,86.0,92.0,-1.0,0.6749999523164999,-0.3650000002235,0.5100002288850003,-0.007999997586050009,-0.004000000655699998,-0.010500002652499993,1.791278630280879,0.17130309870106242,5.504658430394583,1.5110794648711992,0.0446846057626395,0.06706582903361426
39,39,53.239954,5325.5,1521546686.0,506996035.5,,3123100.0,1521546685.0,546852786.0,,0.61616760847,-0.192309793598,0.0789130368697,-0.284263611318,0.9570123805769999,-0.014747650556900001,0.0557136384184,0.0040649760243,-0.0202284562482,-0.00142966481542,-0.022853738426900003,0.00243736611257,-0.0132650917616,2.3115854263299997,0.8546466231350001,4.83759403229,0.39495217800099996,1.28824865818,0.565029263496,3123452.5,1521546685.0,539932888.0,,,,,,2627031.5,1521546686.0,503331541.0,,-0.1530000090601,-0.25499996244925,-2.097999954225,-0.0774999968708,-0.0599999986589,-0.1134999990465,6.0,19.0,20.5,28.5,42.0,83.0,91.0,101.0,104.0,116.5,-1.0,-0.5099999904636,-0.69999996759025,-0.3999996185350001,0.011000003665650002,0.012500002980249987,0.014000006019999995,2.1189709274904205,0.14996165889185645,5.429195525573299,1.4611057103499172,0.020682321285289167,0.026536706146308712
