,Unnamed: 0,Unnamed: 0.1,.header.seq,.header.stamp.secs,.header.stamp.nsecs,.header.frame_id,.endpoint_state.header.seq,.endpoint_state.header.stamp.secs,.endpoint_state.header.stamp.nsecs,.endpoint_state.header.frame_id,.endpoint_state.pose.position.x,.endpoint_state.pose.position.y,.endpoint_state.pose.position.z,.endpoint_state.pose.orientation.x,.endpoint_state.pose.orientation.y,.endpoint_state.pose.orientation.z,.endpoint_state.pose.orientation.w,.endpoint_state.twist.linear.x,.endpoint_state.twist.linear.y,.endpoint_state.twist.linear.z,.endpoint_state.twist.angular.x,.endpoint_state.twist.angular.y,.endpoint_state.twist.angular.z,.endpoint_state.wrench.force.x,.endpoint_state.wrench.force.y,.endpoint_state.wrench.force.z,.endpoint_state.wrench.torque.x,.endpoint_state.wrench.torque.y,.endpoint_state.wrench.torque.z,.joint_state.header.seq,.joint_state.header.stamp.secs,.joint_state.header.stamp.nsecs,.joint_state.header.frame_id,.joint_state.name,.joint_state.position,.joint_state.velocity,.joint_state.effort,.wrench_stamped.header.seq,.wrench_stamped.header.stamp.secs,.wrench_stamped.header.stamp.nsecs,.wrench_stamped.header.frame_id,.wrench_stamped.wrench.force.x,.wrench_stamped.wrench.force.y,.wrench_stamped.wrench.force.z,.wrench_stamped.wrench.torque.x,.wrench_stamped.wrench.torque.y,.wrench_stamped.wrench.torque.z,.tactile_values.tactile_values_0,.tactile_values.tactile_values_1,.tactile_values.tactile_values_2,.tactile_values.tactile_values_3,.tactile_values.tactile_values_4,.tactile_values.tactile_values_5,.tactile_values.tactile_values_6,.tactile_values.tactile_values_7,.tactile_values.tactile_values_8,.tactile_values.tactile_values_9,.tag,.delta_wrench.force.x,.delta_wrench.force.y,.delta_wrench.force.z,.delta_wrench.torque.x,.delta_wrench.torque.y,.delta_wrench.torque.z,.wrench_stamped.wrench.force.magnitude,.wrench_stamped.wrench.torque.magnitude,.endpoint_state.wrench.force.magnitude,.endpoint_state.wrench.torque.magnitude,.endpoint_state.twist.linear.magnitude,.endpoint_state.twist.angular.magnitude
0,0,48.675349,4866.5,1521547385.0,502055525.5,,3192995.5,1521547384.0,502185723.0,,0.7358289152755,-0.1441891124735,0.016023209679149997,-0.1437646640745,0.9883162232085,-0.00528282507058,0.05034700737925,-0.008937412585908999,-0.0045762116165500005,-0.00651273544223,-0.013837234994405,0.013967946940799999,0.005681157628990001,0.5990756452085,0.5416541993619999,2.487936258315,0.6602203845979999,0.640032291412,0.559280514717,3193348.0,1521547384.0,495280600.0,,,,,,2696857.5,1521547385.0,493521806.5,,-0.33899996280699995,-0.014000010489999992,-6.672999191285001,-0.013499999418835,-0.1064999997615,-0.14250000566249998,193.5,307.0,566.0,616.5,877.0,322.0,506.0,515.5,688.5,737.0,5.0,0.0,0.0,0.0,0.0,0.0,0.0,6.681619203603805,0.17841174722343978,2.6157422896391975,1.0762560032032058,0.011968073338290109,0.020465780367159753
1,1,48.7779131026,4878.5,1521547385.0,622079967.5,,3193008.0,1521547384.0,627185694.0,,0.7358654059655001,-0.14341825042599998,0.01604868022225,-0.14429836350550002,0.9882343006835,-0.005015315164665,0.0504554261575,0.009415120740850002,-0.010879660322284998,0.00920919048142,-0.0047043470596000005,-0.01653051322702,-0.0009448326281565,0.5295678377155,0.7376860380170001,2.4215769767750004,0.5071775615215001,0.556041002274,0.508392363787,1263007.5,1521547384.0,626499968.0,,,,,,2696869.5,1521547385.0,613371917.0,,-1.0689999818804998,0.8659999847390001,-6.333000946045001,-0.018999999854700002,-0.112500000745,-0.123999997973,203.0,300.0,569.0,601.0,875.0,333.5,522.5,533.5,679.0,740.0,5.0,-0.7300000190734999,0.8799999952290001,0.33999824524000033,-0.005500000435864997,-0.006000000983499995,0.018500007689499984,6.480711220030972,0.16850296632228054,2.586243963719324,0.908225451458889,0.01708276021655058,0.017212828283030057
2,2,48.8804772051,4889.5,1521547385.0,732064962.0,,3193020.5,1521547384.0,752188475.5,,0.7356850722820001,-0.1439534509745,0.015842449853450003,-0.144203993561,0.988253066086,-0.00527476068099,0.050331124615400014,-0.0020011709074499967,0.0013134611033899998,-0.00155610685692,-0.0015867352843849988,0.009031952467800005,0.0001949877794000035,0.4667924940585,0.9233043789845,2.45823919773,0.3838784843685,0.5370746850965,0.4826086759565,2228193.0,1521547384.0,742624149.5,,,,,,2696880.5,1521547385.0,723102250.5,,-0.9789999485009999,0.475999999046,-6.543000030519999,-0.016499999910600003,-0.099999997765,-0.12999999523150002,179.0,315.0,565.5,617.0,871.0,350.5,510.0,537.0,695.0,737.0,5.0,0.0900000333794998,-0.389999985693,-0.2099990844749984,0.0024999999440999954,0.012500002979999994,-0.00599999725850002,6.632937983853118,0.16484006888569247,2.6670819563743335,0.8177548790689343,0.002855054048717145,0.009172345091492486
3,3,48.983041307700006,4898.5,1521547385.0,822083949.5,,3193029.5,1521547384.0,842187958.5,,0.7356360515455,-0.1434268162935,0.01592829046865,-0.1446520560555,0.9881914570745,-0.005042545013245,0.0502757438932,-0.002126192300035,0.015080958318540004,0.00025830261914655,0.008185794121815,0.0021922571267350005,0.0231753373419,0.5904646515845,0.8262198865414999,2.4378764629350003,0.44325016439,0.6044608056545,0.498996004462,1263016.0,1521547384.0,831000064.0,,,,,,2696890.0,1521547385.0,816516973.0,,0.120999956131,0.1109998703,-6.15799980164,-0.0280000008643,-0.0930000022054,-0.125,190.0,320.0,586.0,618.5,861.0,351.5,504.0,542.5,698.0,740.0,5.0,1.099999904632,-0.3650001287460001,0.3850002288799992,-0.011500000953699996,0.0069999955596,0.004999995231500021,6.160188594319869,0.1582971903054669,2.640933443731576,0.9004668712802761,0.015232291939997967,0.024676091214479775
4,4,49.0856054103,4906.5,1521547385.0,902069568.0,,3193037.5,1521547384.0,922186703.5,,0.7360702810885,-0.14334517313950002,0.016257096819199998,-0.144704014246,0.9881568833329999,-0.0051017135167650005,0.05080027283745,0.008297534477588,0.0146721331617,0.012237639157615,0.01332795670995,-0.02802634643815,0.03097768585745,0.5681450366974999,0.916251689196,2.5197372436550003,0.5482624471190001,0.6517448723315,0.5621613860129999,2228205.0,1521547384.0,923646109.5,,,,,,2696897.5,1521547385.0,893668093.5,,1.2559999465950002,1.5809999734150002,-6.342999267574999,-0.0460000000894,-0.08600000292064999,-0.13049999997,190.0,317.0,575.0,598.0,859.5,352.0,520.0,530.0,723.0,741.5,5.0,1.1349999904640002,1.4700001031150003,-0.18499946593499936,-0.0179999992251,0.006999999284750008,-0.005499999970000002,6.656631016530949,0.16291792566426386,2.7406900075967413,1.0204844503741224,0.020829795536044284,0.04384891727074184
5,5,49.188169512799995,4916.5,1521547385.5,502061962.5,,3193047.5,1521547385.0,22185899.0,,0.7354396724885001,-0.142524891893,0.015999149921449997,-0.145905250952,0.987995057428,-0.005216971939435,0.0504986311052,-0.0049950341886949995,0.003455860289295001,-0.00951427542842,-0.006931813346854998,0.004520269366960001,0.02234727729055,0.9668137133135,1.035589635375,2.4423401355700003,0.370880484581,0.718425899744,0.497607916594,2228211.5,1521547385.0,22162625.5,,,,,,2696907.5,1521547385.0,993206084.0,,-0.644000029564,0.9659999489769999,-5.977999496459999,-0.034499999135750005,-0.08300000056625001,-0.1174999959765,188.5,337.0,561.0,574.5,858.0,367.0,502.0,547.0,691.0,738.0,5.0,-1.8999999761590003,-0.6150000244380002,0.3649997711150004,0.011500000953649996,0.0030000023543999828,0.0130000039935,6.089693745926637,0.1479374837180955,2.8235084534959785,0.9493691304877332,0.011287815280788156,0.023830309979650827
6,6,49.2907336154,4927.5,1521547386.0,112076997.0,,3193058.5,1521547385.0,132185936.0,,0.735685560856,-0.14334535510200005,0.0160511070553,-0.1457172535635,0.988020311243,-0.0055740220273900005,0.0505079899881,0.0004702122861200002,0.0046953566630100006,0.001929296720395,0.008226985591300001,-0.003640120704155,-0.0040893716973,0.7775603532790001,0.8553204834460001,2.6042410135250003,0.5622536838054999,0.679495811462,0.547530055046,1263027.5,1521547385.0,132499968.0,,,,,,2696919.0,1521547386.0,107008172.0,,-0.2139999628068,1.005999940633,-6.598000335695,-0.0384999997914,-0.07000000029799999,-0.0929999984801,212.0,351.5,553.0,581.0,866.0,371.0,524.0,545.5,720.0,761.5,5.0,0.4300000667572,0.03999999165599999,-0.6200008392350007,-0.004000000655649996,0.013000000268250015,0.0244999974964,6.677682254679856,0.12260199730410758,2.8492533212965436,1.0380909998289807,0.005098005455294993,0.009882142052154179
7,7,49.3932977179,4937.5,1521547386.0,212082981.5,,3193066.5,1521547385.0,212239403.0,,0.735792444155,-0.1430872766145,0.0164565652257,-0.14566896004799998,0.9880138421645001,-0.0055503129926150006,0.050777605628500005,-0.0026904813560550004,-0.005149164354470001,0.00012967607708500026,-0.008778482335049999,0.00604206888822,-0.019637248417300003,0.566202804446,0.8247930407525,2.6863555908200003,0.560082167387,0.608099758625,0.551978588104,3193420.0,1521547385.0,215325758.0,,,,,,2696929.0,1521547386.0,206687209.0,,0.0610000133514,0.880999970436,-6.858000564580001,-0.035000000148999996,-0.0750000029802,-0.101999998093,194.0,345.5,570.0,576.5,845.0,367.0,519.5,565.5,721.0,748.5,5.0,0.27499997615820004,-0.12499997019700004,-0.2600002288850014,0.003499999642399998,-0.005000002682200008,-0.008999999612900003,6.914626070389976,0.13135448248321036,2.866596507387488,0.9940612216508539,0.0058111444106640625,0.02234255746237508
8,8,49.495861820500004,4948.5,1521547386.0,322055458.5,,3193077.5,1521547385.0,322243977.5,,0.735739316256,-0.1430040454425,0.016219318376,-0.14609439256200002,0.9879533740299999,-0.00566477475649,0.05071796507165,0.0018007169864294,-0.0013590278309735,0.00032573054555000083,-0.0135785350212,-0.006075904212995,0.010193893055233,0.7976644337175,0.7384518086909999,2.684878349305,0.611834347248,0.710082024336,0.5721332728865001,3193430.5,1521547385.0,320325237.5,,,,,,2696940.0,1521547386.0,316429670.0,,-1.08900008202,1.84099997878,-6.58800010681,-0.0250000003725,-0.0799999982119,-0.11100000143100001,174.0,349.0,561.5,575.0,851.0,355.0,502.0,558.0,698.5,794.0,5.0,-1.1500000953714,0.960000008344,0.27000045777000103,0.009999999776500002,-0.0049999952317,-0.009000003337999996,6.926539360159307,0.13908989916672962,2.8965758013805902,1.0981321558452408,0.002279394371073206,0.01803354321671071
9,9,49.5984259231,4958.5,1521547386.0,422061085.0,,3193088.0,1521547385.0,427238009.0,,0.734844151365,-0.144045960184,0.016492515880200002,-0.146682241362,0.9878446915639999,-0.00574925670295,0.0511285777667,-0.0227046776794,0.00351538786014,0.014333888518100003,0.00024494858719200003,-0.012866241195499999,0.0383135941964,0.174381315708,0.540230751038,5.91237449646,1.04195678234,1.1358768940000001,0.727087497711,2228239.0,1521547385.0,419148827.0,,,,,,2696949.5,1521547386.0,413996560.0,,0.7259999752045001,-0.16900010108959998,-0.4680011749269,-0.0625,-0.2619999945165,-0.1085000000893,184.0,332.0,528.0,571.0,827.0,369.5,494.5,552.5,710.5,773.0,5.0,1.8150000572245,-2.0100000798696,6.119998931883099,-0.0374999996275,-0.1819999963046,0.0025000013417000033,0.8801489066619288,0.29038336237812273,5.93956482362351,1.704273007447767,0.027079894763126083,0.04041697245660002
10,10,49.70099002560001,4969.5,1521547386.0,532058000.0,,3193098.0,1521547385.0,527237081.0,,0.7289405687710001,-0.14358248332499998,0.017747474974099998,-0.147291224203,0.987901263436,-0.00326216931791,0.0484329146891,-0.105056706788,-0.051469281253500004,0.0127181669169,0.00353219101309,0.202541786285,-0.0753462239456,-0.8940788507459999,-1.2871067524,11.294313430799999,2.13611626625,2.00595808029,1.0318210125,2228247.5,1521547385.0,532149331.0,,,,,,2696960.5,1521547386.0,523704418.0,,-1.4589999675749998,-1.4390000820200002,4.62200279236,0.08399999886755001,-0.6789999902249999,-0.1600000038745,257.0,334.0,579.0,599.0,852.5,389.5,400.0,430.0,700.0,793.5,5.0,-2.1849999427794997,-1.2699999809304,5.090003967286901,0.14649999886755,-0.4169999957084999,-0.051500003785200005,5.055918507454511,0.7026357433088203,11.402523258322002,3.1066887717721436,0.11767646461216372,0.2161312217791129
11,11,49.8035541282,4978.5,1521547386.0,622066020.5,,3193108.0,1521547385.0,627237096.0,,0.713936612876,-0.146960922803,0.0200469227586,-0.143430328611,0.9890107412710001,-0.000879995862394,0.035842992245000004,-0.20778796858100002,-0.0449446379818,0.010866767343399999,-0.0009609403805030001,0.364152041525,-0.10704619855799999,2.47002959251,-0.193610370159,12.7035493851,1.2832555770899998,2.54103755951,0.90171200037,2228254.0,1521547385.0,630151916.0,,,,,,2696970.0,1521547386.0,617116153.0,,-0.528999900818,-0.189000082016,7.7520038604699995,-0.035999998450300004,-0.504000008106,-0.122000001371,307.0,371.0,487.0,549.0,731.0,200.0,326.5,332.0,603.5,791.5,5.0,0.930000066757,1.250000000004,3.1300010681099986,-0.11999999731785002,0.17499998211899992,0.0380000025035,7.772330781613022,0.519803817217413,12.942901457671029,2.986084608075329,0.21287072838422216,0.3795609587127725
12,12,49.9061182308,4989.5,1521547386.0,732060432.0,,3193120.5,1521547385.0,752236517.5,,0.6867349689594999,-0.154483737305,0.02188906702735,-0.13988173299200002,0.990111524249,-4.715398224950001e-05,0.010519250970255,-0.235082326792,-0.057908845568,0.011260636519709998,-0.08380243483184999,0.43098310922,-0.013861108644065,4.560390472415,0.0854292064903,15.213381767249999,1.199618697165,2.432146668435,0.9339930713175,3193473.5,1521547385.0,750338774.0,,,,,,2696980.5,1521547386.0,724908539.5,,0.300999903679,2.3309999659650003,8.566998672485,-0.14199999719849998,-0.30500000715250003,-0.106499999762,297.0,350.5,361.5,406.0,494.0,327.0,496.0,544.0,851.0,929.0,5.0,0.829999804497,2.520000047981,0.8149948120150006,-0.1059999987482,0.1990000009535,0.015500001609000016,8.883559423885414,0.352889860320051,15.882425639879752,2.8682338629610418,0.24237148491476504,0.43927374022302706
13,13,50.0086823333,4997.5,1521547386.0,812065004.5,,3193128.5,1521547385.0,832251146.0,,0.67454374593,-0.158892623929,0.02308815205485,-0.142005023016,0.989861447008,-0.0025816380499,0.0014546694800199999,-0.13566853419199998,-0.08113549506189999,0.016615662968999998,-0.10006229481675,0.1570820378105,0.023116596209245,9.85833024977,1.6922898292500002,14.1261076927,0.8138799965379999,3.5179121494250003,0.7951083183284999,2228267.5,1521547385.0,823673058.5,,,,,,2696988.5,1521547386.0,804118797.5,,1.571000003815,2.8409999638800003,9.27200050354,-0.171999998391,0.04199999943375,-0.06049999967219999,261.0,348.5,372.5,393.0,446.5,508.0,566.5,674.0,914.5,982.0,5.0,1.2700001001360002,0.5099999979150001,0.7050018310550001,-0.03000000119250001,0.34700000658624996,0.04600000008980001,9.823915469119168,0.1871049153797815,17.30888323160889,3.6973373903002003,0.15894967752293448,0.1876742029875039
14,14,50.1112464359,5010.5,1521547386.0,942060112.5,,3193141.5,1521547385.0,962242929.0,,0.6691573142539999,-0.16507066808100002,0.0273598872356,-0.1424252553725,0.9897798838605,-0.006862691440234999,-0.001906175887185,0.028658293730950003,-0.006657612311165,0.035570894385700005,-0.010544261437051502,-0.09903931636769997,0.01521522609625,8.507018089295004,2.890446066855,11.140751838699998,0.7810948491095,2.799384117125,0.7555905580519999,3193494.0,1521547385.0,955336742.0,,,,,,2697001.5,1521547386.0,934146442.5,,2.315999889375,0.590999948978,9.96200294496,-0.04550000093875,0.017499999958095,-0.07000000029799999,144.0,177.0,249.5,402.0,457.0,446.0,497.0,499.0,617.0,761.0,5.0,0.7449998855600001,-2.2500000149020005,0.6900024414200008,0.12649999745225,-0.024499999475655,-0.009500000625800005,10.244737141706894,0.08530240398534836,14.312246042060881,3.0029281859435866,0.04616178212172715,0.1007545072986527
15,15,50.213810538500006,5018.5,1521547387.0,22058486.5,,3193149.5,1521547386.0,42243274.5,,0.6742752762365,-0.166380690991,0.031758467221049996,-0.1431538645205,0.9896539404435,-0.008247689156040001,0.004885448763115,0.0594315085136,-0.00840678652415,0.0683375417638,-0.005521585330784999,-0.174287941965,0.02159483750085,0.141232490539445,0.1626567840575,18.38102245335,1.24897414446,0.268974788487,0.6651495695115,2228283.0,1521547386.0,42649245.0,,,,,,2697009.5,1521547387.0,15479604.0,,1.2610000610345,1.20099996328,8.401997756955003,-0.0005000000237499999,-0.1114999987185,-0.08599999919535001,75.0,91.0,154.5,250.5,367.0,286.0,303.0,341.0,456.0,524.0,5.0,-1.0549998283405,0.6100000143019999,-1.5600051880049968,0.045000000915,-0.128999998676595,-0.015999998897350015,8.580564571961713,0.14081370521312708,18.382284685977986,1.4403846014841137,0.09095492223175086,0.1757074603585416
16,16,50.316374641,5030.5,1521547387.0,142058014.0,,3193161.5,1521547386.0,162362124.0,,0.6861324413009999,-0.16340142545699998,0.0469299839619,-0.14239624703950002,0.9895874418765,-0.006381230941699999,0.0199439545682,0.1519492774645,0.0374176543849,0.16980207643849998,0.04339536386315,-0.37378508399099997,0.03773370854745,5.53906965256,3.193361878395,4.573595285414999,-0.2762195616961,2.382340192795,0.6880143284795,3193514.0,1521547386.0,155422653.0,,,,,,2697021.5,1521547387.0,135408865.5,,0.8409999847409999,1.56599997282,-0.772999572754,-0.09650000184785,-0.07200000062585,-0.1004999987783,19.0,24.0,37.0,51.0,64.0,58.0,65.0,93.0,129.0,175.5,5.0,-0.4200000762935001,0.3650000095400001,-9.174997329709004,-0.0960000018241,0.039499998092650014,-0.01449999958294999,1.9383408443007306,0.15683271406564306,7.861083038428478,2.495036223517246,0.23091428917344553,0.3781828650001451
17,17,50.418938743599995,5041.5,1521547387.0,252075910.0,,3193171.0,1521547386.0,257365601.0,,0.7015391968529999,-0.160734657291,0.0642676734199,-0.145632480771,0.9885763623299999,-0.008730569100040001,0.0378382551079,0.183028929138,0.053407187354800004,0.191521170026,0.018472288364099997,-0.42401844925,0.106802017556,2.4030783176400003,-0.341662168503,4.9588422775300005,1.43139338493,1.4490139484399998,0.889869093895,3193524.0,1521547386.0,255473109.0,,,,,,2697032.5,1521547387.0,245108743.0,,0.18600001335100005,0.7110000133525001,-2.333000946045,-0.1059999987485,-0.06650000065565,-0.09650000184765,7.5,8.5,13.5,14.5,26.5,10.0,18.5,25.0,30.0,35.0,5.0,-0.6549999713899999,-0.8549999594675,-1.560001373291,-0.009499996900649982,0.005499999970200009,0.003999996930650007,2.4460193045437504,0.15802056884621032,5.521017584786032,2.222700035871811,0.2702448429307796,0.43765230685535456
18,18,50.5215028462,5051.5,1521547387.0,352057099.0,,3193180.5,1521547386.0,352366176.0,,0.7139495399629999,-0.1544012256845,0.07985076435675001,-0.145123450262,0.987964219666,-0.0067251089136850005,0.0531060400327,0.07854291153135001,0.08224673809284999,0.1555175954025,0.132988500012,-0.1823178692925,-0.06829655678775,1.334585070612,1.144758373497,4.660064458845,0.568994790316,1.186475396155,0.7523110806940001,2228305.0,1521547386.0,351228456.0,,,,,,2697042.5,1521547387.0,344618816.0,,-1.894000029565,1.1509999513635,-2.0530002594,-0.09699999913575,-0.08650000020880001,-0.1169999986885,-1.0,2.0,23.0,26.0,98.0,16.5,19.0,21.0,35.0,51.5,5.0,-2.0800000429159997,0.439999938011,0.2800006866449998,0.008999999612749998,-0.019999999553150016,-0.02049999684085001,3.0210672063241937,0.17487209486240768,4.980741893029821,1.515734442184015,0.19266353406524814,0.2357756693720987
19,19,50.6240669487,5059.5,1521547387.0,432061552.5,,3193188.5,1521547386.0,432373711.5,,0.7191175670050001,-0.1488430465485,0.08896532257410003,-0.1443452449265,0.9877126743265,-0.003958638619225,0.0597688545936,0.034181892173750006,0.042759481141800004,0.0901945161204,0.02874355064745,-0.08077584582474999,0.026924700590049998,1.1496737003335,1.0271254181865002,3.9959897995,0.3587308377025,1.033230513336,0.624889731407,2228309.5,1521547386.0,429707390.0,,,,,,2697050.5,1521547387.0,425870533.0,,-1.724000012875,2.005999977885,-2.8830001831050005,-0.07899999991060001,-0.07200000062585,-0.1219999976455,2.0,11.5,18.0,20.0,27.5,24.0,28.0,36.0,43.5,55.0,5.0,0.17000001668999998,0.8550000265215001,-0.8299999237050004,0.017999999225149985,0.014499999582950009,-0.0049999989569999995,3.9125314070881387,0.16220049168081832,4.283067909761806,1.2596587966688535,0.10550746759489073,0.08986583596890502
20,20,50.726631051300004,5071.5,1521547387.0,552102446.0,,3193201.0,1521547386.0,557364174.5,,0.720118433608,-0.143967111508,0.0944942195323,-0.14544412388550002,0.987554586644,-0.0032513157726200004,0.059758774842649985,-0.0011284862529397,0.03524488020785,0.023784865525800003,-0.026145361136450003,0.046880814758699985,0.016536722664680002,2.5187540054349995,-0.057724446058380015,4.279604434965,0.7311770319940001,1.36552637815,0.711574435234,3193553.5,1521547386.0,550456321.0,,,,,,2697062.5,1521547387.0,544060663.5,,-0.9940000534045,2.6659999668600003,-2.503001022335,-0.08200000040225,-0.0614999998361,-0.1239999979735,-12.5,-11.0,-7.5,4.0,11.0,68.0,71.5,76.0,81.5,87.0,5.0,0.7299999594704999,0.6599999889750001,0.3799991607700006,-0.0030000004916499877,0.010500000789750009,-0.002000000328000004,3.789539028335205,0.1608796119563859,4.9661320936257525,1.7045880201437524,0.04253463165667666,0.05616808611554674
21,21,50.8291951538,5083.5,1521547387.0,672206997.5,,3193214.5,1521547386.0,692361886.0,,0.7194584668170001,-0.140102779803,0.0966053196808,-0.1483041162625,0.9871313451525,-0.003198101619815,0.05972617640915,-0.02327175548215,0.0088928247282,0.0278238836662,-0.03071249161565,0.05057489690455,0.024239130888129998,0.7028866708279999,-0.377801775932,5.358116388319999,1.035344243051,0.3310716748235,0.7228221297265001,3193567.5,1521547386.0,690442804.5,,,,,,2697074.5,1521547387.0,664641992.0,,0.2610000610351,1.040999937055,-1.3779991149950002,-0.10999999567865,-0.12750000134099998,-0.14200000464950002,3.0,15.0,21.5,29.0,59.0,148.0,152.5,157.0,165.0,182.0,5.0,1.2550001144396001,-1.6250000298050002,1.1250019073399995,-0.027999995276399986,-0.06600000150489999,-0.01800000667600002,1.7466205832223103,0.22027312752970127,5.417212852077015,1.3053803992368045,0.03734736184977053,0.06394226148924614
22,22,50.93175925640001,5092.5,1521547387.0,762084960.5,,3193223.0,1521547386.0,777364152.0,,0.7201143259180001,-0.139588694523,0.09850687460110001,-0.148648321551,0.98698212926,-0.0034152413084299997,0.06130488682260001,0.018307144433099998,0.0017944234413800001,0.0267472940209,-0.014705792205799999,-0.030305604404099996,0.013071655792100002,1.78007876873,-0.0814542472363,4.67978858948,1.0823485851299999,0.869128108025,0.8392843604090001,3193575.0,1521547386.0,765466088.0,,,,,,2697083.5,1521547387.0,754665163.0,,1.3060001373299999,0.656000006199,-2.262999343875,-0.0969999991359,-0.097000002861,-0.101000003517,29.5,31.0,39.0,39.0,52.5,164.0,165.5,171.5,187.0,229.0,5.0,1.0450000762949,-0.384999930856,-0.8850002288799996,0.012999996542749996,0.03049999847999998,0.04100000113250002,2.693907644522682,0.17034964366805297,5.007567918611125,1.6221160148149616,0.03246211992803044,0.03613250846322622
23,23,51.034323359,5102.5,1521547387.0,862274050.5,,3193232.5,1521547386.0,872370758.0,,0.7219892383145,-0.1383706336685,0.1001248194105,-0.14904096894649999,0.98676635511,-0.00300344111231,0.06379202791275,0.014692854142615,-0.0194538072666,0.032553314104100006,-0.0168487908526,-0.0230652166684,-0.03062079246625,-0.5010283142324999,-0.49278216064,5.161365747455001,0.8792212605459999,0.2609359920025,0.7043284475805001,3193585.0,1521547386.0,865459586.0,,,,,,2697093.5,1521547387.0,854690047.0,,-0.2340000629425,1.890999960895,-3.4129989624,-0.051000000909000004,-0.0920000001789,-0.11150000244349999,13.0,18.5,23.0,40.0,52.5,140.5,141.5,168.5,177.0,187.0,5.0,-1.5400002002725002,1.2349999546960002,-1.1499996185250003,0.045999998226899985,0.005000002682100005,-0.010499998926499998,3.908861573259593,0.15328812958130875,5.2089883862905095,1.1563719898845626,0.040669999252303586,0.04187503915718823
24,24,51.136887461499995,5113.5,1521547387.0,972510456.5,,3193244.0,1521547386.0,987358409.0,,0.72162029197,-0.140762052972,0.10072806448100001,-0.14822116266899998,0.986908031795,-0.00422304496757,0.0634443820011,-0.0043151698392700005,-0.0153581777551,-0.013110896039100001,0.0103756488955,0.0038922489378600002,-0.006020223481569999,4.2934689521800005,0.547753632069,4.50968122482,0.7825096845630001,1.91155958176,0.761863172054,3193597.5,1521547386.0,990457554.0,,,,,,2697104.5,1521547387.0,964941444.5,,0.24600007534020005,0.4459999680515,-1.0180004119875,-0.08000000193715,-0.07599999755625,-0.0954999998212,15.0,17.5,30.5,33.0,63.0,123.5,130.0,133.5,138.0,168.0,5.0,0.4800001382827001,-1.4449999928435,2.3949985504125,-0.029000001028150004,0.016000002622649986,0.016000002622300002,1.1383131587467672,0.14593234701169994,6.250690716574643,2.201548758030477,0.020649210872260522,0.01261137512585402
25,25,51.2394515641,5124.5,1521547388.0,82320570.5,,3193255.5,1521547387.0,102361765.5,,0.7218549232170001,-0.14046953600950002,0.09998237081164997,-0.14861092662949998,0.986843335751,-0.003926639637920001,0.06355671418544999,-0.00019606276891,-0.010300335444105,0.002247937817745,-0.014945350145389997,0.00018753070487500042,-0.0020764275794000007,2.6695746183400004,0.8668207824230001,5.63554596901,0.4625449478625,1.5739089846599998,0.6701607108115001,2228357.0,1521547387.0,103206903.0,,,,,,2697115.5,1521547388.0,76218886.0,,0.2810000419615,2.40099996626,-0.6880004882815001,-0.07799999788405,-0.1299999989565,-0.125499997288,7.5,10.0,11.0,42.0,65.0,117.5,119.5,121.5,128.0,165.0,5.0,0.034999966621299984,1.9549999982085,0.3299999237060001,0.0020000040530999963,-0.054000001400249985,-0.02999999746680002,2.5133854725128155,0.1968101844872104,6.295822843802901,1.7720758164090975,0.010544599342928425,0.015090069921179049
26,26,51.3420156667,5133.5,1521547388.0,172469496.5,,3193262.0,1521547387.0,167364419.0,,0.721079977429,-0.14055917348400002,0.0999191561503,-0.148412753009,0.9869234701970001,-0.00425779012293,0.0627502186656,0.0008127489005439999,0.00442945417432,0.010894127080899998,0.006549264243569999,-0.011084941268,0.009436469607339999,3.9653990268699997,1.07574951649,5.21917963028,0.45501431822800004,1.82513666153,0.653542995453,3193615.0,1521547387.0,165436573.0,,,,,,2697124.5,1521547388.0,165764519.0,,-0.6640000104905001,1.455999958515,-2.44299964905,-0.07750000059605,-0.07899999991060001,-0.1150000020865,-2.0,4.5,25.5,36.0,43.5,113.5,119.5,128.5,144.0,166.0,5.0,-0.945000052452,-0.9450000077449996,-1.7549991607684998,0.0004999972880000009,0.05099999904589998,0.01049999520150001,2.9204587273894984,0.15960028370324897,6.642398849637057,1.9913011600355799,0.01178824117129163,0.01596294909148574
27,27,51.444579769200004,5145.5,1521547388.0,292069077.0,,3193273.0,1521547387.0,277359707.0,,0.722100109907,-0.140112444162,0.10077013330399999,-0.148601373622,0.986810855204,-0.0039644725030399995,0.0640800340808,0.0196379849487,-0.002785855847,0.000228576899779,-0.0070328470108100005,-0.0401335504897,0.0106020991918,2.5051009655,0.40321382880199996,5.0959687232999995,0.682629406452,1.4481446743000002,0.714135766029,2228370.0,1521547387.0,275718645.5,,,,,,2697136.5,1521547388.0,284240704.5,,-1.719000017645,0.1159999847412,-3.39300041199,-0.0760000012815,-0.0650000013411,-0.09499999880789999,-2.5,-2.5,13.5,27.0,39.0,108.5,112.0,122.0,125.0,147.0,5.0,-1.0550000071544998,-1.3399999737738,-0.9500007629400002,0.001499999314549999,0.013999998569500016,0.02000000327860001,3.8053736811104084,0.1379347677078988,5.692715474001667,1.753024756407704,0.019835919263919796,0.042101868358298836
28,28,51.5471438718,5153.5,1521547388.0,372142076.0,,3193282.0,1521547387.0,367358314.0,,0.722139706763,-0.14058745984,0.100868913441,-0.147867744406,0.986933317126,-0.00358836203559,0.0639130766699,-0.018178491958400003,-0.00554037697099,-0.010628481652799998,-0.014713092739299997,0.0491878115864,0.0196080169863,2.7824549675,0.580418169498,5.06079673767,0.604855298996,1.4930355548899998,0.700461864471,2228375.5,1521547387.0,361244860.5,,,,,,2697144.5,1521547388.0,365704645.5,,-0.4440001010895001,1.2559999406350002,-2.6479995727550003,-0.0815000012517,-0.07750000059605,-0.107500001788,-16.0,-10.5,-0.5,28.5,113.0,99.5,100.5,111.0,117.5,129.0,5.0,1.2749999165555,1.1399999558938,0.7450008392349998,-0.005499999970199995,-0.012499999254950005,-0.012500002980099996,2.964215524882304,0.15557876037825616,5.8043608190446045,1.756602380866945,0.021774250138780808,0.05495807708380505
29,29,51.649707974399995,5165.5,1521547388.0,492167472.5,,3193294.5,1521547387.0,492359520.0,,0.7215297061399999,-0.14081373833650002,0.0998692350624,-0.148232255429,0.9869211688235,-0.00388698307634,0.0632316353568,0.004384649453045,0.006928618965385,-0.004266373157605001,0.0046817280513800005,-0.011550875739620005,0.003411129811855,3.3908423185350003,0.7590917646885,5.267483949664999,0.5464187860490001,1.7172766923949998,0.6979847848415001,3193647.0,1521547387.0,485423723.5,,,,,,2697156.5,1521547388.0,487106577.0,,-0.26400003433249997,1.255999970435,-1.7079990386950001,-0.0595000013709,-0.122999999672,-0.09999999776495,-18.5,-16.5,-10.5,42.5,84.0,96.0,103.0,105.0,111.5,127.0,5.0,0.1800000667570001,2.9799999801127797e-08,0.9400005340600004,0.021999999880799998,-0.04549999907595,0.007500004023049997,2.1364673318455694,0.16931996230639523,6.310342232903387,1.9325618975496255,0.009242989316964129,0.01292196248611434
30,30,51.7522720769,5173.5,1521547388.0,572093963.5,,3193301.0,1521547387.0,557372136.0,,0.721294765572,-0.140043017413,0.09997470607619999,-0.147989747104,0.986972873194,-0.00337112845591,0.0630255331172,-0.0116672311148,-0.0038952255225900003,-0.00256713003546,-0.0231031915238,0.022889355717199997,0.027642968448200002,2.8091297149699996,0.6756674051279999,5.01879835129,0.46583914756800004,1.48129153252,0.647529006004,3193655.0,1521547387.0,565435748.5,,,,,,2697164.5,1521547388.0,566978054.5,,-1.394000029565,1.6359999656650002,-3.0229995727550003,-0.07750000059605,-0.06100000068545,-0.09750000014895,-15.0,-9.0,3.0,15.0,65.0,101.5,108.5,111.5,115.5,127.0,5.0,-1.1299999952325,0.37999999523000016,-1.3150005340600004,-0.017999999225150002,0.06199999898655,0.0024999976160000052,3.709212637064639,0.13868489537457893,5.791033853189865,1.6824162770666657,0.012565318156614843,0.042682710414898455
31,31,51.8548361795,5183.5,1521547388.0,672111034.0,,3193314.5,1521547387.0,692359644.0,,0.7216471453615001,-0.14072683994100002,0.100299515957,-0.148472160144,0.986878363616,-0.00413246770283,0.06332412129790001,0.0022108535753200013,0.01221310230411,0.0012868764229494998,0.0185592949196,-0.0069805235028749975,0.008538765542700003,3.135756254195,0.63899949193,5.013874053955,0.6181482970715,1.587662041185,0.6940122544765001,3193667.5,1521547387.0,690414024.0,,,,,,2697174.5,1521547388.0,666548993.0,,-0.05400011539460002,2.22599996552,-2.9129989624,-0.08350000157955001,-0.06350000016395001,-0.13000000268200002,-20.5,-20.0,-12.0,0.0,56.0,96.0,99.5,102.0,121.0,124.0,0.0,1.3399999141704,0.5899999998550001,0.1100006103550002,-0.006000000983500009,-0.0024999994785000128,-0.03250000253305002,3.6665453514038453,0.1670464036785184,5.948127492356986,1.8396823322399087,0.012478132566618512,0.021589016959557967
32,32,51.957400282100004,5194.5,1521547388.0,782070040.5,,3193324.0,1521547387.0,787358755.0,,0.7217868515070001,-0.140187515134,0.100531848356,-0.148214991641,0.986900338528,-0.0036594531513400004,0.0636132570257,0.006047334701789999,0.0106714943749,0.0139862455699,0.018762690747,-0.013435763596399999,0.00797326591669,3.0066850185400003,0.531032860279,5.25000572205,0.589984238148,1.5939637422600001,0.690623104572,2228404.5,1521547387.0,791713009.5,,,,,,2697185.5,1521547388.0,776258564.5,,-0.8340000867845,2.00099996589,-2.72799949646,-0.07800000160935,-0.0794999971986,-0.1105000004175,-12.5,-10.0,-0.5,9.5,25.0,94.0,98.0,100.0,101.5,131.0,-1.0,-0.7799999713899,-0.22499999963000009,0.18499946594000027,0.005499999970200009,-0.01599999703464999,0.01950000226450001,3.484471015941207,0.15689008859039985,6.073278421163212,1.8346013423823848,0.01860285231706534,0.024415799738369357
33,33,52.0599643846,5206.5,1521547388.0,902081965.5,,3193336.0,1521547387.0,907366998.0,,0.721250868003,-0.139862768592,0.10025518085599999,-0.148247661747,0.986922364104,-0.00352703644209,0.06320156669369999,0.0116522007203,0.00572647217187,0.007584020757350002,0.010246061981,-0.0229424991942,0.00436313402324,3.33906984329,0.613745808601,5.0627951622000005,0.58651047945,1.68831968307,0.687782645226,1263137.5,1521547387.0,912000000.0,,,,,,2697197.5,1521547388.0,896110809.0,,-0.919000005724,0.9859999895104998,-2.592999267575,-0.07950000092385001,-0.0669999998063,-0.09549999982114998,-19.0,-17.5,-5.0,-1.5,90.0,99.0,99.5,109.0,113.0,137.0,-1.0,-0.0849999189395001,-1.0149999763795003,0.13500022888500007,-0.0014999993145000112,0.012499997392299995,0.015000000596350009,2.9223966519758924,0.14117188136019154,6.095733441542513,1.9150621039069016,0.015036077813355352,0.02550248995488707
34,34,52.1625284872,5215.5,1521547388.0,992176532.0,,3193346.0,1521547388.0,7359780.0,,0.721585713916,-0.140811489456,0.100281498883,-0.148442157304,0.986876633316,-0.00418531827381,0.06341860658319999,0.004733500777539999,0.015121368525499999,0.0070559679821799995,0.00220023119573,-0.0121464508892,0.013789358500700002,3.16659760475,0.632823169231,4.95205688477,0.513953208923,1.59442639351,0.6392011642459999,2228420.0,1521547388.0,7707639.0,,,,,,2697206.5,1521547388.0,987499288.0,,0.7309999704360001,1.66099997163,-0.868000793457,-0.07100000046195,-0.1215000003575,-0.12150000035800004,-20.0,-17.0,-12.0,8.0,101.0,101.0,104.5,107.0,117.5,128.5,-1.0,1.6499999761600002,0.6749999821195001,1.7249984741179998,0.008500000461900012,-0.0545000005512,-0.026000000536850032,2.011642920593582,0.18591799331819234,5.911909416078867,1.7930202323613071,0.01734498486192776,0.018507395667117465
35,35,52.265092589700004,5227.5,1521547389.0,112142562.5,,3193358.5,1521547388.0,132539792.0,,0.7214599036745,-0.140476038598,0.1003825232,-0.1483982581145,0.986885115382,-0.003828929499415,0.06341137007299999,-0.00010681144623000006,0.002930182255895,-0.002059808813657,0.011251733738505002,-0.0006131833388500018,-0.0213454609411,3.357087254525,0.543905213475,4.9375646114350005,0.5436090230945,1.62974923849,0.641183316708,2228429.0,1521547388.0,126298865.5,,,,,,2697218.5,1521547389.0,105407949.0,,-0.8240000963195001,0.45599995851499997,-2.722998428345,-0.07550000026824999,-0.06799999997020001,-0.11749999970200001,-18.5,-17.0,-15.0,-9.0,88.5,95.0,95.0,96.0,100.0,126.0,-1.0,-1.5550000667555002,-1.2050000131149998,-1.854997634888,-0.00449999980629999,0.05350000038729999,0.004000000656000036,2.8812553794604128,0.15533994967947862,5.995449274894647,1.8337691773975162,0.0035833209578025123,0.02413723697354941
36,36,52.367656692299995,5236.5,1521547389.0,202080964.5,,3193366.0,1521547388.0,207686057.0,,0.721258800124,-0.140497029637,0.10010666284,-0.148492619656,0.9868939258,-0.00391669402475,0.0630474474892,0.00197029804673,-0.00559179666421,0.0011885520054100002,-0.0163864728318,-0.00333776438098,-0.00130836953905,3.1584227085100003,0.408465981483,4.992351055149999,0.56726449728,1.59643208981,0.656654059887,2228434.0,1521547388.0,207868207.5,,,,,,2697227.5,1521547389.0,196500995.0,,0.680999898911,1.3659999847400002,-3.10299949646,-0.06949999928475,-0.07200000062584999,-0.11449999734750001,-14.5,-5.0,4.5,17.5,31.0,99.0,102.0,105.5,107.0,124.0,-1.0,1.5049999952305002,0.910000026225,-0.3800010681149999,0.006000000983499995,-0.004000000655649982,0.0030000023545000004,3.4580807821185275,0.15206741723091163,5.921659186538671,1.817024760870235,0.006046728057088583,0.016774057165187324
37,37,52.4702207949,5244.5,1521547389.0,282069563.5,,3193374.0,1521547388.0,287683174.0,,0.7216100942354999,-0.14098336258099994,0.10022387627999998,-0.147769674154,0.9869802033765,-0.0040134963853,0.06338690738239999,0.0014102037184900006,-0.00136758810325,0.0006540261937099997,-0.0030250419819934,-0.0027495608943000037,-0.0020244809610000004,3.35713970661,0.6913101971150001,4.77614736557,0.451322183013,1.6035326719299998,0.6090306043625,3193726.0,1521547388.0,275748236.0,,,,,,2697235.5,1521547389.0,275743720.5,,-0.09899995327,1.61599995494,-3.14300041199,-0.07750000059605,-0.0670000016689,-0.1314999982715,-18.5,-17.0,-13.5,-10.5,24.0,96.0,99.0,115.5,127.0,132.5,-1.0,-0.779999852181,0.2499999701999997,-0.040000915530000285,-0.008000001311300006,0.004999998956949997,-0.017000000924000003,3.5354926721579916,0.16669583036604382,5.878765215244942,1.7736761316195062,0.0020704400522238617,0.00456174169213228
38,38,52.5727848974,5254.5,1521547389.0,382073998.0,,3193383.0,1521547388.0,377673420.0,,0.721416706709,-0.140529980055,0.1002084645535,-0.148334444389,0.986905263104,-0.003897571799575,0.0632419123017,-0.003215842084302,0.003847900464915,-0.00521990474833,0.005589136243145,0.011205619249770002,-0.001239124660850001,3.2033457756,0.49876055121449997,4.97194504738,0.5692839324475,1.60298502445,0.6395492255685,3193736.0,1521547388.0,375760253.0,,,,,,2697245.5,1521547389.0,377303913.5,,-1.524000024795,0.34599994421025,-3.172999191285,-0.07899999991060001,-0.0625,-0.1160000003875,-12.5,-8.5,0.0,20.0,49.5,103.0,104.5,106.5,126.0,143.5,-1.0,-1.425000071525,-1.27000001072975,-0.02999877929499961,-0.0014999993145500131,0.0045000016688999936,0.015499997884,3.536978357986365,0.1536334926888496,5.9355222010930655,1.8173245159517122,0.007238465575016502,0.012583313420573282
39,39,52.675349,5267.5,1521547389.0,512068032.5,,3193396.0,1521547388.0,507673325.0,,0.721328460845,-0.139977248425,0.10031851437200001,-0.148873780669,0.986821849012,-0.0036235779213399997,0.0632938024218,4.40758111334e-05,0.00669509335062,-0.0039200577918,0.0053175214300499995,-0.00538934537188,0.0070660207718,3.10824656487,0.636303067207,4.59377479553,0.362372756004,1.4924452304799998,0.564269900322,2228455.5,1521547388.0,515400334.5,,,,,,2697258.5,1521547389.0,507287234.0,,-0.5739999771120001,-0.21400005817435,-3.3979995727550003,-0.07200000062584999,-0.059000000357599995,-0.09699999913564998,-11.0,-3.5,7.0,16.5,36.0,99.5,104.5,106.0,110.0,139.0,-1.0,0.9500000476829996,-0.5600000023846,-0.22500038147000054,0.006999999284750022,0.003499999642399998,0.019000001251849998,3.4527775913120102,0.13443957737450418,5.582906516628223,1.6361868171715093,0.007758419345568729,0.010356144419809645
