,Unnamed: 0,.header.seq,.header.stamp.secs,.header.stamp.nsecs,.header.frame_id,.endpoint_state.header.seq,.endpoint_state.header.stamp.secs,.endpoint_state.header.stamp.nsecs,.endpoint_state.header.frame_id,.endpoint_state.pose.position.x,.endpoint_state.pose.position.y,.endpoint_state.pose.position.z,.endpoint_state.pose.orientation.x,.endpoint_state.pose.orientation.y,.endpoint_state.pose.orientation.z,.endpoint_state.pose.orientation.w,.endpoint_state.twist.linear.x,.endpoint_state.twist.linear.y,.endpoint_state.twist.linear.z,.endpoint_state.twist.angular.x,.endpoint_state.twist.angular.y,.endpoint_state.twist.angular.z,.endpoint_state.wrench.force.x,.endpoint_state.wrench.force.y,.endpoint_state.wrench.force.z,.endpoint_state.wrench.torque.x,.endpoint_state.wrench.torque.y,.endpoint_state.wrench.torque.z,.joint_state.header.seq,.joint_state.header.stamp.secs,.joint_state.header.stamp.nsecs,.joint_state.header.frame_id,.joint_state.name,.joint_state.position,.joint_state.velocity,.joint_state.effort,.wrench_stamped.header.seq,.wrench_stamped.header.stamp.secs,.wrench_stamped.header.stamp.nsecs,.wrench_stamped.header.frame_id,.wrench_stamped.wrench.force.x,.wrench_stamped.wrench.force.y,.wrench_stamped.wrench.force.z,.wrench_stamped.wrench.torque.x,.wrench_stamped.wrench.torque.y,.wrench_stamped.wrench.torque.z,.tactile_values.tactile_values_0,.tactile_values.tactile_values_1,.tactile_values.tactile_values_2,.tactile_values.tactile_values_3,.tactile_values.tactile_values_4,.tactile_values.tactile_values_5,.tactile_values.tactile_values_6,.tactile_values.tactile_values_7,.tactile_values.tactile_values_8,.tactile_values.tactile_values_9,.tag,.delta_wrench.force.x,.delta_wrench.force.y,.delta_wrench.force.z,.delta_wrench.torque.x,.delta_wrench.torque.y,.delta_wrench.torque.z
0,56.242782,5621.5,1521544729.0,450138449.5,,2927400.5,1521544728.0,551869093.0,,0.7184793691185001,-0.11889381646500001,0.0124193342139,0.7454600395800001,0.666102053982,-0.02421521218075,0.003305142877695,-0.006291715411188501,-0.011477890297429998,-0.006201649043685001,-0.003351277486225,0.01887001930268,-0.012579459863815,3.12287950516,0.759750932455,2.135093688965,0.444157585502,-0.08979581668975,0.252643153071,2927753.5,1521544728.0,549950396.5,,,,,,2431530.5,1521544729.0,446249529.0,,1.965000021455,-7.2020000703600004,-4.60699996948,0.6764999926090001,-0.142499998212,-0.2134999930855,260.0,335.5,781.5,869.0,959.0,234.0,280.5,318.0,330.0,434.0,5.0,0.0,0.0,0.0,0.0,0.0,0.0
1,56.345346102600004,5635.5,1521544729.0,588320970.0,,2927411.5,1521544728.0,662146139.0,,0.7183100013120001,-0.118635923619,0.012345212765,0.7452330822940001,0.6663557871895001,-0.02422620425095,0.0032526113255899997,-0.003028907202715,0.0019539381934245,0.002509041278435,0.004437820740279999,0.00233573572338,-0.0002556605619999999,3.1397097110750005,0.7859601974485,2.121230483055,0.415149778128,-0.10535856708895,0.239929422736,2042847.5,1521544728.0,665128801.0,,,,,,2431544.0,1521544729.0,581469545.0,,0.6050000071530001,-6.46699993685,-4.7069984436,0.665000021458,-0.130999997258,-0.19900000095400006,255.5,306.0,775.5,848.0,912.0,256.0,270.0,310.0,327.0,422.0,5.0,-1.360000014302,0.7350001335100007,-0.09999847411999951,-0.011499971151000099,0.011500000954,0.01449999213149994
2,56.4479102051,5642.5,1521544729.0,657948017.0,,2927419.0,1521544728.0,737147506.5,,0.7180654472939999,-0.119317242927,0.01206514086595,0.7454187358005001,0.6661232285995,-0.024884803030349997,0.00337699263781,0.005328647732365,0.010210212864084998,0.007256229127965002,0.0100673094883,-0.013501844649929998,0.004240778731699998,3.4624124765400004,0.8397769033904999,2.00724899769,0.39518669247649996,0.0021867509931000027,0.233976110816,2042852.0,1521544728.0,734114486.5,,,,,,2431551.5,1521544729.0,656783746.5,,0.8850000381445,-5.962000060825,-4.48699913025,0.666000008583,-0.1374999955295,-0.2050000056625,286.0,293.0,760.0,826.0,909.0,267.0,285.0,315.0,329.5,423.0,5.0,0.28000003099149995,0.5049998760249998,0.21999931334999978,0.0009999871250000458,-0.006499998271500024,-0.006000004708499956
3,56.55047430770001,5655.5,1521544729.0,787937998.5,,2927432.0,1521544728.0,867147298.0,,0.7177399344679999,-0.118829816368,0.011914638004,0.74537906293,0.666171651888,-0.0248437708455,0.00285828894432,5.9544379106000015e-05,-0.0029848130959699995,0.000641281055656,0.00613193073223,-0.000931913552311,-0.0256580384652,3.37445640564,0.643663585186,2.2094771862,0.510379910469,-0.0015167733654400002,0.256343901157,2042861.5,1521544728.0,866117064.5,,,,,,2431564.0,1521544729.0,781323096.0,,0.935000050068,-7.097000051289999,-4.7370010376,0.6840000152590001,-0.141000002623,-0.172000005841,271.5,290.5,757.5,844.0,924.0,260.5,263.0,320.0,326.0,448.0,5.0,0.05000001192350001,-1.1349999904649994,-0.2500019073499997,0.018000006676000102,-0.003500007093499985,0.03299999982150001
4,56.6530384103,5663.5,1521544729.0,867950558.0,,2927439.5,1521544728.0,942149579.5,,0.7182264882960001,-0.11832823897849999,0.012330567682299998,0.745310832892,0.6662685161015001,-0.0242371468288,0.0032409610126799995,-0.00707820013728,-0.00035342865970499964,-0.0012230224057649993,-0.005297819792562,0.01072370256162,-0.006542650018599,3.3471887111700003,0.7891905903815,2.264670968055,0.37713952362549996,-0.038626274094100015,0.2327085807915,2042867.0,1521544728.0,945122248.0,,,,,,2431572.0,1521544729.0,860881845.0,,0.4399999856964999,-6.046999860555002,-4.38699874878,0.669499993324,-0.127999998629,-0.2144999951125,275.5,309.0,765.0,846.0,898.0,235.0,254.0,317.0,327.0,446.0,5.0,-0.4950000643715001,1.0500001907349974,0.35000228881999984,-0.014500021935000107,0.013000003994000003,-0.042499989271500005
5,56.755602512799996,5676.5,1521544729.5,498946905.0,,2927453.0,1521544729.0,77145514.0,,0.7178907841940001,-0.118421445991,0.0122021449281,0.744624209952,0.667018854855,-0.0247021725753,0.00323046312928,0.008625402139610001,0.014684116625299996,0.006031918945460001,-0.005766627435699999,-0.0280539840807,0.0349011761297,3.5727956295,0.987955629826,2.18702173233,0.260188430548,0.0269871614873,0.223971813917,2042876.5,1521544729.0,77607472.0,,,,,,2431585.5,1521544729.5,496158992.0,,-0.6450000226500001,-7.242000032214999,-3.9519992828400006,0.6610000133514999,-0.1319999992845,-0.1855000033975,273.0,310.0,786.0,825.0,900.0,254.0,261.0,302.0,312.0,457.0,5.0,-1.0850000083465,-1.1950001716599967,0.4349994659399994,-0.008499979972500071,-0.004000000655500019,0.028999991715000006
6,56.8581666154,5685.5,1521544730.0,89219450.5,,2927464.5,1521544729.0,192147294.0,,0.7184012745449999,-0.119018581152,0.012348354219699998,0.745402843203,0.666161416268,-0.024310749478000004,0.0035138422993150004,0.003455243279295,-0.0191556040658,0.0007132621410809997,-0.009679305090945,-0.002605235380585,-0.04193262559635,3.236286997795,0.7014760076995,2.33635902405,0.424667328596,-0.08428534492850001,0.247342035174,1157951.0,1521544729.0,182000128.0,,,,,,2431594.0,1521544730.0,81260900.0,,0.8049999952319999,-7.502000022679999,-4.5370002746599996,0.6775000095365,-0.1344999969005,-0.210000000894,283.0,317.0,769.0,843.5,920.5,258.0,260.0,311.5,324.0,417.5,5.0,1.450000017882,-0.25999999046500033,-0.585000991819999,0.016499996185000088,-0.002499997615999977,-0.024499997496500003
7,56.9607307179,5694.5,1521544730.0,179235458.0,,2927473.5,1521544729.0,282149382.0,,0.7181256821315,-0.118776639004,0.01238200523835,0.7453428300765,0.666224241426,-0.0244675990365,0.00323257126498,-0.0012157618626800007,-0.00345506176923,0.00285098016339,-0.009480867463275002,0.0009865538426999994,0.021074606264150003,3.2400590181349997,0.760798662901,2.3426576852800003,0.3857838362455,-0.08509264886375001,0.241355791688,2042890.5,1521544729.0,279623878.5,,,,,,2431603.5,1521544730.0,178801531.5,,-0.024999988078999988,-6.367000032215,-4.501998519900001,0.6640000045295,-0.13650000095349998,-0.21400000155,276.0,291.5,754.0,851.0,886.0,258.0,276.0,298.0,320.0,415.0,5.0,-0.8299999833109999,1.1349999904649986,0.03500175475999878,-0.013500005006999993,-0.002000004052999993,-0.004000000656000008
8,57.063294820500005,5705.5,1521544730.0,287981509.5,,2927484.5,1521544729.0,392149178.0,,0.718510602924,-0.11882314785949999,0.012350303696700001,0.7453561496175,0.6662154576535,-0.024277949191900003,0.0034238006937550003,-0.005160831211343002,-0.014811708917749999,-0.005032736649145,-0.0149076602367,0.015060627979485002,-0.02039022554415,3.28460764885,0.6996277570725,2.266974806785,0.4016008079055,-0.07818383164704999,0.239609129727,1157959.0,1521544729.0,385999872.0,,,,,,2431614.0,1521544730.0,283234132.0,,0.28500001430509997,-6.68699996546,-4.211999511715001,0.6854999959470001,-0.13599999994,-0.1955000013115,309.0,316.0,788.0,862.0,885.0,245.0,270.0,301.0,315.0,435.0,5.0,0.31000000238409997,-0.31999993324499965,0.28999900818500013,0.02149999141750003,0.0005000010134999788,0.018500000238500014
9,57.165858923100004,5717.5,1521544730.0,408069490.5,,2927496.5,1521544729.0,512150872.0,,0.717855741435,-0.119463662925,0.011909602316950001,0.7453319822365,0.666213590695,-0.02506305257845,0.0033825696699899994,-0.0038379206999950006,-0.006757136659839001,-0.001683468736939999,-0.008511435365913448,0.008173718342605,-0.010991678060445,3.2622051239,0.8105041086675,2.29764127731,0.35478697717200003,-0.10024236887710002,0.2454861700535,2927849.5,1521544729.0,510239129.0,,,,,,2431626.0,1521544730.0,402678122.0,,-0.6750000089404999,-6.9769999273100005,-4.891999816895,0.6710000038145,-0.135000005364,-0.214999996126,277.0,288.0,787.0,852.0,865.0,245.0,256.0,309.0,324.5,433.0,5.0,-0.9600000232455999,-0.28999996185000043,-0.6800003051799992,-0.014499992132500084,0.0009999945760000017,-0.019499994814499988
10,57.26842302560001,5725.5,1521544730.0,487963437.5,,2927504.5,1521544729.0,592196814.5,,0.7180484388395001,-0.1187869237135,0.0122553873631,0.7451940141455,0.6663865144755,-0.024585488326449998,0.003223436142295,-0.0026692298357800003,0.0010593027029315,-0.0017359522598500016,-0.0013661884926239997,0.005647914371649999,0.003783792572704999,3.25883424282,0.14796726405600005,2.344309687615,0.5677596330645001,-0.09405655786419999,0.2402075901625,1157967.0,1521544729.0,587000064.0,,,,,,2431634.0,1521544730.0,482593612.0,,0.644999969006,-6.856999803330001,-4.34700164795,0.663999974728,-0.127000004053,-0.209000006318,263.5,316.0,777.0,834.0,868.0,257.0,270.0,308.5,322.0,429.0,5.0,1.3199999779465,0.1200001239799997,0.5449981689449999,-0.0070000290864999926,0.00800000131100001,0.005999989807999984
11,57.3709871282,5734.5,1521544730.0,579850435.0,,2927511.0,1521544729.0,657256413.0,,0.717935643633,-0.119590823808,0.0118955188405,0.745466557994,0.666064324878,-0.0250448943047,0.00326792072712,-0.019772501421,0.000841932356676,-0.008182120703810001,-0.00421846644265,0.0435249989241,0.0330707038576,3.74119997025,0.7625482678409999,3.35269594193,0.218899935484,0.16007015109099998,0.194810733199,1157970.0,1521544729.0,662000128.0,,,,,,2431643.0,1521544730.0,572153070.0,,0.585000026226,-5.856999803330001,-3.31699905396,0.629000008106,-0.126000002027,-0.216000005603,262.0,311.0,754.0,853.5,882.5,242.0,268.0,309.0,319.0,449.5,5.0,-0.05999994277999998,1.0,1.03000259399,-0.034999966622,0.0010000020259999798,-0.006999999285000003
12,57.4735512308,5748.5,1521544730.0,718136072.0,,2927524.0,1521544729.0,787256996.0,,0.7167732199429999,-0.118605437348,0.0132412997758,0.745181993633,0.666339686228,-0.0261331358161,0.0035040170076700004,0.00695615915988,0.0114293357947,0.0144575889084,-0.0255175122318,-0.0305464456264,-0.048682257221800015,3.57780861855,2.22815442085,9.10945224762,-0.6547191739079999,1.15594208241,0.0131151378155,2042927.0,1521544729.0,798175119.0,,,,,,2431657.0,1521544730.0,712433518.0,,2.15499995947,-2.327000010755,5.217998886109998,0.08900000154979999,-0.15749999880800006,-0.1335000023245,298.5,335.0,597.0,705.5,851.5,192.0,290.0,311.5,335.0,428.0,5.0,1.569999933244,3.529999792575001,8.53499794007,-0.5400000065562,-0.031499996781000045,0.08250000327850002
13,57.5761153333,5758.5,1521544730.0,819603442.5,,2927535.0,1521544729.0,897266421.0,,0.714554358928,-0.117448726873,0.0147384007426,0.7476064236579999,0.663484817008,-0.0294505878207,0.00227942576994,-0.042420099139800015,0.0052058123782,0.0103387473912,-0.0581851682643,0.117904726765,-0.047179499754599986,6.792314529419999,4.276403427119998,13.464357376099999,-1.83081316948,3.31937813759,-0.0379286073148,1157979.5,1521544729.0,903499904.0,,,,,,2431667.5,1521544730.0,818835550.5,,3.34000002146,0.5379999987785,8.533003234865001,-0.252500005066,-0.07499999925494999,-0.06599999964240001,307.5,321.0,419.0,533.5,729.0,175.5,287.0,337.0,373.0,432.5,5.0,1.1850000619899999,2.8650000095335,3.3150043487550027,-0.3415000066158,0.08249999955305007,0.06750000268209998
14,57.6786794359,5768.5,1521544730.0,918081045.0,,2927545.0,1521544729.0,997257127.0,,0.7113369600309999,-0.117411392657,0.0193489244459,0.748481883354,0.662193248195,-0.0356766943995,0.00146485893647,-0.0330590862809,0.0193960716433,0.0578357655565,-0.0563951845228,0.10980494334,0.017882164885200003,6.869209766390001,4.15433502197,14.1262121201,-1.4570697546,3.30757594109,0.0186856165528,2927897.0,1521544729.0,985332236.0,,,,,,2431677.0,1521544730.0,913385814.5,,3.084999907015,0.9879999868585,9.41300048828,-0.1915000006555,-0.143999993801,-0.10249999910610001,283.0,347.0,367.0,587.0,660.5,169.5,237.5,271.0,396.5,420.5,5.0,-0.25500011444500004,0.44999998807999997,0.8799972534149987,0.06100000441050002,-0.06899999454605002,-0.0364999994637
15,57.78124353850001,5777.5,1521544731.0,7971524.5,,2927553.0,1521544730.0,77262299.0,,0.708120947536,-0.1161376645805,0.024825415038650003,0.7486214401885001,0.6618017534689999,-0.039795835699199984,-0.0002206670010496,-0.0356574703937,0.02463252332765,0.08424890093065003,-0.022973692931730003,0.08832157773205,-0.058727341341849995,7.445281982425,4.21582198143,12.8675203323,-1.26646769047,3.089337825775,-0.011981530115,2042946.0,1521544730.0,80161803.5,,,,,,2431686.0,1521544731.0,1383755.0,,2.39500008821,-1.0469999946700002,7.722998046869999,-0.0680000036955,-0.248999997973,-0.130999997258,266.0,282.0,363.0,410.5,631.5,99.5,157.0,220.0,299.5,325.0,5.0,-0.6899998188049996,-2.0349999815285003,-1.6900024414100008,0.12349999696,-0.10500000417199998,-0.028499998151899977
16,57.883807641000004,5785.5,1521544731.0,87945461.0,,2927564.5,1521544730.0,192259763.5,,0.7089744259199999,-0.1140973979795,0.03618487050755,0.7489037029919999,0.661479088472,-0.03982855586044999,0.0014259658189149998,0.04705831550805,0.034458186059849995,0.1169194473145,0.00438273551234,-0.1343558487895,0.05324312274635,7.71601390839,2.8035160303099995,6.7440209388699985,-0.2127339188008,2.8774625062949997,0.1621692329645,2042953.5,1521544730.0,185675800.5,,,,,,2431694.0,1521544731.0,82764106.5,,2.205000030995,-0.7069999985394999,2.64300003052,-0.0654999986291,-0.2489999979735,-0.14150000363600002,273.0,289.0,304.0,327.5,473.0,19.5,34.0,79.5,95.0,185.0,5.0,-0.19000005721500024,0.33999999613050025,-5.0799980163499985,0.002500005066399996,-5.000166947155549e-13,-0.010500006378000026
17,57.986371743599996,5797.5,1521544731.0,207944035.0,,2927576.5,1521544730.0,312256703.0,,0.7275314137845,-0.106626622005,0.05664260443955001,0.74880831516,0.6624188932124999,-0.018178439188650003,0.01245221756225,0.197858913559,0.0839991778353,0.217941046416,0.126702406268,-0.490293255189,0.022162771811900003,3.2241232395200004,3.06152009964,5.38323974609,-0.7915496677160001,1.849682450295,0.15240690484640002,2927929.5,1521544730.0,310325846.5,,,,,,2431706.0,1521544731.0,203626616.5,,1.90499995947,-1.9520000107599997,-2.3369995117149998,-0.0780000016095,-0.0650000013411,-0.10199999809260002,126.5,129.5,130.0,143.5,148.5,-14.0,-9.0,-1.5,1.5,20.0,5.0,-0.30000007152499997,-1.2450000122204998,-4.979999542234999,-0.012500002980400007,0.18399999663240002,0.039500005543399996
18,58.0889358462,5809.5,1521544731.0,327947973.5,,2927588.5,1521544730.0,432257275.5,,0.7423611565195001,-0.09766546219575,0.07926917148685,0.7463776978034999,0.6651226189514999,-0.00200932599035,0.0229630900963,0.0990411001002,0.08741584371995,0.18177743951250003,0.06198514335855001,-0.2522259179935,0.0666231311909,2.8651285171499996,3.59636688232,2.7891590595249998,-0.920832276344,1.82193380594,0.0497176386416,2927941.0,1521544730.0,425354960.0,,,,,,2431718.0,1521544731.0,322623456.0,,2.1049998879400005,-0.656999994069,-2.55700073242,-0.0960000008345,-0.123000003397,-0.0909999981523,70.5,75.0,86.0,90.5,95.5,-23.0,-22.0,-21.0,-18.0,-1.5,5.0,0.19999992847000048,1.2950000166909996,-0.2200012207050004,-0.017999999224999993,-0.0580000020559,0.010999999940300015
19,58.1914999487,5818.5,1521544731.0,418020009.5,,2927597.5,1521544730.0,522258912.0,,0.7462605678630001,-0.09167836011215,0.09110597817645,0.746115972745,0.6653590975320001,0.004411497515965,0.024263095645849997,0.0148169433114,0.07514695602955,0.110508019537,0.0391115368585,-0.07515346539449999,0.0752671099235,4.946015357975,2.16285431385,0.5599488988508999,-0.6813369095324999,2.452647566795,0.0599826462567,2927950.5,1521544730.0,520353986.0,,,,,,2431727.0,1521544731.0,412852688.0,,2.04499994516,-0.397000003606,-1.55700073242,-0.0939999967813,-0.0680000036955,-0.0930000022054,70.5,79.0,82.0,91.5,104.0,-33.0,-32.0,-25.0,-20.0,-7.0,5.0,-0.05999994278000065,0.259999990463,1.0000000000000002,0.0020000040531999996,0.054999999701500005,-0.0020000040530999963
20,58.2940640513,5826.5,1521544731.0,500880479.0,,2927605.0,1521544730.0,597354584.0,,0.7461093663480001,-0.0884013927737,0.0953052139575,0.7448659148669999,0.6667532098210001,0.00511059233723,0.0242653643708,-6.27087045133e-05,0.0595346900952,0.0542096415819,0.0319885810207,-0.0362881540783,0.0730312846634,3.95533370972,2.87539815903,4.653332710269999,-0.6956650614740001,1.91668617725,0.106719955802,1158007.0,1521544730.0,599000064.0,,,,,,2431735.5,1521544731.0,499729435.5,,2.6349999785400002,0.08799998089650002,-1.8419986724900002,-0.13949999958249998,-0.07050000131129999,-0.10049999877825,96.5,105.5,110.5,114.5,124.0,-32.0,-29.0,-15.0,-6.0,-1.5,5.0,0.5900000333800004,0.48499998450250004,-0.28499794007000023,-0.04550000280119998,-0.002499997615799998,-0.007499996572849998
21,58.3966281538,5836.5,1521544731.0,598121523.0,,2927612.0,1521544730.0,667347916.0,,0.7461273610870001,-0.08745553743930001,0.0971648585367,0.744563968912,0.667083463478,0.00550551525668,0.0243687967367,0.00499821994602,0.0211795216118,0.0180420649896,0.00374360400192,-0.0229934488417,0.0365471547663,3.41759729385,1.5266274213799995,6.01554203033,-0.22750325501,1.64019227028,0.157936632633,2927965.0,1521544730.0,665400710.0,,,,,,2431745.0,1521544731.0,593794004.0,,2.295000064375,-1.4819999896,-0.6669994354245,-0.05800000019375,-0.13749999553000006,-0.0945000015197,126.0,132.0,135.0,148.0,156.0,-20.5,-19.0,-15.5,-12.0,-4.0,5.0,-0.3399999141650003,-1.5699999704965,1.1749992370655002,0.08149999938874998,-0.06699999421870007,0.005999997258549994
22,58.4991922564,5850.5,1521544731.0,738109946.0,,2927626.0,1521544730.0,807343786.5,,0.7525861673049999,-0.08557666473379999,0.100368172395,0.7439998028804999,0.667438746254,0.0132718494722,0.02851225666385,0.06774866717019999,0.01820063204275,0.0207548399055,0.0506718506304,-0.168868421679,0.011320340786215,4.08547997475,2.6322697401050004,4.5470025539400005,-0.5783853828909999,1.993877410885,0.0979069918396,2042998.5,1521544730.0,823215537.0,,,,,,2431758.5,1521544731.0,729521751.0,,1.70500003099,-0.6820000000295,-0.18199882507305,-0.1085000000895,-0.124499998987,-0.105000000447,150.5,152.0,155.0,156.5,161.0,-35.0,-32.0,-30.0,-11.0,-4.5,5.0,-0.590000033385,0.7999999895705,0.48500061035145003,-0.050499999895750006,0.012999996543000061,-0.010499998927299997
23,58.601756359,5859.5,1521544731.0,829565047.5,,2927635.0,1521544730.0,897351726.0,,0.75671339259,-0.0846078849024,0.102526760785,0.7440916099429999,0.667142252411,0.0180851397209,0.030361468698400007,0.0134368270633,0.0159126470761,-0.0005902226208940001,0.0153027350205,-0.0281010989755,0.0149796881749,1.18297600746,1.6979941129700002,3.94026207924,-0.30952745676,0.8596623539920001,0.13858263194599998,2043004.5,1521544730.0,908220681.0,,,,,,2431768.0,1521544731.0,823866864.0,,2.04499994516,0.0230000130832,-0.557000732422,-0.0860000029206,-0.108999997377,-0.11400000006,122.5,127.0,127.0,127.0,141.0,-30.0,-29.0,-28.0,-26.0,-9.0,5.0,0.33999991416999986,0.7050000131127,-0.37500190734895,0.0224999971689,0.015500001609999994,-0.008999999612999993
24,58.7043204615,5867.5,1521544731.0,908075451.5,,2927643.0,1521544730.0,977348172.5,,0.75718079768,-0.08354175738885,0.102994017635,0.7442624733965001,0.6669396697725001,0.01885300880915,0.03015518569625,-0.003555920033135,-0.0127452604909,0.007666662704635002,-0.0178752531729,0.01955525910935,-0.017026464027550002,3.6389319896699996,2.379637122155,4.3872807025950005,-0.5564414560795,1.83645957708,0.1354629695415,2043009.5,1521544730.5,489203857.0,,,,,,2431775.5,1521544731.0,900095166.5,,1.274999964235,-1.7519999928799999,-2.8319984436050003,-0.1004999987783,-0.035499999299650004,-0.06350000202655001,107.5,113.0,117.0,119.5,137.0,-25.0,-24.5,-23.5,-23.0,-22.5,5.0,-0.7699999809249998,-1.7750000059631998,-2.2749977111830004,-0.014499995857699996,0.07349999807735,0.05049999803344998
25,58.806884564099995,5879.5,1521544732.0,28586506.5,,2927656.0,1521544731.0,107343206.0,,0.7540071322830001,-0.08511612043099999,0.102527220747,0.744221698996,0.667147361117,0.0145336548535,0.0289349991262,-0.0482061945286,0.00847641737626,-0.0215033084578,-0.0305610584253,0.103209591226,0.0249197969349,4.20238113403,2.51668453217,4.92331361771,-0.594168841839,2.01371717453,0.0948778837919,2043018.0,1521544731.0,104209231.5,,,,,,2431787.5,1521544732.0,19314701.0,,1.680000054835,-2.1219999678450003,-0.07200012207050001,-0.1085000000895,-0.09149999916555003,-0.07400000095369999,105.0,107.5,111.0,113.0,115.0,-23.0,-22.0,-18.5,-18.0,-13.5,5.0,0.4050000906,-0.3699999749650005,2.7599983215345003,-0.008000001311200003,-0.05599999986590003,-0.010499998927149978
26,58.9094486667,5891.5,1521544732.0,149317502.5,,2927670.0,1521544731.0,247355773.0,,0.7541642670800001,-0.08499406129249999,0.102676874609,0.74434953818,0.667011013512,0.0145911988123,0.0287605594972,0.0153792566702,0.00692161481377,0.00331474898502,-0.006056696364880001,-0.0468539257367,0.0105255800549,3.52333188057,2.24539327621,4.87316846848,-0.436747729778,1.76750349998,0.136979728937,2043027.5,1521544731.0,244721908.0,,,,,,2431800.0,1521544732.0,144870959.0,,3.1249998688700003,-2.08699994162,-0.467000579834,-0.08500000089410001,-0.107000000775,-0.09000000357629999,93.5,106.0,106.0,119.5,126.0,-36.0,-30.0,-25.0,-20.0,-7.0,5.0,1.4449998140350002,0.035000026225000536,-0.3950004577635,0.023499999195399995,-0.015500001609449976,-0.0160000026226
27,59.0120127692,5899.5,1521544732.0,228649020.0,,2927678.0,1521544731.0,327343723.0,,0.755256617427,-0.0839993664164,0.103731057819,0.744441250502,0.666849514485,0.0162763950248,0.0292237668151,0.00319299227074,-0.00985474216721,0.00040095407587,-0.0245789731883,-0.00926170846587,0.0057173732804,3.16135120392,2.12317061424,4.59323787689,-0.4461211860180001,1.6329288482700002,0.123427607119,1158036.0,1521544731.0,326000128.0,,,,,,2431808.0,1521544732.0,223139862.0,,1.4250000596,-1.87700002268,-1.6970001220700002,-0.112000003457,-0.0520000010729,-0.097000002861,80.5,87.0,92.0,96.5,130.0,-30.5,-26.5,-22.0,-18.5,-16.5,5.0,-1.6999998092700002,0.2099999189399997,-1.2299995422360002,-0.027000002562899986,0.054999999702100004,-0.006999999284700006
28,59.114576871800004,5908.5,1521544732.0,318068981.0,,2927687.5,1521544731.0,422344375.5,,0.7539888201645,-0.08447214392725,0.10304691685950003,0.7440256683059999,0.6673681867265,0.01457034094435,0.0288646628124,-0.017356056398799998,-0.0154015092361,-0.004125526839510001,-0.024220971329349996,0.04259874959495,-0.007110186647270002,3.802933573725,2.3282340765,4.3630332946750015,-0.463011160493,1.779819846155,0.1325277127325,2928040.5,1521544731.0,420412167.5,,,,,,2431816.5,1521544732.0,312901646.0,,2.75999997854,-2.28199999407,-1.10699996948,-0.07899999991060001,-0.105000000447,-0.09349999949335001,81.5,86.0,87.5,93.0,112.0,-33.0,-30.0,-29.0,-25.0,-24.0,5.0,1.3349999189399997,-0.4049999713899999,0.5900001525900003,0.03300000354639998,-0.0529999993741,0.0035000033676499814
29,59.217140974399996,5922.5,1521544732.0,461159944.0,,2927701.5,1521544731.0,562345900.0,,0.754199123369,-0.08499043402705,0.10294262795749999,0.7444194628015001,0.6669273667405,0.01472498069985,0.0288221092479,0.0106163897287625,-0.0030136649498399997,0.0033694464756000003,0.00894122423229,-0.014954283077750003,-0.023994923497550003,3.998684763905,2.4467625617950004,4.8747010231050005,-0.5132841765880001,1.88991641998,0.13120196759699998,2928054.5,1521544731.0,560444660.5,,,,,,2431831.0,1521544732.0,455721935.5,,2.019999969005,-1.5969999916850002,-0.3620010375975,-0.09299999848005,-0.08650000020865001,-0.09750000014900001,78.5,91.5,104.0,106.0,115.0,-36.5,-34.5,-31.5,-29.5,-28.0,5.0,-0.7400000095349997,0.6850000023849998,0.7449989318824999,-0.013999998569449987,0.018500000238349995,-0.004000000655649996
30,59.31970507689999,5929.5,1521544732.0,527945994.5,,2927706.5,1521544731.0,611819165.0,,0.7539919814534999,-0.08508474078955,0.102997845461,0.744186311595,0.667184849275,0.01433157349945,0.02907856344915,0.006367586625965,0.011212930915184998,0.004813472554485,0.010820056536581987,-0.019962258750305002,-0.006202803295499999,4.010320186615,2.416585206985,4.832004785535,-0.5064012408255,1.879560112955,0.1100863590837,2043053.5,1521544731.0,610464491.5,,,,,,2431837.5,1521544732.0,520226217.5,,2.00500010252,-0.9169999919855,0.288000488281,-0.09449999779475,-0.0954999998212,-0.09400000050664999,71.0,75.5,86.0,100.5,104.0,-34.0,-30.5,-29.0,-22.5,-2.5,5.0,-0.01499986648500018,0.6799999996995002,0.6500015258785,-0.001499999314700004,-0.008999999612549991,0.003499999642350024
31,59.4222691795,5939.5,1521544732.0,628818511.5,,2927716.0,1521544731.0,706812902.0,,0.7540251523864999,-0.08484072628474999,0.1032562714695,0.7442793021744999,0.6670840168084999,0.0144992352044,0.0289306879921,-0.0034098829121300012,0.008965491876360001,-0.0029287606900499988,0.01092816491192,0.011599082271055,0.006139857779285,3.9109121561050006,2.3797563314400003,4.468285799025,-0.512908488512,1.8433240056,0.10462754219760001,2928069.0,1521544731.0,704904359.0,,,,,,2431847.5,1521544732.0,620155485.0,,0.6799999952315,-1.35200000182,-0.3019996643065,-0.09899999946375003,-0.08650000020859999,-0.111500002444,78.0,84.0,96.0,107.0,126.5,-30.5,-29.5,-28.0,-25.0,-17.5,-0.5,-1.3250001072885,-0.43500000983450005,-0.5900001525875,-0.0045000016690000255,0.008999999612600007,-0.017500001937350018
32,59.5248332821,5952.5,1521544732.0,757954001.0,,2927728.0,1521544731.0,826815014.0,,0.753614843798,-0.0844814888277,0.102762388166,0.744390615771,0.666983063723,0.014292235748,0.0284944881607,-0.00212518794201,-0.0042636765334000005,-0.0051590348245,-0.00411095148454,0.00788658102823,-0.0231203435886,4.03932762146,2.37862706184,4.64796495438,-0.480880558491,1.87386870384,0.116506822407,2928081.0,1521544731.0,824923667.0,,,,,,2431860.5,1521544732.0,750466857.0,,2.075000035765,0.1379999928176,-0.906999206543,-0.07000000029799999,-0.120000001043,-0.14199999719849998,89.5,92.5,101.5,113.0,140.0,-29.5,-23.0,-17.0,-10.0,-5.5,-1.0,1.3950000405335001,1.4899999946376,-0.6049995422365,0.028999999165750037,-0.03350000083440001,-0.03049999475449998
33,59.6273973846,5960.5,1521544732.0,838008045.5,,2927737.0,1521544731.0,916817852.0,,0.753114480081,-0.0846040739362,0.102468481562,0.7440925128470001,0.667321213046,0.013584374853299998,0.028708808817,-0.00184939335834,-0.000804346278379,-0.00396785109259,0.00894678262569,0.00816581984383,-0.00565717876242,4.11775541306,2.42762970924,4.823194980619999,-0.479861855507,1.94623339176,0.123464614153,2928090.0,1521544731.0,914910458.0,,,,,,2431868.5,1521544732.0,831908339.0,,1.4349999308599999,-0.736999992281,-0.451999282837,-0.0675000026822,-0.1335000023245,-0.1195000000295,80.0,85.0,92.5,97.5,111.0,-34.5,-33.0,-23.0,-16.5,-8.0,-1.0,-0.6400001049050001,-0.8749999850986,0.454999923706,0.002499997615799998,-0.013500001281499988,0.02249999716899999
34,59.7299614872,5973.5,1521544732.0,967945575.0,,2927749.5,1521544732.0,41823079.0,,0.753889732788,-0.0853820703324,0.102963452965,0.744839625783,0.6664629923445,0.01427307732155,0.028933821261900004,0.00188957363955,0.00816648697265,-0.003998044690213499,0.01373965011591,-0.00745103360915,0.009060435177599996,3.8410381078699993,2.293979406355,4.526496171955,-0.464914545417,1.8087618947,0.117628801614,2043083.5,1521544732.0,46933192.5,,,,,,2431881.5,1521544732.0,960575921.0,,3.4650000214550003,-0.7469999901950001,-0.5319992065429999,-0.08550000190735,-0.1235000006855,-0.08850000053644999,81.0,86.0,89.5,91.5,102.0,-38.0,-35.5,-33.5,-30.5,-28.0,-1.0,2.030000090595,-0.00999999791400008,-0.0799999237059999,-0.017999999225150012,0.010000001638999986,0.030999999493050004
35,59.832525589700005,5980.5,1521544733.0,37948012.0,,2927756.0,1521544732.0,106816424.5,,0.7533238120305,-0.08460985918380001,0.102553054096,0.7445134632900001,0.6668591075479999,0.01406370149675,0.0282962362377,0.0017416098850349991,0.009667639143434999,-0.0013618734389010002,0.0056342712879335006,-0.005913976987619999,0.017568370653155002,3.702868819235,2.381907939915,4.544646739959998,-0.5162909328934999,1.75870394707,0.1122477389874,1158067.5,1521544732.0,121000064.0,,,,,,2431888.5,1521544733.0,29795623.5,,1.9999999880750001,-1.87700002268,-1.442000961305,-0.09450000151995,-0.06700000166895001,-0.09250000119210001,73.0,74.0,85.5,113.0,136.0,-36.0,-35.0,-34.0,-32.0,-27.0,-1.0,-1.4650000333800002,-1.130000032485,-0.9100017547620001,-0.008999999612599993,0.05649999901654999,-0.004000000655650024
36,59.9350896923,5992.5,1521544733.0,157986044.0,,2927771.5,1521544732.0,261826823.0,,0.7524068591924999,-0.08569704491874999,0.10209712972600002,0.744556808227,0.6668359047929999,0.01283263083265,0.028290297227599997,0.00358468421338,-0.008122245220205,-0.0026584267514265,-0.008908206887336999,-0.01996647964495,0.012267323967190002,3.513920545575,2.22451853752,4.5844318866750005,-0.4115741550925,1.7005581259750002,0.117925427854,2928124.5,1521544732.0,259891559.5,,,,,,2431900.5,1521544733.0,149744790.5,,2.860000002385,-1.3719999827400002,-0.5619998931885001,-0.08500000089404999,-0.10300000011949999,-0.08500000089410001,73.0,78.0,85.0,92.0,120.0,-37.5,-37.5,-36.5,-34.5,-28.5,-1.0,0.86000001431,0.5050000399399999,0.8800010681164999,0.009500000625900007,-0.03599999845054998,0.007500000298000006
37,60.037653794899995,6004.5,1521544733.0,277972936.0,,2927783.5,1521544732.0,381815501.0,,0.7514604904805,-0.08499021163074999,0.101221212104,0.7442317586239999,0.6672276401489999,0.0123951495548,0.027796613586300003,-0.009845381108504999,0.0034839961188100005,-0.0061039364526405005,0.0011629307533449998,0.011712309704895,0.016754245699315003,3.66933906078,2.22083556652,4.6597881317150005,-0.4305429309605,1.73986804485,0.127600107342,2043106.5,1521544732.0,374949389.5,,,,,,2431912.5,1521544733.0,269868265.5,,-0.6049999862909999,0.957999955863,-2.0819984436050003,-0.1050000004473,-0.0439999997616,-0.12400000169849999,76.0,85.0,92.0,97.0,107.5,-34.5,-34.0,-33.5,-32.0,-20.5,-1.0,-3.464999988676,2.329999938603,-1.5199985504165001,-0.019999999553250006,0.059000000357899984,-0.039000000804399984
38,60.1402178974,6012.5,1521544733.0,357969045.5,,2927791.5,1521544732.0,461817072.0,,0.7516776914404999,-0.08504005762710001,0.10125915826899999,0.7443082385475001,0.6671420688405,0.01269528479055,0.027666404843349996,0.00332493870908,0.006849324911895001,0.005141635910380001,0.010988115995355,-0.00982991392189,0.003737705507075,3.9291167259199993,2.2568322420099998,4.625240325925001,-0.456745043397,1.806733250615,0.11127696558849999,2928144.5,1521544732.0,459900047.0,,,,,,2431920.5,1521544733.0,351351986.0,,1.78999994993,-1.197000000625,-0.976998901365,-0.0685000009835,-0.1165000014005,-0.09950000047700001,70.0,70.0,76.5,80.0,94.0,-34.0,-31.0,-29.5,-25.5,-24.5,-1.0,2.3949999362209997,-2.154999956488,1.1049995422400003,0.036499999463800004,-0.0725000016389,0.02450000122149998
39,60.242782,6025.5,1521544733.0,487970470.5,,2927803.5,1521544732.0,581818670.5,,0.7518720177535001,-0.08525697780615,0.10132107524499999,0.7443907996829999,0.667041712072,0.012545027805850002,0.02792963437195,-0.0021273900447000005,0.007592945061249999,0.0022170427113699996,0.017183439808225003,0.007569717163950001,-0.005030954457225001,3.7685461044300004,2.18011200428,4.259455919265,-0.426764667034,1.7724912762599998,0.116290196776,2043120.5,1521544732.0,576434725.5,,,,,,2431933.5,1521544733.0,481876031.0,,1.759999978545,-1.0469999946645,-1.406999206545,-0.09299999848,-0.0599999986589,-0.0954999998212,58.0,59.0,63.5,78.0,88.5,-37.5,-35.5,-31.5,-27.0,-21.0,-1.0,-0.02999997138499988,0.15000000596049978,-0.4300003051800001,-0.024499997496500003,0.0565000027416,0.004000000655800015
