,Unnamed: 0,Unnamed: 0.1,.header.seq,.header.stamp.secs,.header.stamp.nsecs,.header.frame_id,.endpoint_state.header.seq,.endpoint_state.header.stamp.secs,.endpoint_state.header.stamp.nsecs,.endpoint_state.header.frame_id,.endpoint_state.pose.position.x,.endpoint_state.pose.position.y,.endpoint_state.pose.position.z,.endpoint_state.pose.orientation.x,.endpoint_state.pose.orientation.y,.endpoint_state.pose.orientation.z,.endpoint_state.pose.orientation.w,.endpoint_state.twist.linear.x,.endpoint_state.twist.linear.y,.endpoint_state.twist.linear.z,.endpoint_state.twist.angular.x,.endpoint_state.twist.angular.y,.endpoint_state.twist.angular.z,.endpoint_state.wrench.force.x,.endpoint_state.wrench.force.y,.endpoint_state.wrench.force.z,.endpoint_state.wrench.torque.x,.endpoint_state.wrench.torque.y,.endpoint_state.wrench.torque.z,.joint_state.header.seq,.joint_state.header.stamp.secs,.joint_state.header.stamp.nsecs,.joint_state.header.frame_id,.joint_state.name,.joint_state.position,.joint_state.velocity,.joint_state.effort,.wrench_stamped.header.seq,.wrench_stamped.header.stamp.secs,.wrench_stamped.header.stamp.nsecs,.wrench_stamped.header.frame_id,.wrench_stamped.wrench.force.x,.wrench_stamped.wrench.force.y,.wrench_stamped.wrench.force.z,.wrench_stamped.wrench.torque.x,.wrench_stamped.wrench.torque.y,.wrench_stamped.wrench.torque.z,.tactile_values.tactile_values_0,.tactile_values.tactile_values_1,.tactile_values.tactile_values_2,.tactile_values.tactile_values_3,.tactile_values.tactile_values_4,.tactile_values.tactile_values_5,.tactile_values.tactile_values_6,.tactile_values.tactile_values_7,.tactile_values.tactile_values_8,.tactile_values.tactile_values_9,.tag,.delta_wrench.force.x,.delta_wrench.force.y,.delta_wrench.force.z,.delta_wrench.torque.x,.delta_wrench.torque.y,.delta_wrench.torque.z,.wrench_stamped.wrench.force.magnitude,.wrench_stamped.wrench.torque.magnitude,.endpoint_state.wrench.force.magnitude,.endpoint_state.wrench.torque.magnitude,.endpoint_state.twist.linear.magnitude,.endpoint_state.twist.angular.magnitude
0,0,49.943111,4994.5,1521547158.0,359712958.0,,3170282.5,1521547157.0,372288389.0,,0.7100609009244999,-0.16518705632949998,0.0116812695715,-0.1277890671685,0.9907760314195,-0.000805384883153,0.04507858755469999,-0.000476064131995,0.017970798077990003,0.00632645267667985,0.011986971493239998,-0.012055791490295,0.018168353125050003,-0.32754167914250004,1.5669639110550002,6.357335329054999,0.225581932813,0.4178452044725001,0.373935729265,2212326.5,1521547157.0,366688140.5,,,,,,2674167.5,1521547158.0,358501620.5,,1.7969998359650001,-2.885999989505,-1.28699989319,0.006999999750404999,-0.188999995589,-0.14199999719849998,430.5,456.5,489.0,611.0,690.0,283.0,328.5,540.5,583.5,714.0,5.0,0.0,0.0,0.0,0.0,0.0,0.0,3.6351854251127507,0.23650369454518397,6.5557891924752365,0.6044085976665634,0.01905781267847732,0.024882094954278507
1,1,50.0456751026,5005.5,1521547158.0,469662546.5,,3170293.0,1521547157.0,477288281.0,,0.7074001320995,-0.1646142169325,0.01272938424275,-0.12778147923400002,0.990753031159,0.0011643988751049998,0.04559368464425,-0.050550784697550005,-0.008547185433565,0.008020887462415,0.06167722103175,0.021615598135735003,-0.015466885035869998,0.0010013133289999976,0.431650683284,12.2178168297,1.4407342076299998,1.457538366315,0.8222810029980001,2212334.5,1521547157.0,477667801.5,,,,,,2674178.5,1521547158.0,468236990.0,,2.33700003624,-2.10099996328,7.642998504639999,0.0505000017583,-0.39849999547,-0.09699999913564998,385.0,412.0,502.0,641.0,663.5,218.5,281.5,505.0,530.5,640.0,5.0,0.5400002002750002,0.7850000262250005,8.92999839783,0.043500002007895,-0.209499999881,0.044999998062849995,8.263848749645506,0.41323298077415654,12.225439517625063,2.2082298780260263,0.05189191505483805,0.06716054057017226
2,2,50.14823920510001,5013.5,1521547158.0,549666523.5,,3170301.0,1521547157.0,557288149.0,,0.699003830597,-0.16607482659199999,0.0147425788497,-0.12552468861,0.99129802827,0.0030659977518400004,0.0395268434654,-0.130012064484,-0.014777887173,0.0475189012612,0.05303000161930002,0.215957371485,-0.10645163933599999,-0.394607335329,-0.16384625434900002,14.6696500778,1.3469851016999999,1.52708876133,0.927535653114,2212339.0,1521547157.0,556182129.0,,,,,,2674186.0,1521547158.0,543375054.0,,-1.26799998283,-2.39099998474,8.31300048828,-0.12099999934399999,-0.45399999618500003,-0.0920000001788,422.0,468.5,507.0,555.0,788.5,267.0,444.0,583.0,628.0,702.5,5.0,-3.60500001907,-0.2900000214600005,0.6700019836400006,-0.1715000011023,-0.055500000715,0.00499999895684998,8.742464297989846,0.47877029608166716,14.675871147882745,2.237563705680749,0.13921051985306773,0.24653948748177254
3,3,50.250803307700004,5025.5,1521547158.0,669661998.0,,3170313.0,1521547157.0,677292119.5,,0.6760802430599999,-0.1700096595265,0.01814052971265,-0.1244609825455,0.9920002765665,0.002778458951865,0.0207918136603,-0.2136448691805,-0.062360479668649986,0.04101303425185,-0.106092017502,0.3586346948565,-0.023693674241615004,3.094057321545,0.015193402767150003,15.854044914200001,1.2553333640100002,2.120658040045,0.8544178307054999,3170666.0,1521547157.0,675350387.5,,,,,,2674198.0,1521547158.0,663302389.0,,1.367000246045,0.12400003075600008,9.99800186159,-0.137499999255,-0.280499994755,-0.08749999850989999,435.0,461.0,479.0,490.5,824.0,235.0,435.0,492.0,584.0,668.0,5.0,2.635000228875,2.515000015496,1.6850013733099996,-0.016499999911,0.17350000143,0.004500001668900007,10.091784128917526,0.3244113848062557,16.153147114106424,2.6082718813481955,0.22630737621695074,0.3747475826893715
4,4,50.353367410299995,5036.5,1521547158.0,779703497.5,,3170326.5,1521547157.0,812287670.0,,0.6543809336840001,-0.176250555538,0.0243956756037,-0.1247101389495,0.9921803236535,-0.0004739914186795,0.005027951668035,-0.10076734175239999,-0.04231862507285,0.05155179698155,-0.05995665573065,0.09622741027075,0.04210143374705,6.239596366880001,0.15168267488460002,15.20021390915,1.6886609792700005,2.07451289892,0.8123988509175,3170679.5,1521547157.0,810367776.5,,,,,,2674209.5,1521547158.0,779119478.0,,1.362000131605,0.5689999938015,7.942997741694999,-0.06550000049174999,-0.02799999993295,-0.09149999916555,397.0,400.0,411.5,498.5,847.0,308.0,375.5,490.5,517.0,554.0,5.0,-0.005000114440000036,0.4449999630455,-2.055004119895001,0.07199999876325001,0.25249999482205,-0.00400000065565001,8.078986228234951,0.1159590440973023,16.431739814741448,2.795562834862893,0.12084084973190302,0.12094232417717203
5,5,50.4559315128,5043.5,1521547158.0,849679469.5,,3170333.5,1521547157.0,882285283.5,,0.650108676051,-0.17847229924449998,0.0285100034473,-0.12691714998050002,0.9919016140885,-0.0013482713947950001,0.00460025873111,-0.05671600603945,-0.02938910652955,0.0620217210098,-0.0236313317513,0.004962058403479998,0.046904842665100005,7.73100566864,0.346286967397,14.9410700798,1.43178665638,2.682926297185,0.8276751041410001,1254038.0,1521547157.0,875000064.0,,,,,,2674216.5,1521547158.0,848192195.0,,2.666999959945,2.34400002956,10.3829963684,-0.1030000001192,0.04550000093875002,-0.08449999988080001,304.0,370.5,392.5,558.0,855.0,269.5,357.0,379.0,410.0,519.0,5.0,1.3049998283400002,1.7750000357584996,2.439998626705002,-0.037499999627449994,0.07350000087170001,0.006999999284749993,10.973323949976667,0.14078174629488246,16.826287125858382,3.1516904390389375,0.08903436864879559,0.052755342188041315
6,6,50.5584956154,5056.5,1521547158.0,979669570.5,,3170346.5,1521547158.0,12290491.5,,0.6529903221465,-0.1803681189695,0.036436713767,-0.126698377322,0.9918776633845,-0.00243864916765,0.0109301226692,0.06811346417934999,-0.0048905899404,0.0677827712529,0.004546672931635,-0.186703511937,-0.0054099405768,7.8865740299199985,2.62452542782,12.282300472249998,0.363691329956,2.801698088645,0.7247013151644999,3170699.5,1521547158.0,10356052.5,,,,,,2674229.5,1521547158.0,978408688.5,,2.30700006485,0.669000017643,11.3480003357,-0.1220000050963,0.011500000022360004,-0.056499999016550013,208.0,388.0,415.0,623.0,865.0,197.0,235.5,407.0,548.0,585.5,5.0,-0.3599998950950001,-1.6750000119169997,0.9650039672999996,-0.019000004977100013,-0.034000000916390015,0.02800000086425,11.599436276900336,0.13493887924864967,14.83041093636029,2.916672000689033,0.09621780475151001,0.1868372047034564
7,7,50.6610597179,5063.5,1521547159.0,49664020.0,,3170353.5,1521547158.0,82289246.5,,0.659035934516,-0.181761957736,0.04172456108815,-0.1262857553525,0.9918156108075,-0.003661655445435,0.018438954420700003,0.08931237695574999,-0.0298540772114,0.07938592912205,-0.0149697713776,-0.2282620949965,-0.00956004212456,-1.732061952351,0.3385427594185,18.8169307709,1.14371192455,-0.059172108769,0.7444113492965001,1254046.0,1521547158.0,76000000.0,,,,,,2674236.0,1521547159.0,43422940.0,,1.25200023651,-0.181000006199,9.54299621582,-0.054999999702,-0.136000007391,-0.07000000029799999,179.0,384.0,388.0,613.0,869.0,158.5,178.5,477.0,554.0,605.0,5.0,-1.05499982834,-0.850000023842,-1.8050041198799995,0.06700000539430001,-0.14750000741336,-0.013500001281449986,9.626476113803013,0.1625453844908924,18.89951146044733,1.3659160156376642,0.1231669287844808,0.22895211829706263
8,8,50.7636238205,5076.5,1521547159.0,179676055.5,,3170366.5,1521547158.0,212288059.0,,0.6662644725635001,-0.182107082371,0.05024080265915,-0.12851275785650002,0.99129681095,-0.00480486292295,0.0281415780307,0.06424137059535001,0.0209426118538,0.0815860871654,0.031415608112265,-0.15412293285599998,0.03042142497846,2.87706851959,1.2916572689994998,11.915478229549999,1.1256329715234998,2.19442665577,0.8377840816975001,3170719.5,1521547158.0,210385716.5,,,,,,2674249.0,1521547159.0,173448334.0,,-1.8079999446900001,0.0189999818802,9.923001098630001,-0.046999998390699994,-0.41200000047700003,-0.15099999308599998,248.5,272.0,354.0,578.0,780.5,208.0,248.0,493.0,573.5,579.0,5.0,-3.0600001812,0.19999998807920003,0.3800048828100007,0.0080000013113,-0.275999993086,-0.08099999278799999,10.08638565605751,0.44130941317146843,12.325766637651997,2.604695779103666,0.10593316905572245,0.16020699723457324
9,9,50.86618792310001,5087.5,1521547159.0,289664029.5,,3170375.0,1521547158.0,297548286.0,,0.670783622773,-0.18090070238,0.055741513650699986,-0.12775468116049998,0.991256873507,-0.00283945236324,0.0328622340702,0.0549972269934,0.0448304580803,0.06869287934894999,0.07446197193680001,-0.09237527124389999,0.0468931692124,0.3877829909325,-0.2299942374228,16.2265253067,1.4119022488600002,1.1704318523385,0.8595364391805,3170727.0,1521547158.0,285627992.0,,,,,,2674260.0,1521547159.0,283163286.0,,0.49200000762900004,-1.8209999918900002,10.143002319299999,-0.11299999803300001,-0.356000006199,-0.125,256.0,267.5,355.0,504.5,608.0,323.5,364.5,403.5,415.5,572.0,5.0,2.2999999523190002,-1.8399999737702,0.22000122066999767,-0.0659999996423,0.05599999427799995,0.025999993085999984,10.316908501450204,0.39386546430113173,16.232787700400685,2.0253843021963887,0.09875817243095632,0.12758034849021094
10,10,50.968752025600004,5096.5,1521547159.0,379657506.5,,3170384.5,1521547158.0,392547258.5,,0.6731193315665001,-0.17576992946199999,0.060416715464,-0.12683745663100002,0.991279800405,0.000503255628604,0.035723726524,0.0207273092035,0.061588843031699994,0.0575894521987,0.09436912882120002,-0.040296491832249995,-0.03105638444705,2.350494623185,-0.1370813697576,14.24827098845,1.22919434309,1.7509253025049998,0.9004489481450001,1254058.0,1521547158.0,379000064.0,,,,,,2674269.0,1521547159.0,372749535.0,,-0.728000020981,0.34900002479599995,7.71300201416,-0.272000014782,-0.193000003695,-0.08900000154969999,188.0,277.5,289.5,306.0,342.0,154.0,181.5,222.5,243.0,402.0,5.0,-1.2200000286100001,2.170000016686,-2.430000305139999,-0.15900001674900002,0.16300000250399999,0.03599999845030001,7.75513927136658,0.34518692000642903,14.441497236639357,2.321091651842322,0.08682944165055553,0.10720932209179296
11,11,51.071316128199996,5104.5,1521547159.0,459664940.5,,3170392.0,1521547158.0,467543013.5,,0.6725723905365001,-0.17274176096500002,0.0650275815685,-0.1278055833695,0.991198655325,0.0010738744610320002,0.034493025306600006,0.0016800106174700005,0.04781628502765002,0.08308297610795001,0.0071295439099999984,0.01397804277832,0.0526133101966,1.326114773748,0.04408776760099997,10.533912181849999,0.7861837148665001,0.827078878881,0.6377122998239999,3170745.0,1521547158.0,465609987.5,,,,,,2674277.0,1521547159.0,454073034.0,,-0.39799985885600003,-1.50099999905,-0.79700012207,-0.0219999998808,-0.07000000029799999,-0.127000004053,99.0,114.5,123.0,133.5,156.0,18.0,24.5,29.0,40.0,57.5,5.0,0.33000016212500005,-1.8500000238460002,-8.51000213623,0.2500000149012,0.123000003397,-0.0380000025033,1.745455264215354,0.1466731095529689,10.617147921138358,1.307218911567285,0.09587492095680952,0.054903337659206256
12,12,51.1738802308,5117.5,1521547159.0,589663028.0,,3170405.0,1521547158.0,597541347.0,,0.682425249604,-0.16862827699299998,0.07976898025000001,-0.128784932158,0.990664164757,-0.00048232989078,0.0447070606606,0.14738844463,0.0167253123667,0.149597105565,-0.0191204189169,-0.298680643886,-0.00234263682696,2.06896209717,-0.665447711945,6.80922603607,1.4638931751299995,1.16839814186,0.8553855419159999,2212412.0,1521547158.0,589299823.5,,,,,,2674290.0,1521547159.0,584033655.0,,-0.9480000495909999,-1.15100000501,-1.5870010375999999,-0.0769999995828,-0.0769999995828,-0.0869999974966,76.0,76.5,77.5,92.0,123.0,-126.0,-125.0,-119.0,-100.0,-83.0,5.0,-0.5500001907350001,0.34999999404000004,-0.7900009155300001,-0.054999999702,-0.00699999928480001,0.04000000655639999,2.17763114390409,0.1393807713994682,7.147655841403704,2.059082774298552,0.21067126922682175,0.29930119511792186
13,13,51.2764443333,5125.5,1521547159.0,669670939.0,,3170413.0,1521547158.0,677547632.0,,0.69475712714,-0.16460658435699999,0.0900306524381,-0.12899604969,0.990020661726,-0.000434625405124,0.0567355234449,0.16186124516,0.077246046348,0.12184499924100001,0.07489376138949999,-0.302556699393,0.0491315739448,2.09704136848,0.637778699398,4.72420024872,0.686008751392,1.3751108646399999,0.7848689556119999,3170766.0,1521547158.0,675611251.0,,,,,,2674298.0,1521547159.0,663215247.5,,-0.463000035286,-0.11100001335166301,-0.8219997406010001,-0.1130000017585,-0.10400000028295,-0.09150000289085,62.5,66.0,71.0,85.0,101.5,-134.5,-122.5,-111.5,-106.5,-82.0,5.0,0.4850000143050001,1.039999991658337,0.765001296999,-0.0360000021757,-0.02700000070014999,-0.004500005394249995,0.9499334761903162,0.17876591113884147,5.207918217534563,1.7255599597002853,0.21682301123539052,0.31553691289759883
14,14,51.37900843590001,5137.5,1521547159.0,789667009.5,,3170427.5,1521547158.0,822560982.0,,0.7093819561475,-0.156774533067,0.102279027257,-0.12990511118300002,0.989192781829,0.00013592793913635,0.06798410669954999,0.05122011981905,0.06781957233905,0.05090813200145,0.028508263225449998,-0.05747138864755,0.036687606559300014,1.6117407679549998,0.47945697605594,4.444552421569999,0.463525503874,1.20045506954,0.614823669195,2212427.5,1521547158.0,821798494.5,,,,,,2674309.5,1521547159.0,781089533.5,,-1.7979999542250005,0.713999974726,-1.147000503541,-0.08200000226500001,-0.1159999966625,-0.097500000149,64.5,70.5,75.5,84.0,132.0,-95.5,-92.5,-91.0,-88.0,-61.0,5.0,-1.3349999189390005,0.8249999880776631,-0.3250007629399999,0.030999999493499988,-0.01199999637955,-0.005999997258150007,2.249046454483575,0.1722969808969821,4.752013628248621,1.4261684370817966,0.09906882945915195,0.0739030585311547
15,15,51.481572538500004,5148.5,1521547159.0,899661898.0,,3170438.5,1521547158.0,932545012.5,,0.7095595059675001,-0.1534978101985,0.105557057203,-0.13082428765999998,0.9892637054105,-0.001052284223933,0.06512171448830001,-0.017734397952499998,0.031848152025850014,0.02708743962155,-0.05990175699560001,0.0858234281731,0.035993646195550004,2.2332431674,3.338706612585,5.43198037148,-0.652175784111,1.0969868004330001,0.331306219101,2212435.5,1521547158.0,930801811.0,,,,,,2674320.5,1521547159.0,891004477.5,,-0.183000063896,-0.420999985933,-0.12199897766139994,-0.07399999722839999,-0.14599999785399995,-0.08300000056625,49.0,56.0,70.0,88.0,109.0,-76.0,-69.5,-59.5,-51.0,-30.0,5.0,1.6149998903290004,-1.134999960659,1.0250015258796,0.008000005036600021,-0.030000001191499957,0.014499999582750013,0.47498817047580566,0.18352383784448464,6.75579363552511,1.3185132174233325,0.04541522920178216,0.11067711543491546
16,16,51.584136641,5157.5,1521547159.0,989679455.0,,3170447.0,1521547159.0,17548242.0,,0.7080774968515,-0.1517696658405,0.10662942719900001,-0.128958510943,0.989701766667,-0.0016170878810850002,0.0621078350948,-0.01697507524765,0.0363817088698,0.0143133416824,0.007234358590250001,0.06534726105425001,0.018024257474535003,4.419023036955,3.2428556680650003,5.0467023849500015,-0.7153262346985001,1.85969001055,0.3086812645195,3170800.0,1521547159.0,15600921.5,,,,,,2674329.5,1521547159.0,980408955.5,,-0.5930000305174999,-2.10599998832,-1.351998519895,-0.06049999967215,-0.132500000298,-0.09050000086425,63.5,68.5,70.0,74.5,82.5,-101.5,-100.0,-73.0,-63.0,-44.5,5.0,-0.4099999666215,-1.6850000023870002,-1.2299995422336,0.013499997556249995,0.013499997555999954,-0.007500000298000006,2.571922429778135,0.17148396483557699,7.450710197511397,2.016289334508505,0.04262222037936777,0.06817238685137081
17,17,51.6867007436,5168.5,1521547160.0,99666595.0,,3170458.5,1521547159.0,132545401.5,,0.7070653010965,-0.1486309276435,0.1067425182085,-0.13121214434800002,0.989470092393,-0.00150549600871,0.061072970666849996,-0.016965938416699997,0.0220037400931,-0.007758658540739999,-0.005612427565694999,0.04516889407195,0.0451201281955,3.5572407245649997,0.441721588373,2.816821932795,0.60182800889,1.6541212201100002,0.6532337367534999,2212449.0,1521547159.0,129299418.5,,,,,,2674341.0,1521547160.0,94151869.0,,1.207000160219,-0.3210000067945,-1.0269996643085,-0.0475000012666,-0.12149999663239999,-0.08000000193715,57.0,62.0,73.0,98.0,110.5,-164.0,-159.0,-143.0,-133.0,-124.0,5.0,1.8000001907364995,1.7849999815255002,0.3249988555865,0.012999998405549995,0.011000003665599986,0.010499998927100004,1.61697826256896,0.15303104133457437,4.5588995750305195,1.8775058662852797,0.02884795359805875,0.06409020442502557
18,18,51.7892648462,5177.5,1521547160.0,189673542.5,,3170467.5,1521547159.0,222546198.5,,0.7056833496149999,-0.14779648081250002,0.1064463553305,-0.13223257964500001,0.989416732554,-0.001738177602045,0.05971438597565,-0.015018508624750003,-0.005779702455389999,-0.006342528644565,-0.008299093055350001,0.048922576546999996,0.0006876187943,0.9439565241325,0.7166678905485,7.189006805419999,0.4530369341375,0.7403946518894999,0.556828022003,3170820.5,1521547159.0,220605987.5,,,,,,2674350.0,1521547160.0,185653337.0,,1.0220002174355,-1.136000000683,-0.6069995880125,-0.0614999998361,-0.14650000631799998,-0.09299999847989998,50.0,58.5,70.0,78.0,100.0,-187.5,-183.0,-172.0,-168.5,-150.0,5.0,-0.18499994278349985,-0.8149999938885001,0.42000007629600006,-0.013999998569499995,-0.02500000968559997,-0.012999996542749996,1.6442107364438812,0.18410187817693693,7.286047325756991,1.0312536789398876,0.017297058460664892,0.04962626583921772
19,19,51.8918289487,5190.5,1521547160.0,319658517.5,,3170478.0,1521547159.0,327566628.0,,0.7054932285169999,-0.148151014926,0.10715701046000001,-0.131390487099,0.989626575871,-0.0019778510973699997,0.0580677908473,0.000773966850873,-0.011134109568000001,0.013704703966299999,-0.0147307891075,0.055887052750900015,-0.041803009856199995,2.07531499863,0.821373045444,6.07466650009,0.538933098316,1.21036875248,0.625922977924,2212463.0,1521547159.0,330298779.5,,,,,,2674363.0,1521547160.0,314355140.0,,0.4120000839234501,-0.5509999867525001,-0.7670013427735001,-0.09150000289095,-0.1074999980626,-0.0725000016391,51.5,54.5,76.0,83.0,108.5,-158.5,-152.0,-136.0,-133.0,-113.0,5.0,-0.6100001335120501,0.5850000139304999,-0.1600017547610001,-0.03000000305485,0.03900000825539997,0.02049999684079999,1.0303572751092396,0.15869703951294228,6.4717199499542835,1.4653398840315932,0.01767445420267337,0.07132916967096334
20,20,51.9943930513,5197.5,1521547160.0,389693498.0,,3170485.0,1521547159.0,397545094.5,,0.7063091958225001,-0.149956073184,0.10833117934449996,-0.1321032199865,0.9896503529445,-0.0026334032983800003,0.055971950638499995,0.015503679979450001,-0.016990222773254997,0.02592979232770001,-0.033310345333985004,0.05124880675225,0.1258070592761,3.87313354015,1.1859533786799998,5.213737487795001,0.4210172891615001,1.843810200695,0.6781870424750001,2212468.5,1521547159.0,398298558.5,,,,,,2674370.0,1521547160.0,385736067.5,,0.7520001173015,-1.220999997852,-0.8269989013685999,-0.08900000154975,-0.10949999839050001,-0.0819999985397,47.0,50.0,55.0,60.0,80.5,-121.5,-107.5,-104.5,-95.0,-85.0,5.0,0.3400000333780499,-0.6700000110995,-0.05999755859509981,0.002500001341199986,-0.0020000003278999867,-0.009499996900599994,1.655376801227118,0.1632030933649415,6.602325910455823,2.009186222962128,0.0346610140207652,0.1398693514087305
21,21,52.0969571538,5210.5,1521547160.0,519712924.5,,3170497.0,1521547159.0,517554263.0,,0.710216591418,-0.151868746944,0.1113088481035,-0.132664923754,0.9894104141140001,-0.002740216622295,0.0588176662326,0.0242250748891,-0.01548712550755,0.0262734186425,0.009991623088955,-0.05606396615505002,-0.04392009034495,3.1355177164049994,0.334397986531,6.670694112774999,0.8322059214115001,2.16888821125,0.8147713541985001,2212476.0,1521547159.0,521298569.0,,,,,,2674383.0,1521547160.0,514212013.0,,0.342000031471,-1.076000002026,0.8779991149924999,-0.0559999998659,-0.17800000309949998,-0.09750000014910001,58.0,58.0,62.5,69.0,70.5,-141.0,-135.0,-129.0,-123.0,-110.5,5.0,-0.4100000858305,0.14499999582599998,1.7049980163610998,0.033000001683850005,-0.06850000470899999,-0.015500001609400004,1.430252590213956,0.21053800397428798,7.378445182387455,2.461807288996043,0.03894865642141171,0.07191644574709531
22,22,52.199521256400004,5217.5,1521547160.0,589706539.5,,3170504.5,1521547159.0,592549645.0,,0.7096578058284999,-0.1534174851595,0.1129475227675,-0.1316827932305,0.9895774485675,-0.004110112463325,0.05812941403785,0.0017470613502349995,-0.02108437588126,0.02914867598675,-0.04014400813695,-0.03399355159465,0.004573902741255,5.4989850521050005,2.604277729985,4.344532728195,-0.0180841088295,2.353744149205,0.5919500887395,2212481.5,1521547159.0,591301385.0,,,,,,2674389.5,1521547160.0,581584197.5,,-0.527999973297,0.5990000247955001,-0.311999511719,-0.08150000125169997,-0.14799999445700002,-0.10249999910615,53.0,62.0,63.5,74.5,98.0,-133.0,-128.0,-116.0,-113.5,-99.5,5.0,-0.870000004768,1.6750000268215002,-1.1899986267115,-0.02550000138579997,0.03000000864249996,-0.0049999989570499856,0.8572798241061882,0.19761704982126385,7.476367013765947,2.427105985009231,0.036017335290721875,0.05280173790325561
23,23,52.302085358999996,5231.5,1521547160.0,730047940.5,,3170518.5,1521547159.0,732548937.0,,0.7116415208885001,-0.15220365720850002,0.1151464334755,-0.1318450777495,0.9893820578915,-0.004062200704835,0.06101870039545,0.0023341321764375005,0.0261530593967,0.004175092610387,0.015612614974599997,-0.0010405912161950005,0.0223730938062,1.917057037355,1.20122498274,4.0403881073,0.31639343500149997,1.219896376135,0.5806377530100001,2212492.0,1521547159.0,741824347.0,,,,,,2674403.5,1521547160.0,720858783.0,,-0.3879999876025,-0.8060000015425,-2.76200027466,-0.07550000026824999,-0.054500000551349986,-0.0945000015199,44.0,48.5,58.5,76.0,127.0,-163.0,-153.5,-152.0,-139.0,-126.0,5.0,0.13999998569449995,-1.405000026338,-2.4500007629409994,0.0060000009834499796,0.09349999390565003,0.007999997586249988,2.9032439632397353,0.1326678197147447,4.630635507275683,1.3875850152116285,0.02658687810047857,0.027301866289419684
24,24,52.40464946149999,5237.5,1521547160.0,789671063.0,,3170526.5,1521547159.0,812654315.5,,0.7109803180300001,-0.15153801637699998,0.11494058528,-0.1328174986875,0.9892856210815,-0.004065778396915,0.0604713984098,-0.040346121395949994,0.02695356017945,-0.011899021893841002,-0.003923574335485,0.08483489337295,0.0283970958665,3.2353577613849995,0.8386236429214999,4.591752290730001,0.5838716924189999,1.6321662664399998,0.649435132742,3170879.5,1521547159.0,810703649.0,,,,,,2674410.0,1521547160.0,784306680.0,,0.096999907494,-0.375999989733,-0.12700004577650004,-0.0969999991358,-0.1500000059605,-0.11749999970200001,45.5,49.5,52.0,67.0,113.5,-170.5,-162.5,-158.0,-150.5,-145.0,5.0,0.4849998950965,0.4300000118094999,2.6350002288834995,-0.02149999886755001,-0.09550000540915002,-0.022999998182099995,0.40855108121297845,0.21381125216055688,5.679350188009654,1.8511182744904593,0.049958889500008645,0.08954746575318066
25,25,52.5072135641,5249.5,1521547160.0,912384986.0,,3170539.0,1521547159.0,937653120.0,,0.709383485953,-0.150252468856,0.11403661470899999,-0.133507325682,0.989297238253,-0.00361348942812,0.058768282843300004,7.55482912369e-06,0.0179745973884,-0.000516038130033,0.0036017019289800007,-0.013873562579000001,0.0319850081757,3.26150774956,1.17535173893,5.18252944946,0.361467897892,1.5191099643700001,0.580479204655,2212505.5,1521547159.0,937851759.5,,,,,,2674422.5,1521547160.0,910384084.0,,-0.0629999399185,0.08400002419949992,-1.241999816895,-0.08000000193715,-0.06949999928475,-0.10300000011925001,32.0,41.0,52.0,85.0,106.0,-190.0,-186.0,-174.5,-166.0,-154.5,5.0,-0.1599998474125,0.4600000139325,-1.1149997711184998,0.016999997198650002,0.08050000667575001,0.01449999958275,1.2464303196177733,0.1477810888953311,6.23518211483561,1.665926238490644,0.017982004996722898,0.03504980375720017
26,26,52.6097776667,5262.5,1521547161.0,39779424.0,,3170551.0,1521547160.0,57651029.5,,0.7099237032235,-0.15095484725199998,0.1144097224095,-0.1330289289295,0.989321001468,-0.00358298915835,0.05945082046925,0.0007852039584500007,-0.017992863707830004,-0.0021791803275400005,-0.007619391522699997,0.00267255249357,-0.0373049080637,3.27593636513,1.5536730289449998,4.591314077380001,0.1908168420195,1.62134760618,0.5426814258095001,2212514.5,1521547160.0,58352676.5,,,,,,2674434.5,1521547161.0,31264013.0,,0.07200005054450004,-1.32099999934,-1.842000198365,-0.06599999777974999,-0.08600000292064999,-0.08749999850989999,29.0,31.5,37.5,43.5,61.0,-192.0,-184.5,-175.5,-169.0,-155.0,5.0,0.13499999046300004,-1.4050000235395,-0.6000003814699999,0.014000004157400006,-0.0165000036359,0.01550000160935,2.267860166833791,0.13931349521317493,5.850284087666176,1.7203727087996203,0.018141348256533994,0.03816875462532396
27,27,52.7123417692,5271.5,1521547161.0,129748463.0,,3170560.0,1521547160.0,147647788.0,,0.7097422241175,-0.15021230996699994,0.11420767527,-0.1326721228045,0.9893671263005,-0.0031379564935649995,0.05950536690805,0.0015127506498849993,0.00829314650789,0.005213710563119999,0.0025618924175725,-0.007556042931859999,0.0037951426066999967,3.615486621855,1.469876646995,4.7045776844,0.260854870081,1.745116591455,0.5851229727264999,2212521.0,1521547160.0,154353098.5,,,,,,2674443.5,1521547161.0,121364427.5,,0.4220000743865,-1.1910000041150002,-2.067000579835,-0.07000000029805001,-0.0619999989867,-0.1059999987485,20.0,26.5,30.5,42.5,87.0,-199.5,-188.0,-178.0,-173.0,-160.0,5.0,0.3500000238419999,0.12999999522499972,-0.22500038147000034,-0.004000002518300017,0.024000003933949996,-0.018500000238600003,2.422613561759772,0.14135062663730857,6.112718876142449,1.8589906062777157,0.009911986247268741,0.008835167511287862
28,28,52.8149058718,5280.5,1521547161.0,220245480.0,,3170569.0,1521547160.0,237659443.0,,0.709510038178,-0.14961785454600002,0.11400227606550001,-0.1336904763515,0.9892500840565,-0.0030804875904000004,0.05917417004985,-0.0076067568076100016,0.003342807723811,-0.00278585831833,0.003184365355945,0.016901414568259998,0.005354939604814501,3.3325170278550003,1.5598103404049999,5.238067865375,0.192961893976,1.66313523054,0.5678800344465,3170922.0,1521547160.0,235722619.0,,,,,,2674453.0,1521547161.0,215432915.5,,0.03200008869155002,-0.7659999996404999,-1.807000350955,-0.08549999818205001,-0.07000000029805001,-0.110500000417,22.0,22.0,29.0,34.0,96.5,-206.0,-192.0,-183.5,-171.0,-149.5,5.0,-0.3899999856949499,0.42500000447450026,0.2600002288800003,-0.015499997884,-0.008000001311350008,-0.00450000166850001,1.9629137203343925,0.15627059807594823,6.401252455672412,1.7679764764026422,0.008763453610209849,0.018013144514480113
29,29,52.91746997439999,5292.5,1521547161.0,339733958.0,,3170578.5,1521547160.0,332665605.5,,0.7095985715605,-0.15008687551549998,0.11430265787499999,-0.133361046697,0.9892844890075,-0.003330305339315,0.05932766906205,0.0014646646582300005,0.010016152533245,-0.0008651617476949994,-0.0028706018767965,-0.007056609405645,0.007942614831439999,3.622032403945,1.46462512016,4.994550943375,0.312300801277,1.7384247779850002,0.617267638445,1254135.0,1521547160.0,345999872.0,,,,,,2674464.5,1521547161.0,331782238.5,,1.392000102995,-2.4310000062,-0.1820003509525,-0.09100000187755,-0.115000002086,-0.0905000008643,24.0,26.5,28.5,45.0,54.0,-212.5,-209.0,-185.0,-180.0,-169.5,5.0,1.36000001430345,-1.6650000065595,1.6250000000024998,-0.005500003695499993,-0.04500000178794998,0.0199999995527,2.807231633590168,0.17232600203664103,6.341118560932243,1.8710082406718365,0.010159579665516331,0.011005508702441507
30,30,53.0200340769,5299.5,1521547161.0,409678935.5,,3170586.0,1521547160.0,407663737.0,,0.709841606526,-0.149226401809,0.11434475497000005,-0.134437335099,0.989112458029,-0.0031093621271500002,0.05977859291680001,0.00642539190433,0.023109389046800002,0.00211455513003,0.011273934406700001,-0.0279138789656,0.0443975831666,2.71543550491,1.3078284263600002,4.97430419922,0.392955929041,1.48790740967,0.64735019207,2212539.0,1521547160.0,410860012.0,,,,,,2674471.5,1521547161.0,403128330.0,,0.27199997901920003,-1.8859999895099997,0.16800003051749998,-0.07000000029805001,-0.130499996245,-0.09450000151985,21.5,27.5,31.0,34.0,63.0,-235.0,-208.0,-194.0,-189.0,-173.0,5.0,-1.1200001239758,0.5450000166900002,0.35000038147,0.021000001579499997,-0.015499994159000009,-0.004000000655550007,1.912904587080089,0.17567156670595177,5.81615916567788,1.669534394102868,0.024079054521274828,0.05364169671951013
31,31,53.122598179499995,5313.5,1521547161.0,549677490.5,,3170600.0,1521547160.0,547676064.0,,0.709076156012,-0.148306783789,0.114212431884,-0.134178586385,0.9891887840629999,-0.00263936960601,0.0591159045191,-0.013863059818200001,-0.014870554917899997,-0.0011834085490000001,-0.0235330222753,0.0278358044875,0.000174307389883,2.7843475341799997,1.1367962360400001,4.86663722992,0.40023785829499997,1.4177894592299998,0.6017776131629999,2212548.5,1521547160.0,551360248.0,,,,,,2674485.5,1521547161.0,543312651.0,,-0.7329998970015,-1.0159999847405,-1.932000350955,-0.08549999818205001,-0.07050000131129999,-0.0764999985695,22.5,28.0,30.0,49.0,49.0,-233.5,-212.0,-191.0,-182.0,-181.0,0.0,-1.0049998760207002,0.8700000047695,-2.1000003814725,-0.015499997884,0.059999994933700014,0.018000002950350008,2.3026441700981826,0.13465789859921828,5.720931287912167,1.5913684644419788,0.020364633237137306,0.03645086462544145
32,32,53.2251622821,5322.5,1521547161.0,640164494.0,,3170608.0,1521547160.0,627664192.0,,0.708314105539,-0.148147754139,0.114224455169,-0.13518068075200002,0.989074229729,-0.00285123837573,0.05873859104169999,-0.016394642231299997,-0.007364129331659999,-0.0073407608987600004,-0.019052100688900002,0.027850511616400002,0.00274128057822,2.15727710724,1.09972774982,4.67416906357,0.34658408165,1.16533660889,0.575644373894,2212555.0,1521547160.0,646858512.5,,,,,,2674494.5,1521547161.0,632863280.0,,-0.6080000162125,-1.085999996215,-0.9119998931885,-0.08300000056625001,-0.09649999812245,-0.08049999922515,24.5,25.0,31.0,45.5,67.5,-233.0,-206.0,-203.5,-191.5,-173.0,-1.0,0.12499988078900005,-0.07000001147450008,1.0200004577664998,0.002499997615799998,-0.02599999681115001,-0.004000000655649996,1.5429853585401307,0.1506037835078505,5.2641335541550225,1.3451752238530985,0.019413950274957032,0.033854809956101385
33,33,53.3277263846,5333.5,1521547161.0,749685406.0,,3170622.5,1521547160.0,772664107.0,,0.7072539275235,-0.14947888370200002,0.11273577982,-0.134772105047,0.9892018896379999,-0.0035048188852649996,0.05747217908339999,-0.005894680303145001,-0.006867094321755,-0.00735104103828,-0.004225663531435,0.007456003298029998,-0.0016883635045100002,2.567712783815,1.162496507165,4.77043104172,0.35935586690899995,1.33902913332,0.5853294730185,2212564.0,1521547160.0,768373425.5,,,,,,2674505.5,1521547161.0,742610409.5,,-0.9179999589905,-1.0509999960654999,-1.8219997406,-0.08150000125169997,-0.06450000032785,-0.10249999910595,26.0,28.0,30.5,35.0,61.5,-236.0,-208.0,-205.0,-201.0,-184.0,-1.0,-0.309999942778,0.03500000014949989,-0.9099998474115001,0.0014999993145500409,0.0319999977946,-0.021999999880799998,2.2949962900150203,0.14597516933725233,5.540898789288933,1.5049073894913747,0.011659418709637374,0.008734917789223619
34,34,53.430290487200004,5342.5,1521547161.0,839676499.0,,3170631.5,1521547160.0,862686044.0,,0.7066568761260001,-0.148501713077,0.1127676108575,-0.134930413521,0.9891902306655,-0.0029672471118450004,0.05733735968385,-0.01252065927125,-0.015322662004110001,-0.010466182921165,-0.02668274351015,0.02564182090045,0.001780597639206,2.85602724552,0.9977037310615,4.89192843437,0.46491593122450003,1.4455879926700002,0.6139277815815001,2212570.5,1521547160.0,864381735.5,,,,,,2674514.5,1521547161.0,831971871.5,,-0.8530000209805002,-2.640999984745,-1.65200157166,-0.02699999976905,-0.11149999871865,-0.08300000056625,26.5,27.5,30.0,66.5,71.5,-236.0,-210.0,-197.0,-196.0,-188.0,-1.0,0.06499993800999981,-1.5899999886795,0.16999816893999986,0.05450000148264997,-0.04699999839079999,0.0194999985397,3.229798623441241,0.1415989046418974,5.751805644241147,1.6379190421555048,0.022385081291302494,0.037049187687072875
35,35,53.5328545897,5350.5,1521547161.0,919679045.0,,3170640.5,1521547160.0,952668587.0,,0.7063806592020001,-0.148968497182,0.112217066716,-0.13509745021199998,0.9891976750995,-0.00318697392285,0.05680108736995,0.00031065332090499977,0.004941582758214999,-0.0010051726267650003,0.008272321642945,-0.0010726684175549998,-0.0012459677111500006,3.5299829244599996,1.214506566525,5.14761543274,0.397270426154,1.71563005447,0.624424368143,2212576.0,1521547160.0,948361132.0,,,,,,2674522.5,1521547161.0,913244536.5,,-0.3330000400545,-2.0560000062,-2.07200164795,-0.06499999947849999,-0.07949999719860001,-0.08800000324844999,14.5,19.0,34.5,43.5,69.0,-240.5,-209.0,-203.0,-196.0,-186.5,-1.0,0.5199999809260002,0.5849999785450001,-0.42000007629,-0.037999999709449984,0.032000001520049975,-0.0050000026821999935,2.9378931024253103,0.1352377538208529,6.358753831569087,1.8684528537878875,0.0050523378402156285,0.008434118711257542
36,36,53.63541869229999,5362.5,1521547162.0,39747953.0,,3170652.5,1521547161.0,72672720.5,,0.7069556872545,-0.1485884450455,0.112950845174,-0.13480982272550002,0.9891915422745,-0.00289875726703,0.057601216336699984,0.0011348479091850005,0.007244821215305,0.002460955598191501,0.00416843937123,0.0017126594075649992,0.008937223590145,2.69602227211,1.20525443554,4.88516354561,0.37445153296,1.405606031415,0.5957332849504999,2212584.5,1521547161.0,65377287.0,,,,,,2674534.5,1521547162.0,33071115.5,,0.232000017166,-2.3309999823600003,-1.6670009613049999,-0.0605000015348,-0.09349999949335,-0.0954999998212,22.5,27.0,34.0,34.0,77.5,-244.5,-210.0,-206.0,-200.0,-189.0,-1.0,0.5650000572205001,-0.27499997616000016,0.405000686645,0.004499997943699992,-0.01400000229475,-0.007499996572750009,2.8751134118012005,0.1467063395249723,5.708414597194118,1.5718907127673454,0.007735089959075142,0.010009148542118132
37,37,53.7379827949,5374.5,1521547162.0,159689426.0,,3170664.5,1521547161.0,192665605.5,,0.7069766542535,-0.148589934007,0.1128325423425,-0.1354395216205,0.9891006604165,-0.0031897487136500003,0.05766926734765,-0.002183795235965,-0.0065404817449450006,-0.0045087113347745,0.002195075537195,0.0077596891433849985,-0.00218902121629,3.1046302318550003,1.22430461645,5.007315874100001,0.3530866652725,1.5622998475999998,0.5965267419815,3171017.5,1521547161.0,190721931.0,,,,,,2674546.5,1521547162.0,152939943.5,,-0.19799993038195002,-1.1109999965865,-1.302001190184,-0.0655000023544,-0.1070000007747,-0.10550000146050001,21.5,29.0,42.0,44.0,57.5,-223.0,-214.0,-205.0,-203.0,-194.0,-1.0,-0.42999994754795,1.2199999857735002,0.36499977112099996,-0.0050000008195999965,-0.013500001281349984,-0.010000001639299995,1.723000889171858,0.16391918979295167,6.017546255195939,1.7091796748450119,0.008238649221134875,0.008356012571874618
38,38,53.840546897399996,5382.5,1521547162.0,239667057.5,,3170670.5,1521547161.0,251801004.5,,0.7070770661795001,-0.148463795307,0.112845239878,-0.13558506052549998,0.9890723077085001,-0.0030567430973850005,0.05782094616705,0.0022453760423200003,-0.0008539120350100003,0.001846858224015,0.008109135157145002,-0.0058801223743699975,-0.0158725434392255,3.2293317318000003,1.3486715555200002,4.983477354050001,0.298196606338,1.6088939905200002,0.5867123007774999,1254171.0,1521547161.0,252999936.0,,,,,,2674554.5,1521547162.0,232138419.5,,0.117000007629325,-2.00599999428,-0.2670013427735,-0.059000000357599995,-0.132500000298,-0.112500000745,24.0,25.0,30.5,57.0,68.0,-242.0,-220.0,-205.5,-205.0,-166.0,-1.0,0.314999938011275,-0.8949999976935001,1.0349998474105,0.006500001996799995,-0.0254999995233,-0.0069999992845,2.0270704713648895,0.1835578935616548,6.089543902215364,1.7383015885186603,0.0030301426756130455,0.018768898405727284
39,39,53.943111,5395.5,1521547162.0,369659542.5,,3170683.0,1521547161.0,376796400.0,,0.70708438082,-0.148465742619,0.11314333140900001,-0.135425386586,0.9890919621200002,-0.0031114034054800003,0.0578564975297,0.00027409350121,0.00424640587701,0.00423654644058,-0.0032267658661,-0.0055298389184599995,0.0208254000071,2.9801440239,1.29664218426,4.85839557648,0.30589556694000003,1.5082958936700002,0.5892103314399999,3171036.0,1521547161.0,374895819.0,,,,,,2674567.5,1521547162.0,362139729.0,,-0.3730000019075001,-1.28600000292,-0.4870006561275,-0.035499999299650004,-0.160500004888,-0.121500000358,23.5,27.5,36.0,45.5,51.5,-250.0,-217.5,-212.5,-203.0,-185.0,-1.0,-0.490000009536825,0.7199999913600001,-0.219999313354,0.023500001057950002,-0.028000004590000016,-0.008999999613000007,1.4248138994275186,0.20440829632457969,5.8452157303858225,1.6479373214448914,0.006004616212790098,0.021787345452681094
