,Unnamed: 0,Unnamed: 0.1,.header.seq,.header.stamp.secs,.header.stamp.nsecs,.header.frame_id,.endpoint_state.header.seq,.endpoint_state.header.stamp.secs,.endpoint_state.header.stamp.nsecs,.endpoint_state.header.frame_id,.endpoint_state.pose.position.x,.endpoint_state.pose.position.y,.endpoint_state.pose.position.z,.endpoint_state.pose.orientation.x,.endpoint_state.pose.orientation.y,.endpoint_state.pose.orientation.z,.endpoint_state.pose.orientation.w,.endpoint_state.twist.linear.x,.endpoint_state.twist.linear.y,.endpoint_state.twist.linear.z,.endpoint_state.twist.angular.x,.endpoint_state.twist.angular.y,.endpoint_state.twist.angular.z,.endpoint_state.wrench.force.x,.endpoint_state.wrench.force.y,.endpoint_state.wrench.force.z,.endpoint_state.wrench.torque.x,.endpoint_state.wrench.torque.y,.endpoint_state.wrench.torque.z,.joint_state.header.seq,.joint_state.header.stamp.secs,.joint_state.header.stamp.nsecs,.joint_state.header.frame_id,.joint_state.name,.joint_state.position,.joint_state.velocity,.joint_state.effort,.wrench_stamped.header.seq,.wrench_stamped.header.stamp.secs,.wrench_stamped.header.stamp.nsecs,.wrench_stamped.header.frame_id,.wrench_stamped.wrench.force.x,.wrench_stamped.wrench.force.y,.wrench_stamped.wrench.force.z,.wrench_stamped.wrench.torque.x,.wrench_stamped.wrench.torque.y,.wrench_stamped.wrench.torque.z,.tactile_values.tactile_values_0,.tactile_values.tactile_values_1,.tactile_values.tactile_values_2,.tactile_values.tactile_values_3,.tactile_values.tactile_values_4,.tactile_values.tactile_values_5,.tactile_values.tactile_values_6,.tactile_values.tactile_values_7,.tactile_values.tactile_values_8,.tactile_values.tactile_values_9,.tag,.delta_wrench.force.x,.delta_wrench.force.y,.delta_wrench.force.z,.delta_wrench.torque.x,.delta_wrench.torque.y,.delta_wrench.torque.z,.wrench_stamped.wrench.force.magnitude,.wrench_stamped.wrench.torque.magnitude,.endpoint_state.wrench.force.magnitude,.endpoint_state.wrench.torque.magnitude,.endpoint_state.twist.linear.magnitude,.endpoint_state.twist.angular.magnitude
0,0,54.987961,5499.5,1521533000.0,577340483.0,,1754548.0,1521533000.0,27360438.5,,0.746278978936,-0.137808821553,0.003177076286285,-0.252442470284,0.9665836583425,0.014416355208100001,0.042198180030450005,0.01306434087712,-0.006139413019020001,0.009249033430595,-0.004061705420589999,-0.022232520114605005,-0.008974195783300002,-0.445109680295,1.6765471100799998,8.634048461910004,0.5914658606050001,0.2394709587095,0.568046182394,1224431.5,1521533000.0,19207359.5,,,,,,1259876.0,1521533000.0,574301888.5,,0.2379999876025,-2.82999996319,1.13100090027,0.1664999946955,-0.08700000122189999,-0.009000000078235001,167.5,227.5,246.0,523.5,815.5,331.0,366.0,582.0,958.5,984.0,5.0,0.0,0.0,0.0,0.0,0.0,0.0,3.0569113206250758,0.1880751138444966,8.806572868171841,0.8543153221491804,0.017143920618457282,0.024317043231588946
1,1,55.090525102600004,5505.5,1521533000.0,630377053.5,,1754553.0,1521533000.0,77368775.0,,0.7460197177685,-0.137256652166,0.0031263474777750004,-0.252894350935,0.9664732822490001,0.0144840134925,0.041999358317599995,-0.00703761805060195,0.01132149041223,-0.0023780293920000004,0.0015568335274500009,0.007442615124479998,0.02365350563325,-0.462873071432,1.6337878108000001,8.66019678116,0.669525027275,0.242943145335,0.5881524682045001,1224435.0,1521533000.0,69726744.5,,,,,,1259881.0,1521533000.0,623684487.5,,-0.2020000100135,-2.21500001326,1.32600059509,0.1814999952915,-0.08000000193715,-0.031499999575350004,147.0,224.5,241.0,521.0,806.5,345.0,368.0,588.0,950.0,964.5,5.0,-0.439999997616,0.6149999499300005,0.1949996948199999,0.015000000596000013,0.006999999284749993,-0.022499999497115,2.589460685348648,0.20083450543670422,8.82510749959396,0.9236928384846869,0.013541020521718078,0.024845614890067026
2,2,55.1930892051,5520.5,1521533000.0,781997084.5,,1754567.5,1521533000.0,222579788.5,,0.7459591663555001,-0.137395523357,0.003125550260225,-0.252827968334,0.9664872180615001,0.0146211362131,0.04203129861785,0.0056299966237000005,0.004240087976199999,0.00801212405786,0.009383498971595,-0.012628130143249998,-0.015444570608864996,-0.402204334736,1.79630923271,8.990649223325,0.7143994867804999,0.317068442702,0.625771611929,1224444.5,1521533000.0,210280756.5,,,,,,1259896.0,1521533000.0,774437564.0,,1.60799999237,-1.225000013037,2.050999069215,0.192500002682,-0.0725000016391,-0.043500000610949996,143.0,225.0,231.5,519.0,806.0,332.5,378.0,573.5,942.0,975.0,5.0,1.8100000023835,0.9900000002229996,0.724998474125,0.011000007390499972,0.007500000298049994,-0.012000001035599998,2.8797371736537634,0.2102492599829834,9.177160162232871,1.0012437936716172,0.01067095778022424,0.022046643398871406
3,3,55.29565330770001,5530.5,1521533000.0,880609988.5,,1754576.0,1521533000.0,307670146.5,,0.7459266616615,-0.135862833192,0.00342910773713,-0.25340153118000003,0.9663158343205,0.0152613917707,0.04228586908985,0.000296317433599,-0.0012752971527,0.00032108099355565,0.0018495597300499985,0.00019452499230000013,-0.01003540681659,0.06441095471385,1.6988390088099998,8.857042312619999,0.6608877182005,0.4369945675135,0.6040172576905001,1224451.0,1521533000.0,305384320.5,,,,,,1259906.0,1521533000.0,874357807.0,,-0.651999998093,-2.80999998227,1.6810001373299999,0.18999999761599998,-0.0759999975562,-0.035000000148999996,150.0,227.0,274.0,531.5,819.0,324.0,404.0,583.0,949.5,964.0,5.0,-2.259999990463,-1.584999969233,-0.3699989318849999,-0.002500005065999983,-0.003499995917099999,0.00850000046195,3.338707138934793,0.20760780027025094,9.018725036083687,0.996279918342494,0.0013480652260043312,0.01020627753601248
4,4,55.3982174103,5540.5,1521533000.0,980502008.5,,1754586.0,1521533000.0,407666520.5,,0.7461421329060001,-0.136345123005,0.00366523657479,-0.2526501899615,0.966508632245,0.01523829755075,0.0423869871579,-8.150195074600004e-05,-0.004734520716645,0.00392423126093,0.0068356990878000005,-0.002373405070495,-0.009082633020795,0.11641238629815,1.48360776901,8.835438728335001,0.7160083651539999,0.4471222162245,0.6153473854064999,1224458.0,1521533000.0,405871272.0,,,,,,1259916.0,1521533000.0,974724060.0,,0.06800003051779999,-2.12500003949,1.2559989929200002,0.1489999964835,-0.059000000357599995,-0.0219999998808,144.0,223.0,262.0,526.5,793.0,347.5,374.0,570.0,964.5,987.0,5.0,0.7200000286108,0.6849999427799998,-0.4250011444099999,-0.041000001132499984,0.0169999971986,0.013000000268200002,2.469368875279467,0.16175907699116923,8.959889585151844,1.0446236929816535,0.006149952843199398,0.011612667920768115
5,5,55.500781512799996,5548.5,1521533001.0,60488104.5,,1754593.5,1521533000.0,482667437.5,,0.7456499895914999,-0.1364845882495,0.003050598490605,-0.2529146877705,0.9664633060250001,0.015345319547950001,0.041800248420400005,0.0018972979154750003,0.013166530359715,-0.0018839857016150004,0.0043950983843850005,-0.006097708490024999,-0.001073514949849995,0.2367319613695,1.6389972567550002,8.847764968869999,0.6311982274054999,0.493923842907,0.5974781513209999,1754947.0,1521533000.0,485728805.5,,,,,,1259924.0,1521533001.0,55091545.0,,0.407999944687,-1.66000000611,2.1409992218,0.15099999308599998,-0.0610000006855,-0.0280000008643,152.5,223.5,255.5,510.0,797.0,351.5,371.0,584.0,960.5,978.0,5.0,0.3399999141692001,0.4650000333800002,0.8850002288799999,0.0019999966024999705,-0.0020000003279000006,-0.0060000009834999994,2.7396973633775685,0.16524526632858155,9.00140538880165,0.9996760006011066,0.0134352768195245,0.007592850122667905
6,6,55.6033456154,5558.5,1521533001.0,160522460.5,,1754605.0,1521533000.0,597663685.0,,0.7459614799250001,-0.136545043391,0.00331998964954,-0.253023458009,0.9664212539139999,0.015199018127299999,0.042167280293300004,0.0137980452385,0.00435476304532,0.006909738535430001,0.018049570889400002,-0.030663807698800002,-0.006970112699919999,0.0107380151749,1.60566878319,8.80674552917,0.677766919136,0.39388185739500003,0.589202642441,1754957.0,1521533000.0,585732999.0,,,,,,1259933.5,1521533001.0,151034528.5,,0.6530000686639998,-0.26499999538054997,1.711000823975,0.16149999946350002,-0.06449999846519999,-0.03849999979135,154.0,225.5,265.0,514.0,787.5,334.0,349.0,623.0,956.0,976.0,5.0,0.24500012397699986,1.39500001072945,-0.4299983978249999,0.010500006377500036,-0.00349999777969999,-0.01049999892705,1.850448028686569,0.17811442842357061,8.951930203137003,0.9806480857675178,0.0160341666516406,0.03625794510076444
7,7,55.7059097179,5568.5,1521533001.0,260459899.0,,1754614.0,1521533000.0,687661174.0,,0.7461107021179999,-0.136173675551,0.00365550520266,-0.2534649469925,0.9663050008365,0.0147574766995,0.0423344123542,0.0007776075521099997,0.006742497231479999,0.002663252454285,0.0032008309297400003,-0.004642290641549999,0.00831226992249,0.32543742656700003,1.679311394695,8.80730867386,0.6143828928475,0.536345332861,0.5823902487754999,1754967.0,1521533000.0,685713043.5,,,,,,1259943.5,1521533001.0,251091755.5,,-0.07200001478185,-1.254999975115,1.476000213625,0.166500002146,-0.07200000062584999,-0.038999998942,155.0,226.0,238.0,520.0,798.0,337.0,345.0,589.0,939.0,969.0,5.0,-0.7250000834458499,-0.98999997973445,-0.23500061035,0.0050000026824999775,-0.007500002160649998,-0.0004999991506500004,1.9387587705251736,0.1855458183905431,8.97188287683319,1.002153210329752,0.007291012004987308,0.010044402038236764
8,8,55.80847382050001,5581.5,1521533001.0,390407085.0,,1754629.5,1521533000.0,842670453.5,,0.7453912508095001,-0.1359498365225,0.00325908162511,-0.252878651652,0.966473548866,0.015536738289399997,0.0417104685937,-0.0013715699787084994,0.00977001163725,0.0005903259649814999,-0.002374747086537,-0.0037409969982575,0.01832449109048,0.25397220253950004,1.725048065185,8.790101528165,0.612800717354,0.4858037680385,0.5984667241575,1754981.0,1521533000.0,825721059.0,,,,,,1259957.0,1521533001.0,385778978.0,,0.6480000734329999,-0.3550000287585001,1.790998840335,0.1574999988075,-0.07450000196695,-0.0555000007153,147.5,223.0,241.5,525.5,800.0,350.5,369.0,590.0,959.0,972.5,5.0,0.72000008821485,0.8999999463564999,0.3149986267099998,-0.009000003338499984,-0.002500001341100011,-0.016500001773299997,1.937422504687355,0.18285718470116605,8.961371411916256,0.9847296279455549,0.009883461759091609,0.018852624644623582
9,9,55.911037923100004,5589.5,1521533001.0,471291422.5,,1754637.5,1521533000.0,922677435.0,,0.7455407692185,-0.1368555729825,0.003218368716985,-0.2527839512005,0.9665029774335,0.015059259886849996,0.04177492069185,-0.006832623967543104,0.012417732851674999,-0.0006868841933999999,0.00538250277318,0.009319702663085,0.008227379365775002,0.17226488888299998,1.7368775606150002,8.806056976319999,0.5859516859055001,0.4397505074735,0.5733601748945001,1754990.5,1521533000.0,920723117.5,,,,,,1259965.0,1521533001.0,465183602.0,,0.338000011444,-1.26000002995,1.6810001373299999,0.158000007272,-0.0680000036955,-0.0430000014603,154.5,223.0,240.0,515.0,804.0,349.0,370.5,595.0,961.0,985.5,5.0,-0.31000006198899993,-0.9050000011915,-0.1099987030049998,0.0005000084644999904,0.006499998271450008,0.012499999254999998,2.127817084458536,0.17730483052112786,8.977363662161844,0.9303019817208551,0.01419001935701836,0.013546880270379019
10,10,56.0136020256,5601.5,1521533001.0,590427994.5,,1754649.5,1521533001.0,42663799.5,,0.7458191800759999,-0.1358947671465,0.003484058412535,-0.253077371014,0.966412433885,0.01526816905385,0.0420186673897,-0.00579761363192,0.00900116133467,-0.00410276888648,-0.005968039178729999,0.008376522382335001,0.0204363974603,0.1694049984216,1.77326887846,8.87969350815,0.6188952624794999,0.477682620287,0.59017765522,1755001.0,1521533001.0,25711849.0,,,,,,1259977.0,1521533001.0,585109535.0,,0.13800002336525,-1.410000006108,1.666000747685,0.149500004947,-0.06900000199675001,-0.033500000834450004,156.0,224.5,266.5,521.0,805.5,350.0,369.5,611.5,972.5,983.0,5.0,-0.19999998807875,-0.14999997615799998,-0.014999389645000027,-0.008500002325000006,-0.000999998301250013,0.009500000625849998,2.186939074359491,0.1680282768185542,9.05660738728837,0.9795517834013678,0.011465859834031254,0.022878591740226755
11,11,56.1161661282,5610.5,1521533001.0,681128501.5,,1754658.5,1521533001.0,132668544.5,,0.7458781780450001,-0.136388089787,0.0033879598551249997,-0.2528148832085,0.9664749280565,0.0153914021962,0.0421163530073,0.0120492186921,-0.006581517493496501,0.00415273643772,-0.008858833554055,-0.02672652192415,-0.003677502280500001,0.186796620488,2.99731826782,8.58135461807,0.0268989875913,0.408916696906,0.493448674679,1755011.0,1521533001.0,125715541.0,,,,,,1259986.0,1521533001.0,674806617.5,,0.343000006676,-1.63000003472,2.18100013733,0.1630000025035,-0.0680000036955,-0.04600000195204999,141.0,226.0,252.0,534.0,793.0,352.0,359.0,616.0,960.0,974.0,5.0,0.20499998331075,-0.22000002861200008,0.5149993896449998,0.0134999975565,0.000999998301250013,-0.012500001117599982,2.744323362288128,0.18250753819587184,9.091669640781308,0.6414265469127481,0.01434382318381051,0.02839559700241578
12,12,56.2187302308,5622.5,1521533001.0,800379037.0,,1754668.5,1521533001.0,231899670.0,,0.7453088085855,-0.13659949551400002,0.00396437872003,-0.2526495389465,0.966474673321,0.01572787718035,0.04298039691435,-0.023597544003550002,-0.005272051150935,0.011602540478700001,0.018976284560620005,-0.0044103349772500015,0.0016426538238810005,-1.3042325377475,0.276133954525,11.8308053017,1.40596830845,0.634101361036,0.8299440145495001,1755021.0,1521533001.0,224948278.0,,,,,,1259998.0,1521533001.0,796322555.0,,1.4980000972749998,-0.2100000031295,5.535999679565,0.11250000447035,-0.2754999920725,-0.07650000043215001,140.0,196.0,231.5,508.5,737.0,334.0,372.0,584.0,920.0,958.0,5.0,1.155000090599,1.4200000315905,3.3549995422350003,-0.05049999803315001,-0.207499988377,-0.030499998480100026,5.738936900236322,0.3072600636332279,11.905680432469776,1.7514675240266382,0.026818977458087877,0.019551182622089408
13,13,56.3212943333,5632.5,1521533001.0,901221990.0,,1754678.0,1521533001.0,326877080.0,,0.740203669094,-0.135803626808,0.005499992291539999,-0.251562652741,0.966733671816,0.019314022849000002,0.0420619548229,-0.0888369842256,0.021742747385400003,0.020487113860900002,0.104395062972,0.0941508869794,-0.0431977360824,0.96804279089,0.0606664419174,13.918609619100001,1.40538620949,1.65951693058,1.01234090328,1755031.0,1521533001.0,324972620.0,,,,,,1260008.5,1521533001.0,901069363.0,,-0.7419999718670001,-0.934999997168,7.525999450685,-0.042500000447,-0.32250000536449996,-0.0534999985248,141.0,178.0,232.5,453.5,634.0,210.5,264.0,478.0,731.0,857.0,5.0,-2.240000069142,-0.7249999940385001,1.9899997711200001,-0.15500000491735,-0.047000013292000035,0.02300000190735001,7.6200693359487035,0.3296585405237533,13.952364709649476,2.3987373647734134,0.09372554968904853,0.14706720604737236
14,14,56.4238584359,5640.5,1521533001.0,980436086.0,,1754686.0,1521533001.0,406872179.0,,0.7314575421960001,-0.137127545405,0.008651745140459998,-0.250352518374,0.96720239255,0.021786482242700002,0.036993209919699996,-0.13204517109799999,-0.0456749471321,0.053040688772300004,-0.0334459023231,0.170818089916,-0.00781894700721,2.65074396133,0.5194749832150001,13.5699901581,0.85699903965,2.00526213646,0.954153180122,1224527.5,1521533001.0,410976368.0,,,,,,1260016.0,1521533001.0,974823377.5,,0.08799995183949992,0.6599999867369001,7.476000213619999,-0.07299999892714999,-0.29699999094,-0.0949999988078,115.0,197.0,206.5,407.0,433.0,162.0,254.5,416.5,587.0,888.0,5.0,0.8299999237064999,1.5949999839049005,-0.04999923706500109,-0.030499998480149986,0.02550001442450001,-0.041500000283,7.505592792582258,0.32025457722756434,13.836218077843546,2.380321801987721,0.14945046895630743,0.174237149187705
15,15,56.5264225385,5650.5,1521533002.0,80857038.0,,1754696.0,1521533001.0,506877481.5,,0.7199876756395001,-0.1407447838845,0.01642128769125,-0.2538639560785,0.966576226619,0.019093570033850003,0.0302992820929,-0.11051660164875,-0.02829074224765,0.09369436166895,-0.07680512101904999,0.09749193278595,0.07131550240875001,3.658878564835,-0.41182808578,13.31136083605,1.6690668463700002,2.05529248714,1.0406546592705,1224534.0,1521533001.0,506981117.5,,,,,,1260026.0,1521533002.0,74516807.0,,-1.9719999872099998,1.8600000940299999,5.820999526980001,-0.133000001311,-0.10400000214600001,-0.0839999988675,151.5,184.0,223.0,282.0,351.0,116.0,267.0,328.0,374.5,879.5,5.0,-2.0599999390495,1.2000001072931001,-1.6550006866399984,-0.060000002383850025,0.192999988794,0.0109999999403,6.421247526178168,0.18857624613093243,13.811202772820765,2.8448151899916145,0.14762424850092706,0.14314190321811268
16,16,56.628986641000004,5663.5,1521533002.0,211377024.0,,1754709.0,1521533001.0,636878690.5,,0.7095413395544999,-0.14286623432849999,0.02879038607575,-0.257482159663,0.9657463816745,0.0171728329425,0.0272377497954,-0.050342215695900014,0.009255162943595,0.1243551911255,-0.0025284838840299983,-0.025636222654749997,0.026587082076495003,3.3819282054900004,-0.4898187071085001,11.5185890198,1.5413264036199998,1.21886757016,0.8819377720355001,1755062.0,1521533001.0,634989882.5,,,,,,1260038.5,1521533002.0,201810328.5,,1.218000006674,-5.96049998247139e-09,0.2460006713850001,-0.08550000190734999,-0.109500002116,-0.051500000059599996,37.5,51.0,87.0,90.5,90.5,9.5,21.5,31.0,64.0,237.0,5.0,3.189999993884,-1.8600000999905,-5.574998855595,0.04749999940365002,-0.005499999970000002,0.032499998807899985,1.2425942002841213,0.14816460709528326,12.0147931218136,2.1538661680398916,0.1344775456429238,0.03702002263772941
17,17,56.731550743599996,5672.5,1521533002.0,300819993.0,,1754718.0,1521533001.0,726877429.5,,0.7131494357800001,-0.140855692609,0.04307866986215,-0.2593131656145,0.964961635307,0.01570656221125,0.03684542934905,0.0829117444553,0.013531266189687,0.1872762954905,0.0168928944566,-0.28504199439550004,0.015242585274999996,5.9987521171600005,0.1179121583698,5.121948003770001,1.0426722764949998,2.3815150260949998,0.8725380301475001,1224550.0,1521533001.0,724486561.5,,,,,,1260048.0,1521533002.0,294587343.0,,-1.34699997604,1.414999981972,-0.6289993286150001,-0.08049999922500001,-0.0819999985397,-0.08799999952314999,17.0,18.5,22.0,33.5,39.5,-30.5,-27.0,-14.5,-8.5,55.0,5.0,-2.564999982714,1.4149999879325,-0.8750000000000001,0.005000002682349986,0.027500003576300003,-0.03649999946354999,2.0523825276567336,0.14473510131205283,7.888807361924013,2.7422804214268846,0.2052556050049845,0.2859486752162908
18,18,56.8341148462,5681.5,1521533002.0,390457391.0,,1754729.5,1521533001.0,841926554.5,,0.7277501716689999,-0.1406245024275,0.06307577631040001,-0.26027952513700003,0.963855954283,0.010118414450435,0.05597077996045,0.123302063634,-0.0077391134059350015,0.157128552453,-0.047733035816450005,-0.349107381815,0.04859397021505,2.4770953655200003,0.9808131754385,1.4783393740650002,0.670544445515,1.50851249695,0.8310619294645001,1224558.0,1521533001.0,835010611.5,,,,,,1260057.0,1521533002.0,386717807.5,,-0.8669999718670001,-0.37499999478445,-1.3589988708499998,-0.0635000001639,-0.1030000001191,-0.06200000084935,9.0,10.0,14.0,32.0,46.0,-40.5,-35.5,-33.0,-27.0,1.0,5.0,0.4800000041729999,-1.7899999767564498,-0.7299995422349997,0.016999999061100002,-0.021000001579400004,0.02599999867379999,1.6550504156300772,0.13596047275097753,3.0468809034659223,1.8482163665195155,0.19988165190604185,0.35569056873529814
19,19,56.9366789487,5694.5,1521533002.0,520376443.5,,1754742.5,1521533001.0,971923633.5,,0.7326146222425001,-0.140910686991,0.07603989055625,-0.26070405923600004,0.963230338966,0.00726953186565,0.06455832384205,-0.0010175257243350009,0.0198806444311,0.061024306257,0.0602284211795,-0.021046049787095004,-0.0344576816803,2.061792612075,-1.0767238736154998,3.1728433370599998,1.71207678318,1.196756958965,1.09314715862,1224567.0,1521533001.0,970507338.5,,,,,,1260069.5,1521533002.0,511503746.0,,-1.526999998095,-0.409999991208,-1.788999176025,-0.0635000001639,-0.1035000011325,-0.07849999889735003,3.5,4.0,5.5,18.5,27.0,-47.0,-42.5,-39.5,-37.0,-8.0,5.0,-0.6600000262279999,-0.034999996423550006,-0.4300003051750001,0.0,-0.0005000010134000032,-0.016499998048000033,2.3875399554333785,0.1445916667105223,3.9341146293348714,2.3576269511383923,0.06418910605191226,0.07251021139258255
20,20,57.0392430513,5701.5,1521533002.0,591411471.0,,1754749.5,1521533002.0,41923742.5,,0.7326294678605001,-0.1411825693115,0.0780451294136,-0.2620930126925,0.9628296907255,0.00710413499998,0.06492580244355001,0.0010252707788149997,0.0011706672941599991,0.016473355008000002,-0.0046421897320545,0.000669925819025,0.049096933109400005,2.94012665749,0.09611248969999996,2.559399127959,1.0670262873165,1.543755084277,0.986133515835,1224572.0,1521533002.0,36009633.0,,,,,,1260076.5,1521533002.0,581623338.5,,0.303000044823,-0.3150000017135001,-2.668998336795,-0.08900000154969999,-0.08000000193715,-0.058999998495,4.0,7.0,10.5,28.0,41.0,-40.0,-39.0,-39.0,-34.0,-27.0,5.0,1.830000042918,0.09499998949449988,-0.8799991607700002,-0.025500001385799984,0.02349999919535001,0.019500000402350032,2.7045491583731147,0.13342413727733302,3.899244320244237,2.1199490958767426,0.01654669354593559,0.04932045789386273
21,21,57.1418071538,5715.5,1521533002.0,730728983.5,,1754762.5,1521533002.0,171924912.5,,0.7313811801854999,-0.14260008467250002,0.07987887024024999,-0.2605298679125,0.9632858591644999,0.008252483772150002,0.0643135482465,-0.01415680298185,-0.0011716682260050001,0.022781978012700002,0.013035186861586496,0.008699122511169999,-0.00902723774945,1.691437959671,-0.2793958187105,6.930782318115,1.16143864393,0.8259635269619999,0.8441221714020001,1224581.5,1521533002.0,176987152.0,,,,,,1260090.5,1521533002.0,722213258.5,,0.298000049591,-1.3850000001499998,-0.728999710083,-0.0769999995828,-0.10249999910575,-0.03699999954555,3.5,11.0,13.5,31.0,50.0,-57.0,-52.5,-48.0,-44.0,-32.0,5.0,-0.004999995231999954,-1.0699999984364996,1.939998626712,0.012000001966899987,-0.022499997168600003,0.02199999894945,1.5932575458075935,0.13343256618532318,7.139661612151128,1.6564110938223915,0.02684783788817813,0.01808540434621015
22,22,57.2443712564,5722.5,1521533002.0,800402521.5,,1754768.0,1521533002.0,226949363.0,,0.7318587297679999,-0.143134945918,0.0815421829149,-0.25972791436299997,0.963428763276,0.00838698651108,0.06539179650600001,0.0333315255277,-0.0509875794159,0.04975945560930002,-0.0080800862573,-0.0723673997272,-0.0635905159891,3.7659938335400014,1.44920086861,5.76997613907,0.31109094619800004,1.5067948103,0.650658607483,1755121.0,1521533002.0,224977775.0,,,,,,1260097.5,1521533002.0,791870407.0,,-1.4769999861699998,-0.029999995976849988,-1.94399795532,-0.0760000012815,-0.0984999984503,-0.0769999995828,2.5,9.0,11.0,16.5,45.0,-52.0,-49.5,-48.0,-44.0,-40.0,5.0,-1.775000035761,1.3550000041731498,-1.214998245237,0.0009999983013000008,0.0040000006554499895,-0.04000000003725,2.4416299902305285,0.14631216567752767,7.040988379288694,1.6704983689441593,0.07865575167290899,0.09667513672584972
23,23,57.346935359,5735.5,1521533002.0,932340502.0,,1754781.0,1521533002.0,356919534.0,,0.735403797493,-0.143575591797,0.08635273756039999,-0.259553553349,0.963150725907,0.006460533378279999,0.07022032210950001,0.030698627494900002,0.00139685879249,0.0394869842677,-0.0009053591933999999,-0.0913201821159,0.0026565297253899997,0.386765599251,1.1658437252,5.23020172119,0.334474742413,0.634535849094,0.662735044956,1224594.0,1521533002.0,347987950.5,,,,,,1260110.5,1521533002.0,923173513.5,,0.648000073433,1.290000041575,-0.6189990997315,-0.07049999758605001,-0.1315000019965,-0.09499999880805,7.5,18.5,21.0,24.0,47.0,-54.5,-54.0,-52.0,-49.0,-19.0,5.0,2.125000059603,1.3200000375518501,1.3249988555885,0.005500003695449993,-0.03300000354619999,-0.017999999225250002,1.570720881602165,0.1768827293950488,5.372503072562271,0.9765893901279686,0.05003577591198496,0.09136329945405922
24,24,57.4494994615,5744.5,1521533003.0,20478486.5,,1754789.0,1521533002.0,436920898.0,,0.734948953381,-0.143197261811,0.08779190527180003,-0.260319831898,0.962945563381,0.00554417350046,0.07027580824610001,-0.00684723403988,0.0214941419583,0.0195842722475,-0.0027967535038200004,-0.014421288667899997,0.033874899576400004,3.22338795662,0.8547034263609999,4.596602439880001,0.635951638222,1.36056256294,0.7292141914370001,1224600.5,1521533002.0,443507227.0,,,,,,1260119.5,1521533003.0,13117959.0,,-1.30199997425,-0.800000006706,-1.36899909973,-0.0764999985695,-0.09350000321865,-0.05750000104310001,7.5,11.5,28.0,33.0,53.0,-57.5,-56.5,-53.5,-48.0,-46.5,5.0,-1.950000047683,-2.090000048281,-0.7499999999984999,-0.0060000009834499934,0.03799999877785,0.037499997764949985,2.0516730925608373,0.1337936863345112,5.678864486517254,1.6695263732041568,0.029873507862061374,0.036922949751004665
25,25,57.552063564099996,5756.5,1521533003.0,140430449.5,,1754801.0,1521533002.0,556923732.0,,0.736362564068,-0.14018399572,0.0889426270168,-0.261573055717,0.962422289736,0.00688640314502,0.07263229442689999,-0.000346299516954,0.015491933085100001,-0.00480205518674,0.0176950887801,0.00133848769338,0.0217049767479,2.1503286361700003,0.466740071774,5.3864259719800005,0.710072994232,1.42168569565,0.799550533295,1224608.0,1521533002.0,567508215.5,,,,,,1260131.5,1521533003.0,131907452.0,,0.713000011444,0.9499999783915,-1.8140007019050004,-0.07550000026824999,-0.1185000017285,-0.0839999988675,-1.0,1.0,9.0,17.0,35.0,-58.0,-57.0,-46.0,-44.0,-42.0,5.0,2.014999985694,1.7499999850975,-0.4450016021750005,0.000999998301250013,-0.02499999850985,-0.026499997824399983,2.168286771110968,0.16370247481299802,5.818534548299342,1.778953324189744,0.016222812582445595,0.028035936436435118
26,26,57.6546276667,5763.5,1521533003.0,211591481.5,,1754809.5,1521533002.0,641929281.5,,0.7348710684640001,-0.140424008508,0.0880581670568,-0.2615843031165,0.9625475675115,0.0070007685577200005,0.0708991990152,-0.00821604340351,-0.009631959373655002,-0.0033259027626100016,-0.01088224314142,0.016292389280700002,-0.005922202224399999,3.56747674942,1.200445115565,5.251985549925,0.4652585387230001,1.626575350765,0.761209577322,1755162.0,1521533002.0,634980329.0,,,,,,1260139.0,1521533003.0,206811919.0,,-0.3719999670985,-0.029999999702000013,-2.05899963379,-0.0810000002384,-0.0894999988377,-0.055500000715250006,-3.5,5.0,17.5,37.0,68.0,-63.0,-59.5,-55.0,-47.5,-41.5,5.0,-1.0849999785425,-0.9799999780935,-0.2449989318849997,-0.005499999970150007,0.0290000028908,0.02849999815224999,2.0925495137393426,0.13285894742154875,6.461525442939706,1.8551692376108662,0.013089676839801565,0.020467966275366473
27,27,57.7571917692,5776.5,1521533003.0,340460538.5,,1754824.5,1521533002.0,791921326.0,,0.7352020935435,-0.139618124359,0.08808474213539999,-0.2621246471775,0.9623697030005001,0.007035085688259999,0.07131390187855001,0.01246342929995,-9.339914680499968e-05,-0.001675686533485,0.00420951008553,-0.0233305334529,0.006184414645825001,2.05047774315,0.659081220627,5.340725898745,0.6158274114135001,1.217918515205,0.7781947255135,1224624.5,1521533002.0,790008600.0,,,,,,1260151.5,1521533003.0,332800209.5,,-0.1870000243185,1.240000029651,-2.374000167845,-0.08000000193715,-0.06699999794365,-0.08499999716880001,-7.5,-4.5,-3.0,-1.0,2.0,-64.0,-60.0,-56.5,-49.0,-39.0,5.0,0.18499994277999995,1.2700000293529998,-0.31500053405500017,0.0009999983012499991,0.02250000089405001,-0.029499996453550007,2.684854908474141,0.13458825934341045,5.758663052832861,1.5710365817333585,0.01257591820401115,0.024500627560708716
28,28,57.859755871800004,5785.5,1521533003.0,430384039.5,,1754833.5,1521533002.0,881923751.0,,0.7349831906705,-0.1389477682175,0.08828924168675,-0.2624308434545,0.9622887106245,0.006794534455805001,0.071303913903,-0.0166705428067,0.01101539721215,-0.0088487388069,-0.013938212968505,0.03404266408885,0.0284108878586,3.04776787758,0.7813324332234999,4.919646501545,0.6614654064175001,1.4809193015099995,0.7991110682485001,1755185.5,1521533002.0,869999781.0,,,,,,1260160.5,1521533003.0,422239017.0,,-2.59699999094,0.5800000034275,-2.56399879456,-0.0595000013709,-0.0960000008344,-0.09550000354665,-4.0,-3.0,1.5,14.5,34.0,-68.0,-62.0,-53.0,-52.5,-30.0,5.0,-2.4099999666214997,-0.6600000262235001,-0.1899986267149996,0.02050000056625,-0.029000002890750002,-0.010500006377849994,3.695253546838619,0.14790706879913504,5.839716697493074,1.8081031388914715,0.021852829374801725,0.04647962250207744
29,29,57.962319974399996,5795.5,1521533003.0,530431508.5,,1754843.5,1521533002.0,981921524.0,,0.7345075401095,-0.139175384242,0.08777406094335001,-0.262690449208,0.9622676395335,0.0068242063875799995,0.07062569861939999,-0.0023396886501550005,0.0165837360364,0.005003824538952,-0.000425586264545,-0.008533460514435001,0.0276933677825,3.05516207218,1.271584033965,5.01201224327,0.30198880285,1.448125898835,0.6941024661065001,1224636.0,1521533002.0,970504563.5,,,,,,1260170.5,1521533003.0,522819173.0,,-1.63699999005,0.9749999843535,-2.9689994812050005,-0.07950000092389999,-0.0815000012517,-0.0954999998212,-8.5,-6.5,-5.0,2.0,6.5,-62.0,-59.5,-57.0,-51.5,-49.0,5.0,0.9600000008900004,0.394999980926,-0.4050006866450007,-0.019999999552999984,0.0144999995827,3.725450004044006e-09,3.527797025950981,0.14860265918474136,6.005931065988875,1.634026954911876,0.01747949381192929,0.02898143700986546
30,30,58.06488407689999,5806.5,1521533003.0,640374421.5,,1754854.5,1521533003.0,91919492.5,,0.7343745694895001,-0.1380171470895,0.08785245414380001,-0.263263005327,0.9621023192255,0.006968133902289999,0.0707310311988,-0.001339969395297,0.00026062944662500094,-0.0017242519089799998,-0.008314300711677249,0.0017310340732249998,0.01353057955258,3.0042647123300004,1.2920919656749998,4.8798632621800015,0.33229401707649997,1.3951246142400002,0.6988402605055001,694082.5,1521533003.0,88000000.0,,,,,,1260181.5,1521533003.0,633367331.5,,-1.09699999094,0.7349999748170001,-3.1539989471450003,-0.06550000049175,-0.09400000050655,-0.1069999970495,-7.5,-3.5,-1.5,1.0,25.5,-67.5,-66.0,-64.0,-51.5,-49.0,-1.0,0.5399999991100001,-0.2400000095364999,-0.18499946593999986,0.01400000043214998,-0.01249999925485,-0.011499997228299988,3.419260636701321,0.15676494993538465,5.874365801266311,1.5953588037637623,0.002199202204073522,0.01597500104274046
31,31,58.1674481795,5817.5,1521533003.0,750424503.5,,1754865.0,1521533003.0,196929073.0,,0.7354614950020001,-0.138143057523,0.0885356758973,-0.263232647484,0.9620330330410001,0.00664918736814,0.0718108971122,-0.00016552665230399995,0.021038765202900003,-0.0075076645245,0.0140067418306,-0.00135604828526,0.007454576255979999,2.73055553436,0.565891385078,5.03516292572,0.732192873955,1.38928496838,0.7942239046100001,1224653.0,1521533003.0,197508758.5,,,,,,1260192.5,1521533003.0,742956501.5,,0.17300004959114998,0.14999999627460006,-2.9139991760250004,-0.07000000029799999,-0.07100000232459999,-0.1030000001195,-9.0,-7.0,-3.5,11.5,29.0,-64.5,-61.5,-56.5,-55.5,-53.0,-1.0,1.2700000405311498,-0.5849999785424,0.23999977111999996,-0.004499999806249988,0.022999998181950004,0.003999996929999999,2.922981391304998,0.1433527132510236,5.755782507572251,1.7598325882569212,0.02233880182435519,0.015924772865484053
32,32,58.2700122821,5826.5,1521533003.0,840399503.5,,1754873.5,1521533003.0,281943646.0,,0.7348161511290001,-0.137441462214,0.08824692773190003,-0.2635801464855,0.961971032134,0.007069574227055,0.0713248469681,-0.002830759331815,-0.012376218647799999,0.000312276110545,-0.0064584422884450005,0.010397485123014999,-0.01672222073548,3.015000462535,0.828968346119,4.812316656109999,0.5125713646415,1.46516275406,0.7348043322565,1755226.0,1521533003.0,275016618.0,,,,,,1260201.5,1521533003.0,832487341.0,,-0.552000004053,1.1699999772035,-2.388999557495,-0.07699999772010001,-0.09099999815225003,-0.110500000417,-1.0,2.0,8.0,11.0,16.0,-60.0,-57.5,-56.0,-54.0,-53.5,-1.0,-0.7250000536441501,1.0199999809288998,0.5249996185300003,-0.0069999974221000155,-0.019999995827650042,-0.007500000297500017,2.71678538659976,0.16254306938396948,5.738972722241086,1.7173726172377546,0.012699665459453145,0.02072321982710723
33,33,58.3725763846,5835.5,1521533003.0,930369496.0,,1754881.0,1521533003.0,356941967.0,,0.734411612121,-0.137501799204,0.0881158608513,-0.26410689386,0.9618541692970001,0.00646875558296,0.07100887848210001,2.68136711215e-05,0.032235228188900004,0.00936562802383,0.0109648466958,-0.0210347069089,0.050667661592699996,3.78636693954,1.57495737076,4.78143405914,0.243132814765,1.69040596485,0.70699942112,1224664.0,1521533003.0,353523583.5,,,,,,1260210.5,1521533003.0,923045924.0,,-1.99199998677,1.325000008195,-2.5739990234400003,-0.08749999850989999,-0.090499997139,-0.1055000014603,-5.0,1.0,21.0,24.0,28.0,-64.5,-64.0,-61.0,-53.5,-43.0,-1.0,-1.4399999827170002,0.15500003099150006,-0.18499946594500027,-0.010500000789799985,0.000500001013250026,0.0049999989567000155,3.514137154648137,0.1642460030853561,6.299140971787882,1.848359833225129,0.033568223718930416,0.055945497487090844
34,34,58.4751404872,5847.5,1521533004.0,50382494.0,,1754893.0,1521533003.0,476948718.0,,0.734746990899,-0.13621073535,0.0881881731272,-0.264306145333,0.961765033803,0.00701795889006,0.071421492194,-0.00171640522899,-0.00043789192174099997,-0.00596698972285,-0.005789468145260001,0.00713545911999,0.014401386061499996,3.20094537735,1.1723742485,4.68877458572,0.317739397287,1.50315129757,0.693977534771,1224672.0,1521533003.0,485021787.0,,,,,,1260222.5,1521533004.0,43337934.5,,-1.556999984385,2.080000003425,-2.8139987945550002,-0.06599999964240001,-0.06649999879305,-0.1239999979735,-8.5,-7.0,-3.5,2.5,7.0,-64.0,-63.0,-60.0,-55.0,-50.0,-1.0,0.43500000238500025,0.7549999952299999,-0.2399997711149995,0.02149999886749998,0.02399999834595,-0.01849999651320001,3.8300441487507535,0.15541637394335406,5.796992306620567,1.6858312391047674,0.006224368449716627,0.017083109750580985
35,35,58.57770458970001,5858.5,1521533004.0,160389542.0,,1754904.0,1521533003.0,586947571.0,,0.7341594100015001,-0.1357457802175,0.08783525360705,-0.26497703454349997,0.961616680128,0.00715605483838,0.07091390152649997,-0.004502900309449999,0.00314710160965,-0.005776655527794999,-0.00122519202325,0.01272277131025,0.002130892515550001,4.000767588615,0.971433132887,4.21359395981,0.4719221144915,1.784874916075,0.7458822727204999,1224680.0,1521533003.0,595019049.5,,,,,,1260233.5,1521533004.0,153386015.5,,-1.6219999820000002,1.584999998655,-2.56899986267,-0.06599999964240001,-0.07050000131129999,-0.08399999886750001,-3.0,-1.5,3.5,4.0,10.0,-61.0,-60.0,-57.5,-52.0,-44.0,-1.0,-0.0649999976150002,-0.4950000047699998,0.2449989318849997,0.0,-0.004000002518249987,0.039999999106,3.4267870128945614,0.1279931636745889,5.891026878900677,1.9911879150242362,0.007971832212553839,0.012958036433795938
36,36,58.6802686923,5865.5,1521533004.0,230420946.5,,1754911.0,1521533003.0,656942324.5,,0.7340218252945,-0.13605734186649998,0.0872086658197,-0.26468006089100005,0.96172732111,0.007304933266710002,0.07050950338955,0.00456233451932,0.0012684501713999992,0.0017017254446800001,0.0007792613023250001,-0.009335769106425,0.004423258146200003,3.6384325027499997,0.7364777624609999,4.452153205875,0.4596513211725,1.654700338845,0.69018343091,1224685.0,1521533003.0,655512826.5,,,,,,1260240.5,1521533004.0,224807358.5,,-2.131999987365,1.195000012962,-3.0939994812050005,-0.07899999991060001,-0.07550000026819999,-0.08200000226495,-6.5,-3.5,-1.5,13.0,18.0,-62.0,-60.0,-59.0,-56.0,-43.0,-1.0,-0.5100000053649998,-0.3899999856930001,-0.5249996185350003,-0.013000000268200002,-0.004999998956899995,0.0019999966025500138,3.9428773461522173,0.13662082710123227,5.796745530058244,1.850855401356919,0.005031871579499509,0.01035997324387015
37,37,58.782832794899996,5877.5,1521533004.0,350425004.5,,1754923.0,1521533003.0,776961486.0,,0.7334777258030001,-0.135801734842,0.08647906954845,-0.264760515015,0.9617497905615,0.007779002961894999,0.0698474033473,-0.0158674665895,-0.018135711888650003,-0.0202092299586,-0.008650880126845,0.04621500508295,-0.017292751094965003,4.849315166475,1.317858576775,3.8313151598,0.19033128768200008,2.049492001535,0.635327219963,1755276.0,1521533003.0,774999230.0,,,,,,1260252.5,1521533004.0,344900621.5,,-1.9919999942200002,0.22499999925500005,-2.679000473025,-0.07700000330805,-0.09100000187745,-0.06049999967215,-8.0,-7.0,-3.0,0.5,10.0,-64.5,-58.5,-57.5,-53.0,-49.5,-1.0,0.139999993145,-0.9700000137070001,0.4149990081800006,0.0019999966025500138,-0.015500001609250013,0.021500002592799997,3.346002467289199,0.13367965743323015,6.319144298550016,2.1541318761516304,0.031449857188810826,0.05009694264342435
38,38,58.8853968974,5886.5,1521533004.0,440390944.0,,1754934.5,1521533003.0,891947022.0,,0.733107116643,-0.13665262040800005,0.08489406572045,-0.2637521670115,0.9621010341765,0.008107457221605,0.068779328004,-0.00925956830899,-0.00704511202511,-0.01621175754095,-0.008677176539049999,0.0395479192018,-0.00851710222062,5.054473161695,1.091467499735,3.443780303,0.2115281671285,2.10738801956,0.6368383169174999,1224701.0,1521533003.0,892019640.5,,,,,,1260261.5,1521533004.0,434837853.0,,-1.661999988555,0.18999998792999997,-1.4839988708499998,-0.0760000012815,-0.122999995947,-0.0675000026822,-10.0,-4.5,4.0,22.0,39.0,-69.5,-60.0,-60.0,-54.0,-52.0,-1.0,0.3300000056649999,-0.03500001132500005,1.195001602175,0.0010000020265499981,-0.031999994069549995,-0.00700000301005,2.2362013786898296,0.15956581576217077,6.212779009477449,2.21164903914886,0.019954806220100225,0.041374778985735154
39,39,58.987961,5897.5,1521533004.0,550369977.0,,1754945.5,1521533003.5,501950689.0,,0.7321531568880001,-0.13690374535799998,0.08389300051310003,-0.26378960919399996,0.9621798088975,0.00819292013955,0.06751179180655001,-0.00672531307921745,0.00610560736859,-0.0097802016193225,-0.00021409867422000038,0.020926021841334998,0.002450234973965001,5.199037790299999,1.20919662714,3.06348729134,0.3067615032195,2.0551631450650003,0.6514134407045,694119.0,1521533004.0,0.0,,,,,,1260272.5,1521533004.0,545209627.5,,-2.14699998237,-1.0650000073,-2.49399909973,-0.06850000098345,-0.07550000026819999,-0.07249999791385,-1.0,5.0,6.5,17.0,39.0,-61.5,-58.5,-55.0,-54.0,-51.0,-1.0,-0.484999993815,-1.2549999952300002,-1.01000022888,0.007500000298050008,0.047499995678800006,-0.004999995231650012,3.4588821097718596,0.1250949634187528,6.15443781447631,2.1776449764416204,0.013347682235784319,0.021070070711176395
