,Unnamed: 0,Unnamed: 0.1,.header.seq,.header.stamp.secs,.header.stamp.nsecs,.header.frame_id,.endpoint_state.header.seq,.endpoint_state.header.stamp.secs,.endpoint_state.header.stamp.nsecs,.endpoint_state.header.frame_id,.endpoint_state.pose.position.x,.endpoint_state.pose.position.y,.endpoint_state.pose.position.z,.endpoint_state.pose.orientation.x,.endpoint_state.pose.orientation.y,.endpoint_state.pose.orientation.z,.endpoint_state.pose.orientation.w,.endpoint_state.twist.linear.x,.endpoint_state.twist.linear.y,.endpoint_state.twist.linear.z,.endpoint_state.twist.angular.x,.endpoint_state.twist.angular.y,.endpoint_state.twist.angular.z,.endpoint_state.wrench.force.x,.endpoint_state.wrench.force.y,.endpoint_state.wrench.force.z,.endpoint_state.wrench.torque.x,.endpoint_state.wrench.torque.y,.endpoint_state.wrench.torque.z,.joint_state.header.seq,.joint_state.header.stamp.secs,.joint_state.header.stamp.nsecs,.joint_state.header.frame_id,.joint_state.name,.joint_state.position,.joint_state.velocity,.joint_state.effort,.wrench_stamped.header.seq,.wrench_stamped.header.stamp.secs,.wrench_stamped.header.stamp.nsecs,.wrench_stamped.header.frame_id,.wrench_stamped.wrench.force.x,.wrench_stamped.wrench.force.y,.wrench_stamped.wrench.force.z,.wrench_stamped.wrench.torque.x,.wrench_stamped.wrench.torque.y,.wrench_stamped.wrench.torque.z,.tactile_values.tactile_values_0,.tactile_values.tactile_values_1,.tactile_values.tactile_values_2,.tactile_values.tactile_values_3,.tactile_values.tactile_values_4,.tactile_values.tactile_values_5,.tactile_values.tactile_values_6,.tactile_values.tactile_values_7,.tactile_values.tactile_values_8,.tactile_values.tactile_values_9,.tag,.delta_wrench.force.x,.delta_wrench.force.y,.delta_wrench.force.z,.delta_wrench.torque.x,.delta_wrench.torque.y,.delta_wrench.torque.z,.wrench_stamped.wrench.force.magnitude,.wrench_stamped.wrench.torque.magnitude,.endpoint_state.wrench.force.magnitude,.endpoint_state.wrench.torque.magnitude,.endpoint_state.twist.linear.magnitude,.endpoint_state.twist.angular.magnitude
0,0,48.961325,4895.5,1521547061.0,425617456.0,,3160589.0,1521547060.0,437542830.0,,0.706666194941,-0.150258702278,0.0121859198363,-0.29848572144499996,0.9532380375849999,-0.0027898037249000003,0.04728355728130002,-0.00129376866822,-0.0003773972498450001,-0.0047949275479,0.022542390662599998,0.0112442485039,-0.0216778930573,-0.612535834312,1.6601324081400002,7.050410270689999,0.243811443448,0.472790837288,0.411020696163,1250182.0,1521547060.0,440000000.0,,,,,,2664483.5,1521547061.0,419236165.5,,-1.702000033855,-5.037000012395,-1.993998718265,0.215499997139,-0.151499994099,-0.13899999856950002,221.0,257.0,476.0,556.5,918.0,265.0,317.0,472.0,486.0,765.0,5.0,0.0,0.0,0.0,0.0,0.0,0.0,5.678398024843989,0.2978481099171641,7.2690800481164075,0.6722449021405834,0.004980722461718643,0.03323437299854577
1,1,49.0638891026,4907.5,1521547061.0,545623063.5,,3160600.5,1521547060.0,552544348.0,,0.7069926081300001,-0.14985406383549998,0.01242096890095,-0.29858793208,0.953196423511,-0.002776839237995,0.04747438971480001,0.0002200994377900001,-0.003917084338119999,-0.002685311585655,-0.008990946176075,0.0032900778210699986,0.002518034916609,-0.4723744541405,1.9239066243200005,7.159558534624997,0.232846520841,0.5640911757945,0.4403635412455,1250187.0,1521547060.0,555000064.0,,,,,,2664495.5,1521547061.0,539145477.5,,-0.937000107765,-4.321999979015,-1.5290004730250002,0.203000001609,-0.1435000002385,-0.1224999986585,215.0,235.0,471.0,556.5,915.0,306.0,329.0,479.0,493.0,757.0,5.0,0.7649999260900001,0.71500003338,0.4649982452399999,-0.012499995530000002,0.007999993860500015,0.016499999911000013,4.67926227808059,0.27714166123669676,7.428582148347593,0.752553257474351,0.004754249865805691,0.009899607318022087
2,2,49.16645320510001,4915.5,1521547061.0,625618934.0,,3160609.0,1521547060.0,637552000.0,,0.706751923189,-0.149788808345,0.012454155418,-0.298984711061,0.9530702814129999,-0.0027755066428099997,0.047512922476500005,-0.0075948753689,0.0015950433811500002,-0.00480010849725,0.00423235490073,0.010965466903,0.00635314804519,-1.0250854492200001,1.63770675659,7.2672271728499975,0.373553454876,0.354152739048,0.460189729929,1250190.0,1521547060.0,640999936.0,,,,,,2664503.5,1521547061.0,618341845.5,,0.06800012588500001,-3.487000060085,-1.5789997100800002,0.220499999821,-0.1490000039335,-0.1424999982115,218.0,255.0,482.0,548.5,898.5,285.0,350.0,476.0,496.0,783.0,5.0,1.00500023365,0.8349999189299999,-0.04999923705499998,0.01749999821199999,-0.005500003695000004,-0.019999999553,3.828450537826745,0.30187331876719664,7.51967249157784,0.6904642885458468,0.009125093799093025,0.013361017270051827
3,3,49.269017307700004,4927.5,1521547061.0,745622992.0,,3160620.5,1521547060.0,752546205.0,,0.7066991078955001,-0.14996825949200002,0.012331879385850002,-0.298757843548,0.9531561978375,-0.0026754513531400004,0.04721886776725,0.00529689854007,0.00252807666499,0.008127697173610001,-0.002083742944075,-0.011176425720565,0.006763526784244999,-0.740800440311,1.7210273742700002,7.291949033734999,0.39805161953,0.520095914602,0.488585844636,2205584.5,1521547060.0,755805915.0,,,,,,2664515.5,1521547061.0,740218225.0,,0.547999787331,-2.881999981405,-1.30899925232,0.2204999998215,-0.14449999481450002,-0.139499999583,217.0,249.0,471.0,556.0,902.0,307.0,320.0,483.0,510.0,762.0,5.0,0.4799996614459999,0.6050000786799998,0.2700004577600001,5.000166947155549e-13,0.004500009118999976,0.0029999986285000053,3.2124300307255815,0.29826288456046457,7.528827347332415,0.8171052440015425,0.01002535620882224,0.013228747903920791
4,4,49.371581410299996,4936.5,1521547061.0,835620522.0,,3160632.0,1521547060.0,867546120.0,,0.7067858058059999,-0.150032948724,0.0123295028657,-0.298675122283,0.953168347839,-0.0026770756038899998,0.047498476529900004,0.00979938042536,-0.00395026966606,0.006103822785549999,0.00077232496585,-0.0197003993296,-0.0007703983524119999,-0.7787666320800001,1.8295240402200001,7.24163627625,0.297044754028,0.470425724983,0.451918244362,1250199.0,1521547060.0,857999872.0,,,,,,2664524.5,1521547061.0,829629236.0,,-1.67699999809,-5.41700000763,-1.3040000915549999,0.2170000001785,-0.144000001252,-0.1019999980925,213.0,257.0,470.0,545.0,929.0,296.0,301.0,479.0,490.0,770.0,5.0,-2.224999785421,-2.5350000262250005,0.004999160764999955,-0.003499999643000018,0.0004999935625000228,0.037500001490499986,5.818645402070204,0.2796944762574245,7.509655893480347,0.71677475416519,0.012202013758102467,0.019730578633683767
5,5,49.4741455128,4944.5,1521547061.0,915641426.5,,3160640.0,1521547060.0,947540481.0,,0.7064334854859999,-0.14973188521449998,0.012109093334549998,-0.299133309818,0.9530433172615,-0.00263803011864,0.04712434852975,0.003929992655640001,-0.00236378173673845,0.005244217984685,-0.0073846952997700015,-0.00646587329896,0.007014052361195001,-0.7176066040989999,1.6239224672299999,7.2918756008150005,0.430112794042,0.530322492123,0.4820011258125,2205598.0,1521547060.0,950800622.5,,,,,,2664532.5,1521547061.0,908951291.0,,-0.721999955177,-4.73700006008,-1.123999786375,0.230499997735,-0.1435000002385,-0.13650000095349998,210.0,256.0,474.0,547.0,923.0,302.0,326.0,468.0,480.0,764.0,5.0,0.955000042913,0.6799999475500007,0.1800003051800001,0.0134999975565,0.0005000010135000067,-0.03450000286099998,4.921770923584778,0.30389924199410234,7.504900611972286,0.8358014396581779,0.006966644001469875,0.012063920287959226
6,6,49.5767096154,4958.5,1521547062.0,55623411.5,,3160654.0,1521547061.0,87540948.5,,0.7069249998839999,-0.14907929933249994,0.012570897173,-0.299460808643,0.9529137669755,-0.002628573675245,0.04765897202405,0.0029604976193350003,0.0015078223891999993,0.0018903725790400004,0.0035141131176850003,-0.004015397813455,0.0036596774464599992,-0.95611974597,1.632775068285,7.564037084580001,0.5521486103535,0.5062453448775001,0.544167011976,2205607.5,1521547061.0,77814907.5,,,,,,2664546.5,1521547062.0,49222797.5,,-0.7369999408705,-4.527000021935001,-0.998999786375,0.23749999702,-0.146999999881,-0.1624999940395,222.0,253.0,476.0,544.0,948.0,278.5,306.0,463.5,493.0,750.0,5.0,-0.014999985693500029,0.21000003814499912,0.125,0.0069999992850000034,-0.0034999996425000013,-0.025999993086000008,4.6941344979260995,0.3231431518883721,7.797100512956617,0.9258888562070117,0.0038225100391035393,0.006470367038763178
7,7,49.6792737179,4968.5,1521547062.0,155709028.0,,3160664.0,1521547061.0,187685350.5,,0.706509966376,-0.14940822344649998,0.012293332843949999,-0.29925650588849995,0.9529990982,-0.0026487960236799995,0.04723538670005,-0.0011859124661835,0.010668069339959998,0.0005466593666899999,0.0132239012913,0.005137842081110001,0.00765237960451,-0.8344618082049999,1.48531472683,7.761556863785,0.7227450311179999,0.6057620346545001,0.600198239088,2205614.0,1521547061.0,173386733.0,,,,,,2664556.5,1521547062.0,148824382.0,,-2.15200008154,-6.621999931335,-1.023999404905,0.26049999892700004,-0.1270000003275,-0.137999996543,238.0,257.0,480.0,544.0,922.5,275.0,297.0,464.5,498.5,751.0,5.0,-1.4150001406694999,-2.0949999094,-0.0249996185300001,0.02300000190700005,0.019999999553499983,0.024499997496500003,7.037795267183801,0.32098792589444863,7.946335715086475,1.1178309124544976,0.010747694091424164,0.01611917802569322
8,8,49.7818378205,4979.5,1521547062.0,265621065.5,,3160675.5,1521547061.0,302678795.0,,0.7067895688664999,-0.14956212176150002,0.012552900327399998,-0.299223264753,0.952996690906,-0.002765890045075,0.04748712510055,0.0011403540804600005,-0.0013801841884,0.00289791568965,-0.0010457020541499995,0.0016616980714100006,-0.0034106418336000005,-0.9466559290895,1.6416448354750002,7.6940603256200015,0.6581189036370001,0.5433924496175,0.5901887416839999,3161028.5,1521547061.0,300734460.5,,,,,,2664567.5,1521547062.0,260562181.0,,-1.1270000457784999,-5.33200008869,-0.9439994812005,0.2494999989865,-0.1290000006555,-0.14000000059599998,224.5,283.5,485.5,544.0,923.0,269.5,318.5,459.5,512.5,772.0,5.0,1.0250000357615,1.2899998426450001,0.07999992370450004,-0.010999999940500022,-0.00200000032799999,-0.002000004052999993,5.530957337521391,0.3138331560403752,7.9239964353981005,1.0376505174846766,0.0034063515918135597,0.003935379395138875
9,9,49.88440192310001,4987.5,1521547062.0,345671891.5,,3160681.5,1521547061.0,362686413.5,,0.7067726609980001,-0.14939880307050002,0.012410458575600001,-0.299143463688,0.9530219412775,-0.00237521607693,0.04750486466,-0.00266728058192,-0.0045040630141230005,0.0012053140536149995,-0.010869756782045,0.0052658620158,0.02081683964525,-0.9402347803105,2.83755075932,7.709828853605,0.332368150353398,0.5905981063844999,0.589398622513,2205626.5,1521547061.0,359386760.5,,,,,,2664575.5,1521547062.0,339845817.0,,-0.33700008392325,-4.39199991226,-0.5889999389645,0.23099999874850002,-0.129000000656,-0.142999999225,220.0,275.0,480.0,545.0,949.0,307.0,313.5,454.5,508.0,762.0,5.0,0.7899999618552501,0.94000017643,0.35499954223600005,-0.018500000238000025,-5.000166947155549e-13,-0.0029999986290000225,4.444114446541213,0.30075072629904825,8.269050532298326,0.8981455599481177,0.005371568793724984,0.024067025742420076
10,10,49.986966025600005,4996.5,1521547062.0,435656070.5,,3160689.0,1521547061.0,437685912.0,,0.7061904607520001,-0.14971800215199998,0.0135551931657,-0.300583511171,0.952525534272,-0.00198639906821,0.048380921753199996,-0.030873626489499997,0.025353144528799998,0.0025726533831999998,0.0481454511486,0.019343053795499998,0.0930361471644,-1.51571130753,0.38090980052900003,11.084782600399999,1.68681955338,1.10207104683,0.913194775581,1250222.0,1521547061.0,451000064.0,,,,,,2664584.5,1521547062.0,429166893.5,,-2.0720000982249998,-6.256999921795,3.44100074768,0.22899999469549998,-0.3139999955895,-0.157499998808,241.5,247.0,456.5,589.0,928.0,275.5,345.5,432.5,513.0,725.5,5.0,-1.7350000143017503,-1.865000009535,4.0300006866445,-0.002000004052999993,-0.1849999949335,-0.014499999582999997,7.435302184438865,0.41933667192992435,11.194412818100103,2.2122037645918846,0.04003225319091429,0.10652634826949495
11,11,50.089530128199996,5008.5,1521547062.0,555615544.0,,3160702.0,1521547061.0,567685526.0,,0.693668146015,-0.151198410936,0.015384175618,-0.298995121937,0.953396159414,0.00479554812664,0.0401831182251,-0.15368860572,-0.0147720937445,0.027730979001,0.048076635041199994,0.248166709059,-0.034886070096,0.438768237829,-0.26152995228799997,15.2102594376,1.37165212631,2.06284165382,1.0882771015200001,3161055.0,1521547061.0,565743498.0,,,,,,2664596.5,1521547062.0,549077532.0,,-1.91700000763,-2.65699995756,9.775999832135,0.002499999478450005,-0.49200001358999995,-0.160499997437,246.5,280.0,375.0,624.0,921.5,381.5,402.0,444.0,607.0,694.5,5.0,0.15500009059500042,3.599999964235,6.334999084454999,-0.22649999521704997,-0.17800001800050005,-0.002999998628999995,10.310417572612218,0.5175234415436941,15.218833977725469,2.705751705910642,0.1568674901887189,0.25517663727073864
12,12,50.1920942308,5018.5,1521547062.0,655672430.5,,3160711.5,1521547061.0,662689212.0,,0.6742136502730001,-0.15471720539,0.01778951367435,-0.299164481444,0.953869390676,0.00835128173849,0.023724934253,-0.2244689454385,-0.04478638665425,0.0386655999519,-0.07336208217885,0.387818192087,0.04525783808085,3.875446796415,-0.22033719718449998,15.935391426099999,1.35074776411,2.506744384765,1.0595569610600002,2205648.5,1521547061.0,670391023.0,,,,,,2664606.5,1521547062.0,650667807.5,,-1.1320000410075,-0.532000002265,9.88600044248,-0.10799999907605,-0.29850000143050004,-0.1330000013115,213.5,306.5,333.0,670.0,851.0,325.0,342.0,455.0,613.0,621.0,5.0,0.7849999666224998,2.1249999552949994,0.11000061034500064,-0.1104999985545,0.1935000121595,0.0274999961255,9.964810727954932,0.3441732863010933,16.40135165940075,3.038247502513534,0.23213607327482869,0.39728228896214096
13,13,50.2946583333,5026.5,1521547062.0,735629439.0,,3160720.0,1521547061.0,747697231.0,,0.656759806784,-0.159541691691,0.021365821899700002,-0.302433589687,0.953095181382,0.00773511320181,0.00914697101254,-0.156901780789,-0.0584303526633,0.048730470271800004,-0.093019287281,0.19699121607099998,0.0528825098659,7.9471611976600025,-0.371417045593,14.7325181961,2.0728945732099997,3.0198583602900007,1.04659283161,2205653.0,1521547061.0,744894217.5,,,,,,2664614.5,1521547062.0,729884453.0,,0.9629999876019999,0.7880000352859999,10.33600120545,-0.15049999952299994,-0.02099999971686501,-0.114500001073,179.0,243.0,354.0,695.5,838.0,266.5,390.0,553.0,562.0,611.0,5.0,2.0950000286095,1.320000037551,0.45000076296999936,-0.042500000446949945,0.27750000171363504,0.0185000002385,10.410630814258857,0.19026691801321718,16.743428983388302,3.809434732743733,0.17437584024178293,0.22417557151731232
14,14,50.3972224359,5038.5,1521547062.0,855697989.0,,3160733.5,1521547061.0,882700305.5,,0.644757172636,-0.163791253656,0.0286444882841,-0.305621538224,0.952115680321,0.00760273320373,0.00357243300879,-0.043817800955150005,-0.047154639272400004,0.060062518407700015,-0.016244139687345,-0.0025971313547,-0.018994494246906003,8.53466129303,0.245636790991,14.32937431335,1.898084700105,2.80481541157,0.987073093653,3161086.5,1521547061.0,880755967.5,,,,,,2664626.5,1521547062.0,849776983.5,,3.6079999685300006,1.673000025745,10.59099845885,-0.14400000125149998,0.12100000306949996,-0.125,178.0,191.0,311.0,700.5,738.0,269.0,330.0,554.0,646.5,790.0,5.0,2.644999980928,0.884999990459,0.2549972534000009,0.006499998271499968,0.142000002786365,-0.010499998927,11.313082745848646,0.2258362262863312,16.680280244406195,3.527609433308481,0.08804013745406476,0.025127832718945104
15,15,50.499786538500004,5050.5,1521547062.0,975636481.5,,3160746.0,1521547061.5,507198858.5,,0.649139784792,-0.1689000894025,0.0363899322719,-0.301322575255,0.953454948688,0.005524089650055,0.00983275411437,0.08355693111125,-0.029271122359449994,0.0651773763954,0.02273297104525,-0.19934180936,-0.055720580390250005,5.6756130456900005,3.31088912487,14.9409818649,0.18742823600760003,1.96671140194,0.8157246112825001,2205671.0,1521547061.5,502369335.0,,,,,,2664638.5,1521547062.0,971776831.5,,1.6930000066749995,0.477999973297,9.61599998474,-0.2705000042915,0.0219999998808,-0.0764999985695,181.0,212.5,226.0,621.0,637.0,266.5,301.5,554.0,646.0,849.0,5.0,-1.9149999618550009,-1.195000052448,-0.9749984741100004,-0.12650000304000006,-0.09900000318869998,0.0485000014305,9.775591475895112,0.281968973643538,16.321994649210605,2.1374025647092565,0.109939300228352,0.20822758705437922
16,16,50.602350641,5057.5,1521547063.0,45639991.0,,3160753.0,1521547062.0,77687927.0,,0.655543023734,-0.17158826171500002,0.0405324725997,-0.301335354823,0.95336423969,0.00238807324368,0.0169684271334,0.105889694638,-0.0276317495592,0.062175185598999996,-0.025609126996900003,-0.267517196387,0.0169696822721,4.4257516861,3.8896288871800007,11.3460102081,-0.290578722954,2.06154370308,0.7539384365080001,2205676.5,1521547062.0,71882970.5,,,,,,2664645.5,1521547063.0,40810763.5,,1.3980001687999999,-2.302000027895,9.131003189089999,-0.09000000357629999,-0.145499996841,-0.1030000001195,185.0,276.0,321.0,516.0,562.0,261.0,274.0,499.5,518.0,758.0,5.0,-0.2949998378749994,-2.780000001192,-0.4849967956499999,0.1805000007152,-0.16749999672180002,-0.026500001549999985,9.519917428190496,0.1996978962059491,12.784695479725418,2.214231604865784,0.12586458881870363,0.2692754126627979
17,17,50.7049147436,5069.5,1521547063.0,165637969.5,,3160765.0,1521547062.0,197686143.5,,0.6646076746355001,-0.17375260490400002,0.04744027947315002,-0.30097733391149994,0.9532132936805,-0.0007586744161960001,0.02820993901985,0.0678872839786,0.0013747086173499998,0.0785267014794,0.07676117306284999,-0.1640233269675,-0.05451912002929999,0.4647732079035001,-0.891983568666,16.13859176635,2.285166680815,1.550165057185,1.111071288588,3161117.5,1521547062.0,190761809.0,,,,,,2664657.5,1521547063.0,160652134.0,,1.113000082968,-4.82199985981,11.311003494300001,0.0300000002608,-0.4395000040535,-0.09249999746680004,188.0,309.0,356.0,385.0,430.0,324.5,347.0,371.0,406.0,633.0,5.0,-0.2850000858320001,-2.519999831915,2.180000305210001,0.12000000383710001,-0.2940000072125,0.010500002652699958,12.34622419530608,0.45012942928676913,16.169903927434298,2.97648750576061,0.10381240771222146,0.18912499551418746
18,18,50.8074788462,5078.5,1521547063.0,255614995.5,,3160774.0,1521547062.0,287682775.0,,0.668017936909,-0.171193222991,0.0543756188552,-0.298575122042,0.95381743394,0.00319318511702,0.032787234985799996,0.0324965554039,0.020523556222700003,0.0906600890129,0.0579386555356,-0.051603998245099994,0.028970583147800006,1.62793195248,0.596049726009,14.393012046800001,0.532593488693,1.09853816032,0.7705773115160001,3161127.0,1521547062.0,285764426.0,,,,,,2664666.5,1521547063.0,250142435.5,,-0.21699995994549992,-3.49199999571,5.9809978485099995,-0.20600000023850001,-0.268000006676,-0.09149999916555,121.5,153.0,169.0,267.0,323.5,115.0,188.0,215.5,284.0,297.0,5.0,-1.3300000429135002,1.3299998641000004,-5.330005645790001,-0.2360000004993,0.17149999737750002,0.0009999983012500266,6.929176590081698,0.35018888263891773,14.4970422327146,1.4436867066301668,0.09847077847245864,0.08282001646991377
19,19,50.910042948699996,5092.5,1521547063.0,395645975.5,,3160786.0,1521547062.0,407681615.0,,0.6760151706825,-0.169453423657,0.06816449522465,-0.300286947995,0.952988324726,-0.0013665488105210001,0.04045616724715,0.08231932234964999,0.02330646982445,0.141790931277,-0.05237363081195,-0.1831573326275,0.056186203445849986,1.5023239850990002,-0.08809657394874999,6.295110702515,1.253118038175,0.940641343591,0.8551949858665,1250260.0,1521547062.0,412000000.0,,,,,,2664680.5,1521547063.0,390275026.0,,1.0679997682584998,-2.1769999980900003,-1.488999557495,-0.07049999758600001,-0.08550000190734999,-0.1205000020565,22.5,36.0,38.5,59.0,92.5,23.0,26.0,28.5,37.0,48.5,5.0,1.2849997282039998,1.3149999976199993,-7.469997406005,0.13550000265249998,0.18250000476865,-0.029000002890949988,2.8455354819267984,0.16370934756879146,6.472492342171147,1.7850684633154679,0.16560293040940585,0.19861141748979477
20,20,51.0126070513,5099.5,1521547063.0,466199517.0,,3160793.0,1521547062.0,477691260.0,,0.6829468355830001,-0.166288486323,0.0775910530238,-0.301989000269,0.9520750002539999,-0.00369409834269,0.0483961903938,0.112023118278,0.0646144449283,0.149970309696,0.025944098002900002,-0.268527868623,0.0532535907861,1.23540890217,-0.0494981408119,5.72799777985,0.9983170032500001,0.941536903381,0.810006201267,2205704.5,1521547062.0,473869085.5,,,,,,2664687.5,1521547063.0,461395279.0,,-0.8070000529309999,-0.20699993968,-0.3590003967286,-0.17649999633445002,-0.1779999956485,-0.11300000548364998,13.0,14.5,26.0,37.0,60.5,67.0,71.0,74.5,83.0,123.5,5.0,-1.8749998211895,1.9700000584100004,1.1299991607664002,-0.10599999874845,-0.09249999374114999,0.007499996572850012,0.9071820904920094,0.27496408564798386,5.8599184113322975,1.5934988627223237,0.19802853156157382,0.27498410386785743
21,21,51.1151711538,5112.5,1521547063.0,595626473.0,,3160805.5,1521547062.0,602682474.5,,0.6928529675749999,-0.1608658197155,0.09107539889565,-0.304468254428,0.9504987441575,-0.007085580568975002,0.061644235286750004,0.0524116452864,0.01675010126445,0.1043110254285,-0.02640346306036,-0.14634978072030005,0.0207935698247,-0.12609326839,-0.4804792106153501,5.218312263485,1.2217779159555,0.686170428993,0.8709114491934999,3161158.5,1521547062.0,600759361.5,,,,,,2664700.5,1521547063.0,591998605.5,,-0.03200001716599998,-0.532000002263,-1.0889999389650002,-0.10850000008925,-0.11749999970200001,-0.122500002384,93.0,102.0,116.5,120.0,132.0,131.0,135.0,141.0,142.5,153.5,5.0,0.7750000357649999,-0.3250000625830001,-0.7299995422364003,0.06799999624520002,0.0604999959465,-0.009499996900350012,1.2124227276706052,0.2014565723261896,5.2419025804954416,1.649866020583891,0.11793361047615697,0.15015916130730877
22,22,51.217735256400005,5120.5,1521547063.0,675646066.0,,3160814.0,1521547062.0,687690939.0,,0.69487450462,-0.158972859052,0.09757136414550001,-0.304713874085,0.950122775094,-0.00815971184758,0.065951393387,0.0177910492992,0.037273138565,0.0756535667212,0.044301559575500006,-0.0724279046705,-0.0318256491891,3.12138772011,0.47315430641199996,4.4642162323,0.9646828174590001,1.67755329609,0.91108584404,2205719.0,1521547062.0,679866687.5,,,,,,2664708.5,1521547063.0,671684308.0,,-0.16700012683870002,-1.146999987585,-1.10900039673,-0.06199999898675,-0.128000002354,-0.11349999904650004,78.0,85.0,95.5,102.5,105.0,162.0,167.0,178.0,209.0,226.0,5.0,-0.13500010967270004,-0.6149999853219998,-0.020000457764999702,0.0465000011025,-0.010500002652000004,0.009000003337499965,1.6041757677484814,0.18196222206968268,5.467738368435393,2.138895840085051,0.08619321580780773,0.09067139296430972
23,23,51.320299358999996,5130.5,1521547063.0,775793552.0,,3160823.0,1521547062.0,777678343.0,,0.6965070758659999,-0.1566572369385,0.10162638094000001,-0.3042468818945,0.9500371289485,-0.007671034525560002,0.0693131709716,0.0136550159452,0.02823240084695,0.03761213832495,0.0311684070474,-0.04371203331635,8.084280929999965e-05,2.23726671934,-0.11403064429774999,3.639967560765,0.9725126326085,1.3610696792599999,0.8167171776295,2205725.5,1521547062.0,775367593.5,,,,,,2664718.5,1521547063.0,771593463.0,,-0.29700000286100003,-1.801999998095,-2.378998947145,-0.0799999982119,-0.09600000083425,-0.137000001967,79.5,81.0,85.0,90.0,117.0,117.0,119.0,125.0,128.0,152.0,5.0,-0.12999987602229998,-0.6550000105100002,-1.269998550415,-0.017999999225150002,0.032000001519749986,-0.02350000292049996,2.9991747173765706,0.18543192932458533,4.274076415405653,1.8615365805213526,0.04897142909311206,0.053686292385318635
24,24,51.42286346149999,5141.5,1521547063.0,886054515.5,,3160836.5,1521547062.0,912681639.5,,0.69527646165,-0.15515448331050002,0.100663135585,-0.3054507743175,0.9497334017799999,-0.006878714535470001,0.06825619696174999,-0.024401833128900003,-4.339235647999977e-05,-0.0267444322043,-0.02699881815825,0.044441338158400005,0.054298120471900004,2.24274933338,-0.1142091602089,5.84022927284,0.923178076744,1.3646018505100002,0.8388056159020001,3161189.0,1521547062.0,905760052.5,,,,,,2664729.5,1521547063.0,880186926.5,,-0.4020000219345,-1.53199997246,-1.95899887085,-0.07699999958275,-0.06799999997020001,-0.135499998927,40.0,40.5,45.0,59.5,65.5,126.0,132.0,136.0,147.0,194.0,5.0,-0.10500001907349993,0.2700000256350001,0.4200000762949998,0.00299999862915,0.028000000864049995,0.0015000030400000028,2.519187271570804,0.1700389650665626,6.257095673232853,1.848780904559759,0.0362038119108704,0.07518147781224094
25,25,51.5254275641,5151.5,1521547063.0,985661983.0,,3160846.0,1521547063.0,7683523.0,,0.6942845839049999,-0.155809717097,0.0994455860423,-0.305183796859,0.9499273945810001,-0.00644915418446,0.0667772683647,-0.0029964016179300002,-0.0048137307023199995,-0.0191770230939,0.00972445886504,0.0115807809577,0.0173336112251,3.43763971329,0.628067731857,5.745596408840001,0.610860705376,1.60669410229,0.736385822296,3161199.5,1521547063.0,10766634.0,,,,,,2664739.5,1521547063.0,981977729.5,,-0.032000136375499984,-1.066999991236,-1.3189994812,-0.07899999991060001,-0.08000000193715,-0.152500003576,33.5,35.0,42.0,50.0,87.5,149.0,154.0,160.0,174.0,205.0,5.0,0.369999885559,0.464999981224,0.63999938965,-0.002000000327850013,-0.012000001966949987,-0.017000004649000006,1.6968419553486835,0.18946569976251326,6.724857914295563,1.8699948713791943,0.019997715886429773,0.023002905597141306
26,26,51.6279916667,5162.5,1521547064.0,95653414.5,,3160857.5,1521547063.0,122677703.5,,0.6943666825615,-0.15660294228049998,0.09871369035135,-0.304891241942,0.950031765935,-0.006294251576480001,0.0666428860784,0.00576000008213,-0.007841797443049999,-0.006577588592465,-0.012383928269870002,-0.005000277593840001,0.008424545415969998,2.91214478016,0.6668074727055,4.20442390442,0.7119710445405001,1.49043089151,0.7982207536700001,2205749.5,1521547063.0,122367786.0,,,,,,2664750.5,1521547064.0,91999433.5,,0.05300014018999999,-2.20199997425,-0.9840003967285,-0.0619999989867,-0.1494999974965,-0.12999999523150002,14.0,17.0,20.5,49.0,72.5,129.0,139.0,148.0,181.0,208.0,5.0,0.08500027656549998,-1.134999983014,0.3349990844715002,0.017000000923900013,-0.06949999555935,0.02250000834449997,2.412440606982689,0.20759154097890004,5.157751428125181,1.8345144813331093,0.011744618332482705,0.015790421807997557
27,27,51.7305557692,5173.5,1521547064.0,205642580.5,,3160868.0,1521547063.0,227679424.0,,0.6940810732895,-0.1574027368575,0.09775655793054999,-0.304178504442,0.9503152388214999,-0.0062802293683600005,0.06585495782869999,-0.0095084043854,-0.010141278261035,-0.0140333444049,0.00012422992323000114,0.0301399785418,-0.008113011631340001,3.392117857935,0.7176808416845,4.7736852169000015,0.606409013271,1.6859039068200001,0.7623648345469999,3161221.0,1521547063.0,225733447.0,,,,,,2664761.5,1521547064.0,201860997.5,,-1.1070000648475,-1.84199998975,-2.38400001526,-0.07400000095369999,-0.0835000015795,-0.1035000011325,15.5,19.5,25.5,32.0,37.0,121.5,131.0,141.5,172.0,185.0,5.0,-1.1600002050375,0.3599999845000001,-1.3999996185315,-0.01200000196699999,0.06599999591700001,0.026499994099000012,3.2096525012173904,0.15218574387685466,5.899966093351056,1.9471014394122155,0.01975322844272736,0.031213053315948574
28,28,51.8331198718,5183.5,1521547064.0,305729507.5,,3160878.0,1521547063.0,327677979.0,,0.693019495222,-0.157107374838,0.0963715822968,-0.304802940737,0.950199276254,-0.005707346079729999,0.0646832971094,-0.012424963643399999,-0.00038226701752099994,-0.0167126178356,0.0107600737438,0.031574951383599996,-0.00736691958543,4.1151752471900025,0.743270874023,4.3430147171,0.6884393692020001,2.01662540436,0.830306172371,2205763.5,1521547063.0,323379892.5,,,,,,2664771.5,1521547064.0,300868646.0,,-0.48200006485,-1.3869999766355,-0.5390007019045,-0.0455000009388,-0.1740000024435,-0.1424999982115,7.0,11.0,22.5,25.5,42.5,123.0,128.0,157.5,162.0,189.0,5.0,0.6249999999975,0.45500001311449995,1.8449993133555,0.02850000001489999,-0.090500000864,-0.038999997079,1.5641658333935775,0.22946132664579083,6.029004539739824,2.2869488683516215,0.020828764834509787,0.03416179512301585
29,29,51.93568397439999,5190.5,1521547064.0,375649571.0,,3160884.0,1521547063.0,387677896.0,,0.6920416842,-0.155629851225,0.0954139694398,-0.305233934895,0.950123786374,-0.0047282961098599995,0.06383321055869999,-0.015221810282600001,0.0076666254829300005,-0.020853797826900004,0.022577468865999997,0.0334015530265,0.0017099587843399998,4.07628059387,0.816276848316,4.06482219696,0.552520751953,1.9062914848299999,0.764643073082,3161236.0,1521547063.0,375748397.0,,,,,,2664778.5,1521547064.0,372056697.5,,-0.26700003147100004,-2.612000000475,-1.1489994049075,-0.05049999989569999,-0.15100000053649998,-0.1189999990165,5.0,8.0,8.5,10.5,13.5,132.0,140.0,151.0,160.0,189.0,5.0,0.215000033379,-1.2250000238395002,-0.6099987030030001,-0.004999998956899995,0.023000001907000026,0.023499999195,2.8660133725725543,0.1987768847663523,5.814219712563035,2.126947445445317,0.026932536798084918,0.040352568741301116
30,30,52.0382480769,5203.5,1521547064.0,505676507.0,,3160895.0,1521547063.0,497677597.0,,0.690640098685,-0.155696774756,0.09302991237649999,-0.306210870219,0.949950404151,-0.0040363824286,0.061748200213,-0.00346782389014,-0.0046649261938300005,-0.0264341337288,0.026943518275,0.0406045869228,-0.0323570127226,5.1337285041800005,0.9040107131,3.92626237869,0.517007708549,2.31618523598,0.791771769524,2205776.5,1521547063.0,514886496.0,,,,,,2664791.5,1521547064.0,502853845.0,,1.29299991131,-1.15699999109,-0.9639999389655,-0.0455000009388,-0.15049999952350002,-0.120000001043,1.0,4.5,8.0,11.0,23.0,180.0,183.0,196.5,227.5,244.0,5.0,1.5599999427809998,1.4550000093850002,0.18499946594200006,0.004999998956899995,0.0005000010129999621,-0.0010000020264999963,1.984891340188529,0.19778902950448063,6.525943609191414,2.501782075458608,0.02706567503165197,0.0584949735322359
31,31,52.140812179499996,5215.5,1521547064.0,625645994.5,,3160907.5,1521547063.0,622681268.5,,0.6890342368410001,-0.1560373980235,0.0904052962637,-0.305444450534,0.950347721676,-0.0026475289218650003,0.0594628216197,-0.018669124302600003,-0.01164848172057,-0.02522538298885,-0.02026174127205,0.0514738134646,0.0067966552912999975,5.250094652175,0.993191272019,3.706993222235,0.3211896419525,2.20270383358,0.653968513012,1250309.0,1521547063.0,633999872.0,,,,,,2664803.5,1521547064.0,622720592.0,,0.663000035286,-1.8969999969,-2.384000015255,-0.0645000003278,-0.06599999964240001,-0.0950000025332,7.0,8.0,10.5,13.5,16.0,212.0,217.0,263.5,277.0,315.0,0.0,-0.6299998760239999,-0.74000000581,-1.4200000762895,-0.018999999388999995,0.0844999998811,0.024999998509800003,3.1179535127650118,0.1324433859292,6.503208554960196,2.3200736584377513,0.03347451680838047,0.05573406637876593
32,32,52.2433762821,5221.5,1521547064.0,685696482.5,,3160915.0,1521547063.0,697677033.0,,0.6885552618359999,-0.156932135578,0.0890284123952,-0.304882366488,0.950578144623,-0.0026153922520100003,0.0586608327003,-0.010040877767700001,0.0109253956669,-0.0133830524318,-0.0147800993484,0.005165462540550001,0.0494247161136,4.43358039856,0.920013725758,3.5674722194699995,0.22628447413400002,1.9831300973900001,0.6177286505699999,3161267.5,1521547063.0,690750851.5,,,,,,2664809.5,1521547064.0,681623704.5,,-0.0919999599455,-3.871999931335,-1.2389995574935,-0.05849999934435,-0.14400000125200002,-0.0819999985397,4.5,8.0,15.0,26.0,108.0,227.0,243.0,271.0,302.0,342.0,-1.0,-0.7549999952315001,-1.9749999344350002,1.1450004577614998,0.0060000009834499995,-0.07800000160960001,0.0130000039935,4.066444068760482,0.17573346307512341,5.764539742491916,2.089401429152188,0.019982231837723165,0.051845307433907174
33,33,52.3459403846,5233.5,1521547064.0,805631041.0,,3160927.0,1521547063.0,816711499.0,,0.687583571739,-0.159003103355,0.08842525344080003,-0.304396895933,0.9508158798180001,-0.004018221850869999,0.0572323887743,-0.0130764726469,-0.0311895699398,-0.009353931939780001,-0.034975836864699995,0.0332257217118,-0.023747773723299996,4.86276435852,0.646605372429,3.05947399139,0.5211856365199999,1.97885346413,0.661760807037,2205798.0,1521547063.0,821387150.5,,,,,,2664821.5,1521547064.0,803463870.0,,-0.782000017166,-2.8520000100150003,-3.213999938965,-0.0599999986589,-0.08250000327825,-0.1114999987185,6.0,7.0,13.0,16.0,64.5,242.5,258.5,270.0,331.0,357.0,-1.0,-0.6900000572205,1.0199999213199995,-1.9750003814715,-0.001499999314550006,0.061499997973750026,-0.02950000017880001,4.367519169006613,0.1511241214836492,5.781432073296228,2.1506796288485925,0.035089591799404504,0.053770014919740754
34,34,52.44850448720001,5244.5,1521547064.0,915616989.0,,3160939.5,1521547063.0,942684490.0,,0.6872782363404999,-0.160226505204,0.08776463394885001,-0.3041235454005,0.9509337565545,-0.00444084308662,0.05669235592685,0.005712205709049001,-0.0011856106053550006,0.0023772296112550013,-0.00672142769337405,-0.013845315170525,0.007113469885755,5.702538013454999,0.991817206145,3.1798638105400014,0.3094511032105,2.42701971531,0.643153697252,2205806.5,1521547063.0,935866175.5,,,,,,2664832.5,1521547064.0,913114986.5,,-0.532000017166,-3.02699996233,-2.574000549315,-0.0835000015795,-0.07450000196695,-0.107000000775,3.5,4.5,6.0,8.5,16.0,235.5,245.0,293.0,310.0,340.0,-1.0,0.25,-0.17499995231499946,0.6399993896499998,-0.02350000292059999,0.008000001311299992,0.004499997943500006,4.008894064213267,0.154827325503937,6.6041028928149315,2.5297887979178313,0.006299697389133057,0.016954993253433297
35,35,52.5510685897,5256.5,1521547065.0,35753011.0,,3160951.5,1521547064.0,62679781.0,,0.6866465669645,-0.161287135659,0.08648382498285001,-0.303630631365,0.9511546729145,-0.004450470896105,0.0556184254336,-0.004066515432335,-0.00842195466033,-0.009012635820445,-0.0024205921151450004,0.00997452816783,-0.01678615520707,5.153801202775,1.0847300291050002,3.130942583085,0.448108419776,2.282680034635,0.7167392969130001,3161304.5,1521547064.0,60751708.5,,,,,,2664844.5,1521547065.0,32961369.0,,-0.4319999933245,-1.6870000034600001,-1.039000701905,-0.06699999794365,-0.15550000220549998,-0.1195000037555,7.5,11.0,21.0,47.0,51.0,229.0,249.5,252.0,301.0,335.0,-1.0,0.10000002384149996,1.3399999588699998,1.53499984741,0.016500003635849997,-0.08100000023854997,-0.012500002980499995,2.027835166986087,0.2072426146040532,6.127079853596013,2.4341619740959577,0.012988205129810708,0.019675504694786853
36,36,52.65363269229999,5263.5,1521547065.0,105616926.5,,3160959.0,1521547064.0,137681231.0,,0.6864837080195001,-0.161947896681,0.08583732484874998,-0.303072730011,0.951364532791,-0.004270320418559999,0.0550817510047,-0.0026828915019699996,-0.008609336685725,-0.00947461921093,0.001826589534,0.015100788503379996,-0.030767533114000007,5.4771423339849985,1.0220631361049999,3.0108904838550004,0.307421982288,2.35336124897,0.6482717096805001,1250328.5,1521547064.0,134499968.0,,,,,,2664851.5,1521547065.0,102024322.0,,-0.907000017166,-2.436999988555,-2.65400047302,-0.0879999995232,-0.07799999788405,-0.101999998093,-1.5,2.5,5.5,22.0,33.5,191.5,217.0,225.5,272.0,290.0,-1.0,-0.4750000238415,-0.7499999850950003,-1.614999771115,-0.02100000157955001,0.07750000432144998,0.0175000056625,3.7155533216664485,0.15566630719897934,6.333179510063173,2.460299504718806,0.013080022712963345,0.03432216975470256
37,37,52.7561967949,5276.5,1521547065.0,235658407.0,,3160972.0,1521547064.0,267677836.0,,0.686126064557,-0.162824416567,0.08530410836880001,-0.302893065652,0.9514606224169999,-0.00464956862088,0.054376983016999995,0.00268273956246,0.00669907575759,0.000791497452107,0.010708297383,0.00539245036972,0.00859603153411,5.818887710569999,1.0926027298,2.58641076088,0.359312057495,2.41982316971,0.6740105748180001,3161325.0,1521547064.0,265762600.0,,,,,,2664864.5,1521547065.0,232046709.0,,-1.0270000219325,-2.771999967095,-2.973998260495,-0.08800000324844999,-0.07699999958275,-0.11250000074549998,-4.0,-1.5,-1.0,2.5,4.5,156.0,161.0,165.0,219.5,254.0,-1.0,-0.12000000476649995,-0.33499997854,-0.3199977874749997,-3.725249983488333e-09,0.0009999983013000008,-0.010500002652499993,4.193253929355022,0.16226290603587812,6.460863373991502,2.5375065679310334,0.007259557547303415,0.01475255611641832
38,38,52.858760897399996,5284.5,1521547065.0,315626978.5,,3160978.5,1521547064.0,331929899.5,,0.6865306679050001,-0.162217177042,0.08550895458514997,-0.30312377151000003,0.951358565144,-0.004571496324100001,0.05488078339345,-0.004681020813599999,0.018199134763499998,-0.0029342034682500002,0.010296542661344998,0.00189456755135,0.010821075012334995,5.278834819789999,0.9872583746925,2.813202142715,0.3435505181555,2.3215225935,0.6530511379245001,1250336.5,1521547064.0,336999936.0,,,,,,2664872.5,1521547065.0,313304236.0,,0.827999997139,-3.282000017165,-0.7989990234375,-0.0869999974966,-0.12349999695999997,-0.0985000021755,-0.5,3.5,4.0,6.0,9.5,179.0,193.0,194.5,217.0,266.0,-1.0,1.8550000190715,-0.5100000500699995,2.1749992370574995,0.0010000057518499833,-0.04649999737724998,0.013999998569999993,3.4778596215757935,0.1803427271671966,6.062580510706976,2.4359741171450002,0.019019201139650447,0.015056687597413538
39,39,52.961325,5293.5,1521547065.0,405617951.5,,3160987.0,1521547064.0,416930039.0,,0.686293072392,-0.16254394643,0.08518500331389997,-0.302655232859,0.951538891292,-0.00448041493541,0.0543458762295,-0.0103152959411,-0.023809659028599998,-0.007034074179479999,-0.0168857645879,0.0168041608974,-0.022078941740700003,5.83728885651,0.89912712574,2.7900621891000004,0.410094290972,2.44854187965,0.664929986,3161340.0,1521547064.0,415002955.0,,,,,,2664881.5,1521547065.0,402672673.5,,-0.6120000600815,-2.4169999480250004,-2.193999481205,-0.0764999985695,-0.08850000053644999,-0.1200000010435,4.5,6.0,7.0,20.0,68.5,246.5,253.5,256.0,307.0,322.0,-1.0,-1.4400000572204998,0.8650000691399993,-1.3950004577675,0.010499998927100004,0.034999996423549985,-0.021499998868,3.321154399575609,0.16758430751870879,6.531984216271713,2.5701491299474712,0.026884631166766912,0.03248058708787312
