,Unnamed: 0,Unnamed: 0.1,.header.seq,.header.stamp.secs,.header.stamp.nsecs,.header.frame_id,.endpoint_state.header.seq,.endpoint_state.header.stamp.secs,.endpoint_state.header.stamp.nsecs,.endpoint_state.header.frame_id,.endpoint_state.pose.position.x,.endpoint_state.pose.position.y,.endpoint_state.pose.position.z,.endpoint_state.pose.orientation.x,.endpoint_state.pose.orientation.y,.endpoint_state.pose.orientation.z,.endpoint_state.pose.orientation.w,.endpoint_state.twist.linear.x,.endpoint_state.twist.linear.y,.endpoint_state.twist.linear.z,.endpoint_state.twist.angular.x,.endpoint_state.twist.angular.y,.endpoint_state.twist.angular.z,.endpoint_state.wrench.force.x,.endpoint_state.wrench.force.y,.endpoint_state.wrench.force.z,.endpoint_state.wrench.torque.x,.endpoint_state.wrench.torque.y,.endpoint_state.wrench.torque.z,.joint_state.header.seq,.joint_state.header.stamp.secs,.joint_state.header.stamp.nsecs,.joint_state.header.frame_id,.joint_state.name,.joint_state.position,.joint_state.velocity,.joint_state.effort,.wrench_stamped.header.seq,.wrench_stamped.header.stamp.secs,.wrench_stamped.header.stamp.nsecs,.wrench_stamped.header.frame_id,.wrench_stamped.wrench.force.x,.wrench_stamped.wrench.force.y,.wrench_stamped.wrench.force.z,.wrench_stamped.wrench.torque.x,.wrench_stamped.wrench.torque.y,.wrench_stamped.wrench.torque.z,.tactile_values.tactile_values_0,.tactile_values.tactile_values_1,.tactile_values.tactile_values_2,.tactile_values.tactile_values_3,.tactile_values.tactile_values_4,.tactile_values.tactile_values_5,.tactile_values.tactile_values_6,.tactile_values.tactile_values_7,.tactile_values.tactile_values_8,.tactile_values.tactile_values_9,.tag,.delta_wrench.force.x,.delta_wrench.force.y,.delta_wrench.force.z,.delta_wrench.torque.x,.delta_wrench.torque.y,.delta_wrench.torque.z,.wrench_stamped.wrench.force.magnitude,.wrench_stamped.wrench.torque.magnitude,.endpoint_state.wrench.force.magnitude,.endpoint_state.wrench.torque.magnitude,.endpoint_state.twist.linear.magnitude,.endpoint_state.twist.angular.magnitude
0,0,56.136171,5611.5,1521544947.0,647882461.0,,2949217.0,1521544946.0,717453883.0,,0.692812446864,-0.11790012797700004,0.0115255787484,0.0337717048627,0.998273040481,-0.0151390179635,0.0456203763052,0.00793033519196,-0.0126794153244,0.008958386391149998,0.00245111520897,-0.0135026232378,-0.035700002647300014,0.922612249851,1.5394474268,6.79297304153,0.338505417109,0.459510266781,0.36033219098999997,2949570.0,1521544946.0,715529452.5,,,,,,2453327.5,1521544947.0,642958856.5,,0.802999854088,0.9840000063165,0.8189998626710001,0.0370000004768,-0.1009999997915,-0.08049999922515,278.5,331.0,357.0,405.0,632.0,300.0,321.5,387.5,632.0,702.5,5.0,0.0,0.0,0.0,0.0,0.0,0.0,1.511233123363612,0.1343512183361779,7.026065363089757,0.6749628808704503,0.017433028307170566,0.038246816718347273
1,1,56.2387351026,5623.5,1521544947.0,767876028.5,,2949229.0,1521544946.0,837450470.0,,0.6923041139120001,-0.11803085552999999,0.0110343341604,0.0341626196239,0.9982924234620001,-0.0151218859626,0.0449052473909,-0.0107827956195,0.00340419267641,-0.007808745024260002,0.006019282503569999,0.018937046845900002,-0.00830651199579,0.906398057938,1.4314672946899998,6.90620517731,0.432218104601,0.481365352869,0.377692520618,2058072.0,1521544946.0,839271407.0,,,,,,2453339.5,1521544947.0,761055883.5,,-0.19199979305285,0.033999988436700004,0.8590007781985001,0.03649999946355,-0.08749999850989999,-0.0710000023246,307.0,338.0,364.0,402.0,616.0,301.0,337.0,384.0,649.0,720.5,5.0,-0.99499964714085,-0.9500000178798,0.040000915527499965,-0.0005000010132499981,0.013500001281600005,0.009499996900549992,0.880853141387179,0.11844619044175654,7.111000352011265,0.7491173025757423,0.013741677772526075,0.02153698322973295
2,2,56.3412992051,5634.5,1521544947.0,877916455.0,,2949240.0,1521544946.0,947453968.0,,0.692793780614,-0.117804299274,0.01131483051025,0.0329704710327,0.998293365498,-0.01528642537805,0.04571174901015,-0.003861520154505,0.008975959482360001,-0.0007635589728549997,0.00487362692299,0.0019411171568999989,0.008593144164754998,0.8771916031835,1.259299337865,6.82709527016,0.4767262637615001,0.4644360989335,0.36586770415299996,2949593.0,1521544946.0,945541146.0,,,,,,2453350.5,1521544947.0,871698546.5,,-0.8020000457745001,-1.641000023482,0.6539989471435,0.04550000093874999,-0.0835000015795,-0.07250000163914999,317.5,334.0,362.0,401.0,598.5,315.0,323.0,389.0,632.5,702.0,5.0,-0.6100002527216501,-1.6750000119186998,-0.20500183105500006,0.009000001475199984,0.003999996930399999,-0.0014999993145499851,1.9400514872948684,0.1195773832582044,6.99746595267772,0.7594919337917647,0.009801133038462652,0.010067884675420522
3,3,56.443863307700006,5645.5,1521544947.0,987855553.5,,2949253.5,1521544947.0,82448067.0,,0.6924061042190001,-0.1173191197655,0.011178820442950002,0.033148811759100005,0.9983115953524999,-0.014970867073850001,0.04528538037214999,-0.014824990803979997,0.005016987474789,-0.005037743846649999,-0.0024653285110499985,0.021545922521450003,0.009427680688145,0.922839671373,1.4138975143399999,6.793437480924998,0.3945107012985,0.454308062792,0.35272125899800005,2058089.5,1521544947.0,75271483.5,,,,,,2453361.5,1521544947.0,982325186.5,,-0.7070001363730001,-1.0159999974095,0.7240005493164999,0.0230000000447,-0.082499999553,-0.06350000016395,321.0,332.0,365.0,390.0,611.0,314.0,327.0,391.5,661.0,698.0,5.0,0.09499990940150004,0.6250000260724999,0.07000160217299989,-0.022500000894049986,0.0010000020264999963,0.009000001475199998,1.4339741918800835,0.10661847845998765,7.000109431098434,0.6974573792756001,0.016441696345716312,0.02364710944545537
4,4,56.5464274103,5654.5,1521544948.0,77835083.0,,2949262.5,1521544947.0,172447481.0,,0.6931045383454999,-0.1175198095935,0.011847444911,0.033310265559650006,0.998272098804,-0.014998984555799996,0.04602354909735,0.02012373469415,0.009058486479955004,0.0178221613793,0.012773425753425,-0.0411772965581,0.0001202472812000012,0.7826521098614999,1.3560663461700002,6.86262202263,0.424932748079,0.426853567362,0.359886199236,1166576.0,1521544947.0,167000064.0,,,,,,2453370.5,1521544948.0,71945989.0,,-0.4319998025895001,-0.15600000917900006,0.8740001678465,0.02999999932945,-0.0954999998212,-0.0595000013709,297.0,329.0,365.5,398.0,594.5,288.0,326.0,388.0,620.5,696.5,5.0,0.27500033378350003,0.8599999882305001,0.1499996185300001,0.006999999284750001,-0.013000000268200002,0.0039999987930499905,0.9873378984405113,0.11644956027720028,7.038965924464459,0.7016337255008273,0.028366358800132885,0.04311316059767146
5,5,56.648991512799995,5662.5,1521544948.0,157887577.5,,2949270.5,1521544947.0,252447746.0,,0.6929100253524999,-0.1174722813455,0.011613615940450002,0.03292714791995,0.998290243047,-0.01500844988415,0.045901272203150004,-0.003079054092693,0.0027141677429050005,0.0027370514522490003,-0.00843907850226,-0.0015417750594015,0.018009723327759998,0.888085156679,1.317639410495,6.896879911419999,0.47477617859849996,0.48849691450599997,0.3822977691890001,2058101.0,1521544947.0,251771540.5,,,,,,2453378.5,1521544948.0,151328956.5,,0.21799981594104997,-0.331000006199,0.7539993286130001,0.0315000005066,-0.08999999985095,-0.08049999922515,320.0,324.5,363.0,395.0,620.0,290.0,313.5,377.0,617.0,688.5,5.0,0.6499996185305501,-0.17499999701999994,-0.12000083923349993,0.0015000011771499967,0.005499999970249997,-0.02099999785425,0.8518215255573932,0.12478982282356182,7.077557585364595,0.7811486667551594,0.004933429972606675,0.01994856512743616
6,6,56.7515556154,5675.5,1521544948.0,287924408.0,,2949283.5,1521544947.0,382448508.5,,0.69329483228,-0.117833753613,0.012193689950950002,0.03310537819975,0.9982548671225,-0.01529933901065,0.0464451890083,0.00266639591642,0.006769852307054999,0.0017940894113299996,0.012688105680805,-0.006796209838599998,0.012174435635349999,0.7733103930949999,1.757871091365,7.47892642021,0.29630942642700003,0.4762562960385001,0.349123895168,2058110.5,1521544947.0,377256558.0,,,,,,2453391.5,1521544948.0,281993257.5,,-0.14200007915500001,-1.3210000008350002,1.6290012359650001,0.0209999997169,-0.09800000116245,-0.07800000160929997,322.0,336.0,357.0,392.0,623.0,314.0,326.0,376.0,628.5,725.0,5.0,-0.35999989509604996,-0.9899999946360004,0.8750019073519998,-0.0105000007897,-0.008000001311499999,0.002499997615850028,2.102106099002045,0.1270000018385858,7.721558141776871,0.6606866351630596,0.007493952512411963,0.018851879932166964
7,7,56.8541197179,5683.5,1521544948.0,367848515.0,,2949291.5,1521544947.0,462449904.5,,0.6931560261534999,-0.1178757159335,0.011984941479200002,0.03335682717115,0.9982420937084999,-0.01490513292555,0.0466665491376,-0.0076883278937065,0.006963176701395001,0.006679200662029999,0.0310046747804,-0.0176546407235,-0.004842567638466499,-0.658125698566,0.8877438902835,9.068122386935,0.8940791487695,0.430351831019,0.5441100299355001,1166587.5,1521544947.0,465500032.0,,,,,,2453399.5,1521544948.0,361588743.0,,-0.28699982166285,0.688999989629,1.728999710085,0.035499999299650004,-0.08900000154974999,-0.0989999994635,300.5,342.0,360.5,390.0,629.5,293.0,317.0,384.0,649.0,700.0,5.0,-0.14499974250785,2.009999990464,0.09999847412000018,0.014499999582750002,0.008999999612700009,-0.02099999785420004,1.8832232689772301,0.13777608689429255,9.135210029018511,1.1316518666985047,0.012337258085152372,0.036005925326914726
8,8,56.956683820500004,5696.5,1521544948.0,497872471.5,,2949302.0,1521544947.0,567633348.0,,0.687731184455,-0.118136274974,0.0123643345096,0.03410519067185,0.9983219971770001,-0.0132501077857,0.04487273854205,-0.06548249223734999,-0.0051201132015,0.010239067911084998,0.07748476414460001,0.05379864653620002,-0.08817904425389997,1.1359420418725001,1.3569570183750002,13.56855630875,1.0654548406614999,1.931966722015,0.6490900516510001,2949655.5,1521544947.0,570683317.0,,,,,,2453412.5,1521544948.0,492964478.5,,-0.6519998311999999,-2.506000003215,9.273997879025,-0.01100000040607,-0.38199999928499995,-0.09899999946344999,277.5,288.5,314.0,398.0,698.0,236.0,333.0,392.5,607.0,720.5,5.0,-0.36500000953715,-3.194999992844,7.544998168939999,-0.04649999970572,-0.29299999773525,5.000166947155549e-14,9.62871624133553,0.39477335188236373,13.683472401986641,2.2997841915307413,0.0664756411063375,0.12912678610266162
9,9,57.0592479231,5704.5,1521544948.0,579370498.0,,2949310.5,1521544947.0,652642127.0,,0.6788327753835001,-0.117335346958,0.01397126431335,0.03917868436615,0.9984278742135,-0.00938725553145,0.03895688823505,-0.154936378843,0.0264791798577,0.018161836337155,0.10182946325894998,0.2282754736535,-0.119313062462,1.65333378315,2.18902170658,16.12113666535,0.353454947472,2.1934814453099998,0.597025036812,2949663.0,1521544947.0,645679303.0,,,,,,2453420.5,1521544948.0,572667322.0,,-0.5370000600814999,-0.05599997788649996,9.80400047302,-0.194499999285,-0.3494999855755,-0.08200000226495,253.0,307.0,323.0,437.0,747.0,271.0,366.5,407.5,612.0,734.5,5.0,0.11499977111850003,2.4500000253285,0.5300025939949986,-0.18349999887892998,0.032500013709500016,0.01699999719850001,9.818855856820957,0.4082946117824622,16.352870574100308,2.3005934333106426,0.15822857123179632,0.276973894678536
10,10,57.16181202560001,5714.5,1521544948.0,677845596.5,,2949320.0,1521544947.0,747666428.0,,0.664432201838,-0.117603804834,0.0169806532055,0.041104222469,0.998688268634,-0.009654234081510001,0.0289651644652,-0.161388651795,-0.00336607143009,0.0371497997875,-0.07214268730769999,0.181448043174,0.116938030145,3.96692442894,2.69568920135,15.8335170746,-0.39500126242600003,2.2585723400099997,0.44153615832299997,2058135.5,1521544947.0,749840071.0,,,,,,2453430.5,1521544948.0,672921607.5,,0.7029999494554999,2.094000020625,10.84900245665,-0.229500003159,-0.16099999845000001,-0.07699999958275,199.0,306.0,351.0,502.0,782.5,399.0,493.0,518.0,715.5,822.0,5.0,1.2400000095369998,2.1499999985115,1.0450019836300015,-0.03500000387400001,0.1884999871255,0.0050000026821999935,11.071580705559152,0.29072366757218876,16.54398660078174,2.334979484167476,0.1656433970592597,0.22760154348739217
11,11,57.2643761282,5725.5,1521544948.0,787881970.0,,2949331.5,1521544947.0,862647310.5,,0.6476362783595,-0.122071374805,0.023905721170799997,0.03495993203425,0.999026394413,-0.019241673681349998,0.01880607943785,-0.135391259285,-0.012443691309165,0.061519406094200015,-0.10372057612345,0.12636622092,0.09104114892005,5.5876860618599995,1.4469230175,15.4296512604,1.4507456421849998,2.19093775749,0.6828270554539999,1166603.0,1521544947.0,864999936.0,,,,,,2453441.5,1521544948.0,782296543.5,,-0.7120000123975,1.299000003935,9.86899909975,0.041500000399555,0.0510000018403,-0.0645000003278,158.0,312.0,434.5,552.0,819.0,567.0,576.0,615.0,774.0,847.0,5.0,-1.4149999618529998,-0.7950000166899998,-0.9800033568999992,0.27100000355855497,0.2120000002903,0.012499999254950005,9.979553509989488,0.09210591871948223,16.473917559646797,2.714981392785972,0.14923228829700022,0.1871226081949088
12,12,57.3669402308,5737.5,1521544948.0,907901525.0,,2949343.0,1521544947.0,977627754.0,,0.638661231309,-0.1214896402545,0.032338403666350005,0.03160278038205,0.9991266671965,-0.02139833099145,0.017000697355,-0.03336469764345,0.00903959898727,0.0821437527229,0.01195117606034,-0.04452785637645,0.00436697913995,8.30176830292,2.1656756401050004,13.400848865550001,0.8146994411949999,2.92976593971,0.5648478865625,2949696.0,1521544947.0,975679819.0,,,,,,2453453.5,1521544948.0,902697824.0,,0.21800005435950004,2.8039999395599997,12.054000473050001,-0.08999999985095,-0.0074999998323600015,-0.09800000116225001,145.0,273.5,423.5,568.0,851.0,555.0,588.0,618.0,662.5,791.5,5.0,0.930000066757,1.504999935625,2.1850013733000004,-0.131500000250505,-0.05850000167266,-0.03350000083445,12.377756949021212,0.1332675887020449,15.912016159205727,3.09294629373392,0.08912078046163215,0.04631016205451846
13,13,57.4695043333,5747.5,1521544949.0,7923960.5,,2949355.5,1521544948.0,102625935.0,,0.6439426066959999,-0.1172530845255,0.0414284484731,0.03115517568665,0.9990204929735,-0.01765060878295,0.02598339975645,0.08908451253575,0.042430548195,0.07793127875309999,0.06553424418585001,-0.2452220242325,0.0470600331562,2.8416038751599997,1.143778145315,12.9734950066,0.6846876740455,1.25570398569,0.579240202904,2949707.5,1521544948.0,90682526.0,,,,,,2453463.5,1521544948.5,505158572.0,,-0.416999936104,2.08899990618,9.97899971007,-0.1200000010432,0.10099999979135,-0.029500000178850006,101.0,255.0,393.5,570.0,820.0,569.0,595.0,625.0,627.0,791.5,5.0,-0.6349999904635,-0.71500003338,-2.075000762980002,-0.030000001192249992,0.10849999962371,0.06850000098339999,10.203834806988397,0.15959714978273531,13.3302105653024,1.5430842243143619,0.12573657384370623,0.2581534912612225
14,14,57.5720684359,5758.5,1521544949.0,120066523.0,,2949366.5,1521544948.0,212633564.5,,0.650344766442,-0.1137266233075,0.048697072216300014,0.02886744433215,0.998845632597,-0.014747870320800001,0.035447224769950006,0.0514163964534,0.04315683905045002,0.0700520327499,0.04549162003095,-0.1642960480725,0.0800104860257,-0.3150030970595,-0.14800519496200004,16.2385873795,0.8853023350235001,0.8020176291450001,0.5747422873975,2058168.0,1521544948.0,212839841.0,,,,,,2453474.5,1521544949.0,113630931.0,,-2.077000021935,3.013999977705,8.26400337219,-0.2005000039935,-0.1765000000595,-0.07750000059605,71.0,238.5,303.0,509.0,794.5,515.5,546.0,607.0,684.0,699.0,5.0,-1.660000085831,0.9250000715250001,-1.7149963378799988,-0.08050000295029999,-0.27749999985085,-0.0480000004172,9.038355862229116,0.27813441303582837,16.242316724240712,1.3256399204838163,0.09702291416708073,0.18831982577347056
15,15,57.674632538500006,5768.5,1521544949.0,220064520.0,,2949376.5,1521544948.0,312631077.0,,0.6535872661895,-0.1120567322115,0.0539579991682,0.02758328741565,0.998688542006,-0.013915964671049998,0.0408207846313,0.0303362805124,-0.006611806502765,0.0509047757154,-0.017967455015599997,-0.08036464375335,0.01134585080697,1.0458708554529998,-0.5554052293277499,13.835045337650001,1.190977215765,1.49032574892,0.649943649769,2058175.5,1521544948.0,318340434.5,,,,,,2453484.5,1521544949.0,212710192.5,,-1.0370000600825,1.288999953865,10.25400123595,-0.06900000199675001,-0.33900000154950005,-0.09050000086445,153.0,206.5,276.5,320.0,461.5,426.0,446.0,518.0,618.0,732.0,5.0,1.0399999618525,-1.72500002384,1.9899978637599995,0.13150000199675,-0.16250000149000005,-0.013000000268399994,10.386598642122415,0.3575922978513072,13.885632873941383,2.0154216219541654,0.05962635399881669,0.08312661268134586
16,16,57.777196641,5779.5,1521544949.0,328715562.5,,2949387.5,1521544948.0,422633284.0,,0.6564657231275,-0.11254288564300001,0.05987424249935,0.0279931195805,0.9985905496080001,-0.01318172437475,0.04312087902335,0.01390395135048,-0.0003861336494499993,0.05104333125225,0.024118650096559998,0.00734198882126,-0.04330836373705002,1.7709395885449999,-0.0255635902285,13.077571392049999,1.145600616935,1.7238857150049998,0.7449009716509999,1166625.5,1521544948.0,426500096.0,,,,,,2453495.5,1521544949.0,323076536.5,,-1.6569999456400002,1.934000054005,8.708999252315,-0.1635000035165,-0.2184999957685,-0.06650000065565,90.0,107.0,168.0,274.0,355.0,377.0,473.5,494.0,550.0,629.5,5.0,-0.6199998855575002,0.6450001001399999,-1.5450019836350002,-0.09450000151974998,0.12050000578100005,0.0240000002088,9.073735339184493,0.2808856518014608,13.196960030157923,2.19978639633187,0.05290454259965465,0.0501121587233321
17,17,57.879760743599995,5787.5,1521544949.0,408255934.5,,2949395.0,1521544948.0,497678006.0,,0.656871660603,-0.113771422984,0.0628400941225,0.028638415465199997,0.9985612858759999,-0.014519806316,0.0429461841634,0.00822791245304,-0.016939492256,0.0383218774835,-0.0134357130994,0.0174186405733,-0.038596329073,2.1706092357599998,0.38333684206,10.1963500977,0.9290189147,1.4365695715,0.671748995781,1166628.0,1521544948.0,481999872.0,,,,,,2453503.5,1521544949.0,403726158.5,,-2.2170000076300003,1.239000001545,6.118999099730001,-0.0810000002384,-0.132500000298,-0.05650000087915,13.0,15.0,45.0,105.5,120.0,231.0,247.0,306.0,383.0,498.0,5.0,-0.5600000619900001,-0.6950000524600001,-2.5900001525849987,0.08250000327809999,0.08599999547050002,0.009999999776499992,6.625130943623415,0.16525586288218264,10.431876480466682,1.83794858224131,0.04269907768425869,0.04442526357628626
18,18,57.9823248462,5795.5,1521544949.0,487972974.0,,2949401.0,1521544948.0,557691211.5,,0.658143388994,-0.115106423602,0.06681152532835,0.0296529232725,0.9985101260445001,-0.01491586594295,0.04330227957015,0.0633781730092,-0.02495096101355,0.09603478771435,0.00035090743584999945,-0.09773512614565,-0.0575549558926,1.6335079669933998,-0.08915817737600007,9.895660877205,1.036072909832,1.058797910811,0.6772882938385001,2058192.0,1521544948.0,559869225.0,,,,,,2453511.5,1521544949.0,483117026.5,,-0.17200005054499998,0.3640000015495,0.464000320435,-0.07499999925494999,-0.0440000006929,-0.0449999999255,-13.0,-11.0,-8.0,11.0,17.0,171.0,172.0,209.0,215.0,240.0,5.0,2.0449999570850004,-0.8749999999955,-5.654998779295001,0.006000000983450007,0.08849999960510001,0.01150000095365001,0.6143096254164517,0.0979081199008167,10.029975157270806,1.628870628194932,0.11773709577199554,0.11342332637748632
19,19,58.0848889487,5808.5,1521544949.0,617876529.0,,2949414.0,1521544948.0,687691282.0,,0.672454985508,-0.116070042848,0.08304519043030001,0.033108805195499996,0.997706887236,-0.0138631511508,0.057381070233699996,0.160625120211,-0.011502773877399999,0.147613136185,0.027287613624800002,-0.29546980985300003,-0.0916526837771,1.2119207382200001,1.35764074326,4.61697244644,0.3736250400540001,0.794522643089,0.550599336624,2949767.0,1521544948.0,685744517.0,,,,,,2453524.5,1521544949.0,613740170.5,,-0.1869999170303,1.7240000158500002,-0.27100028991700004,-0.08549999818205001,-0.09549999982125,-0.07099999859930001,-36.0,-33.0,-31.5,-28.0,17.5,92.5,99.0,103.5,115.0,121.5,5.0,-0.014999866485299997,1.3600000143005002,-0.735000610352,-0.010499998927100018,-0.05149999912834999,-0.02599999867380001,1.7551598732751492,0.14653156470907525,4.962698342099128,1.0363501003171045,0.2184545285043186,0.31055955441017985
20,20,58.187453051300004,5818.5,1521544949.0,717949986.0,,2949423.0,1521544948.0,777684687.0,,0.6849942162614999,-0.1146560619155,0.09316514732475,0.034675050513500005,0.997040771653,-0.0114471240685,0.0676476996566,0.12611378677100002,0.02044036933354,0.112616772002,0.021954590000200003,-0.17273968082600002,0.0021617994063100002,0.7202423214910001,1.0054461657979998,4.32994914055,0.6714366972445001,1.06760829687,0.7427562475205001,2949777.0,1521544948.0,785733500.0,,,,,,2453534.5,1521544949.0,714681282.5,,-2.27199995518,1.36899999678,-1.781000518795,-0.08999999985115001,-0.10500000044715,-0.09500000253345,-38.5,-36.5,-33.5,-31.0,19.5,59.0,60.0,62.0,63.5,90.5,5.0,-2.0850000381497003,-0.35500001907000023,-1.5100002288780001,-0.004500001669100001,-0.00950000062590002,-0.024000003934149985,3.195012931972204,0.16777961899010263,4.50312453233689,1.4636603284857448,0.17030864114413935,0.1741426849759081
21,21,58.2900171538,5829.5,1521544949.0,827885985.0,,2949434.0,1521544948.0,887677767.0,,0.6959460648310001,-0.1098801062955,0.101180484082,0.033720964014249996,0.996261962388,-0.006506627374849999,0.07925749037525001,0.08068773719885003,0.04405564256835,0.0460643154012,0.1233129717735,-0.281420346908,0.0416596819321,0.20343530178300007,0.6821013242006501,8.479293346404999,0.441375203431,1.338669002057,0.6054754555224999,2949787.5,1521544948.0,890737661.0,,,,,,2453545.5,1521544949.0,824599358.5,,-1.181999921795,1.729000011085,-0.960998916628,-0.117000002414,-0.15150000154999999,-0.0774999968708,-32.0,-23.5,-15.5,-6.0,3.0,23.5,25.0,29.5,37.5,50.0,5.0,1.0900000333850002,0.36000001430500017,0.820001602167,-0.027000002562849984,-0.046500001102850005,0.01750000566264999,2.304361901094423,0.2065127128035948,8.509116510712255,1.534094943121911,0.10282670727861576,0.31006294483558466
22,22,58.39258125640001,5839.5,1521544949.0,929165005.0,,2949444.0,1521544948.0,987681552.0,,0.6935324596349999,-0.111815147916,0.106313569932,0.0330504344877,0.9963438833409999,-0.0106309156644,0.0780609924482,-0.06203377235859999,-0.0480838660447,0.057621074544099996,-0.15833836489800002,0.0848861689238,-0.0016503675988699998,2.0241005420700002,0.918483912945,3.29547810555,0.8534940481190001,0.8169257044789999,0.658917248249,2949798.0,1521544948.5,495758461.0,,,,,,2453556.0,1521544949.0,928735057.0,,-2.0870000124,0.5440000087024001,-0.056000137329,-0.08750000223519999,-0.09600000083460003,-0.06299999915065001,-29.5,-26.0,-25.0,-3.0,16.5,65.5,66.5,72.0,76.5,88.5,5.0,-0.905000090605,-1.1850000023826002,0.9049987792990001,0.029500000178799998,0.0555000007154,0.014499997720149998,2.157461720774364,0.14436499036949751,3.9750184461089293,1.3527718347352975,0.09736752702241126,0.1796647522090616
23,23,58.495145359,5851.5,1521544950.0,48077463.5,,2949459.5,1521544949.0,142684977.0,,0.6967185917505001,-0.1096938430965,0.1129023825195,0.031868737910649994,0.9958319271605,-0.00938966261418,0.08493993753325,0.0349661628777,0.023844476563450002,0.0326450235387,0.0256742367048,-0.091853121989,0.029160174250150002,0.183559194207,0.3169182389976,4.072151064870002,0.7568738758564999,0.562366515398,0.6522760987280001,1166654.0,1521544949.0,137999872.0,,,,,,2453567.5,1521544950.0,43796114.5,,-0.7670000791545001,2.9439999252549995,0.6240001678465,-0.11649999767550001,-0.1039999984205,-0.0840000025928,-37.0,-33.5,-30.0,-22.5,24.0,114.0,117.0,124.0,140.0,153.0,5.0,1.3199999332454997,2.3999999165526,0.6800003051755,-0.028999995440300005,-0.007999997585899976,-0.021000003442149983,3.105607974422546,0.17732526488192799,4.088587218478915,1.146550596601279,0.05344987531152003,0.09973203202481802
24,24,58.597709461499996,5858.5,1521544950.0,121940970.0,,2949467.0,1521544949.0,217679923.0,,0.6985110457800001,-0.10819473006500001,0.113472906929,0.0316632344117,0.9956482498999999,-0.00786350377893,0.08729357001499999,0.00624343770509,0.00353606908047,-0.0007107787999669999,0.0255391547739,-0.0179768925125,-0.0013144655895000002,1.80501353741,0.932913005352,4.81867837906,0.297207057476,1.3777282238,0.509081184864,2949819.0,1521544949.0,205754003.0,,,,,,2453575.0,1521544950.0,117606289.0,,-2.01700007915,1.81399993002,-0.9059986114499999,-0.09000000357629999,-0.135000005364,-0.097000002861,-45.5,-42.5,-33.5,-32.0,61.0,98.0,102.0,127.0,139.5,143.5,5.0,-1.2499999999954996,-1.1299999952349995,-1.5299987792965002,0.026499994099200008,-0.03100000694350001,-0.013000000268200002,2.860020725336269,0.18903439540741798,5.229537442891921,1.4985428744120668,0.00721037484612818,0.0312593171831564
25,25,58.7002735641,5871.5,1521544950.0,247851490.5,,2949479.0,1521544949.0,336739439.0,,0.695829408916,-0.108445556758,0.11212880744300001,0.031121656174,0.9958980592899999,-0.00870532263118,0.08451458677369998,-0.0418554491693,-0.00265144594012,-0.0273508923227,-0.0128697664897,0.0851302398477,0.0188185361854,1.0890276432,0.730098545551,5.62071990967,0.447002053261,0.804703474045,0.495925486088,1166661.0,1521544949.0,335000064.0,,,,,,2453587.5,1521544950.0,243717810.0,,-1.0270000696205002,1.533999958635,-1.410999679565,-0.0854999981821,-0.0790000036359,-0.103000000119,-45.5,-44.5,-19.5,-19.0,-9.5,99.5,113.0,115.5,117.5,159.0,5.0,0.9900000095294996,-0.2799999713850001,-0.5050010681149999,0.0045000053941999935,0.056000001728100005,-0.005999997258000003,2.323532894500361,0.1554356789418868,5.771613067144242,1.0456101589556506,0.0500697523619317,0.0881301647007853
26,26,58.8028376667,5881.5,1521544950.0,347896099.0,,2949489.5,1521544949.0,441739729.5,,0.6943542567000001,-0.1096313433925,0.1107368232175,0.03136941896175,0.9960058420645,-0.009389925860110001,0.08306688115175001,-0.01320765110498,-0.0136336352198,-0.006627713855995,-0.034690005027900005,0.01771472619176,0.014248516400815002,2.0819619298000003,1.094328880311,5.75960636139,0.31803579628499995,1.192170858385,0.4808746278285,1166665.5,1521544949.0,438999936.0,,,,,,2453597.5,1521544950.0,343163046.5,,-1.6670000553150002,0.9989999920115,-2.201000595095,-0.08200000226500001,-0.10599999874825,-0.0799999982119,-42.5,-30.0,-26.5,-23.0,-16.5,81.5,86.0,90.5,95.0,106.5,5.0,-0.6399999856945,-0.5349999666234999,-0.7900009155300001,0.003499995917099985,-0.026999995112350003,0.0230000019071,2.936203975896044,0.15607690354435216,6.221349259893985,1.3242577283105657,0.020105836167003812,0.04147563372040323
27,27,58.9054017692,5891.5,1521544950.0,447944998.0,,2949497.0,1521544949.0,516798740.0,,0.693843573054,-0.10920530103800001,0.110372024079,0.031119769692199997,0.996041973196,-0.00915945679435,0.08275295715639999,0.0069373323255800005,0.00655003279251,0.00412178590183,0.00765764204048,-0.031976269319599994,0.0193259880012,2.1657884120900004,1.24134743214,5.54610157013,0.155458167195,1.28098034859,0.42734506726300003,2949850.0,1521544949.0,514815917.0,,,,,,2453607.5,1521544950.0,443941148.5,,-1.2820000648495,0.4639999657890001,-0.8909992218005,-0.06400000117719999,-0.15299999713899998,-0.0630000010133,-48.0,-35.0,-25.5,-18.0,-10.5,73.0,79.0,86.0,88.5,112.5,5.0,0.38499999046550015,-0.5350000262224999,1.3100013732945,0.01800000108780002,-0.046999998390749975,0.0169999971986,1.6287110694581197,0.1774091299874147,6.082008345885622,1.3593019170645662,0.010393201066034377,0.03813941653253553
28,28,59.0079658718,5900.5,1521544950.0,538177490.0,,2949505.0,1521544949.0,596756328.0,,0.694096577282,-0.10951543698100001,0.110497701431,0.0313477950435,0.9960157529979999,-0.00915338958783,0.0829828354848,0.0110726327676,-0.008767095171719998,0.000313141031685,-0.015136461499299998,-0.0195715604272,0.0095348998194,1.69190049171,0.745894432068,5.27940988541,0.3707290589810001,1.06301772594,0.44948253035499997,2058265.5,1521544949.0,598427119.0,,,,,,2453616.5,1521544950.0,536110135.0,,-1.047000050544,1.4039999634,-2.615999603275,-0.08100000023845,-0.07950000092389999,-0.09100000187755,-49.0,-46.5,-42.5,-6.0,-4.0,77.0,78.5,81.0,87.0,93.5,5.0,0.23500001430550002,0.9399999976109998,-1.7250003814744996,-0.01699999906125001,0.07349999621509999,-0.02800000086425,3.1481548448895107,0.14547250780557508,5.593840766039324,1.2122216240976402,0.01412668437609654,0.026515519207462753
29,29,59.110529974399995,5909.5,1521544950.0,627880930.0,,2949515.0,1521544949.0,696772882.5,,0.6936576387755,-0.109310823262,0.110120516501,0.030982322353449998,0.996054529819,-0.00929639544586,0.08263746862975001,-0.016291207460450003,-0.0037024782513045,-0.01497426482695,-0.007281178712245,0.0392924104869,0.007757942402150002,1.90387094021,0.9322735369205,4.94026875496,0.311982318759,1.1654646992700002,0.461029484868,2058272.0,1521544949.0,694413062.0,,,,,,2453625.0,1521544950.0,618359609.0,,-0.307000041008,0.8839999824760001,-1.5560001373299999,-0.06499999761580001,-0.152999997139,-0.0790000036359,-47.5,-45.5,-36.0,-25.0,5.0,80.0,84.0,88.0,94.0,107.0,5.0,0.7400000095360001,-0.5199999809239999,1.0599994659449996,0.016000002622649986,-0.07349999621510002,0.011999998241650005,1.815720634229688,0.18405162153336285,5.375882613660049,1.2915839571550924,0.02243524889160886,0.04070742875232696
30,30,59.2130940769,5922.5,1521544950.0,757845043.5,,2949528.0,1521544949.0,826762839.5,,0.6917935222239999,-0.1096989660835,0.108260435554,0.0308198529434,0.9962375016035,-0.00978959004384,0.08040501826339999,-0.01056634769801,-0.0072883626092549985,-0.01516335615995,-0.0060475552796850005,0.03347766142695,-0.006971596749090001,3.4825247526150003,1.26565873623,3.86114811897,0.2276762872935,1.642082452775,0.449554413557,2058280.5,1521544949.0,828406174.0,,,,,,2453638.5,1521544950.0,755219214.5,,-1.861999988555,1.554000058775,-1.636000061035,-0.07499999925494999,-0.08449999988080001,-0.08799999952314999,-44.0,-43.0,-39.0,-21.0,5.0,102.0,104.0,108.0,117.0,127.0,5.0,-1.554999947547,0.6700000762989999,-0.07999992370499998,-0.010000001639149977,0.0684999972582,-0.008999995887249992,2.925483949666798,0.14321050863736257,5.351479747303269,1.7176642408386718,0.019866939956438213,0.03472650141765312
31,31,59.3156581795,5929.5,1521544950.0,827877998.0,,2949535.5,1521544949.0,901759378.5,,0.6908228107305001,-0.109941631832,0.1066212744365,0.03060434726555,0.996352613855,-0.009780544315685,0.07905062116610001,-0.013738451630625,-0.0093896945609,-0.0185992620142,-0.007465108434739998,0.0572257416251,-0.010497789505399998,3.624354362485,1.3616362214050002,4.0965466499300005,0.186731494963,1.7808101177200002,0.4402329921725,2949889.0,1521544949.0,904867262.5,,,,,,2453645.5,1521544950.0,824544721.5,,0.357999920845,1.458999970555,-1.3510002136250001,-0.0599999986589,-0.14999999850950002,-0.0819999985397,-50.0,-45.5,-41.5,-38.0,-4.0,102.5,110.5,117.5,121.5,132.0,0.0,2.2199999094,-0.09500008821999996,0.2849998474100002,0.015000000596049988,-0.06549999862870001,0.0060000009834499934,2.0204074922201496,0.1811739472231833,5.636638377557926,1.8438976148317427,0.024956842040347992,0.05865762467902034
32,32,59.418222282100004,5943.5,1521544950.0,967868924.0,,2949550.0,1521544950.0,46760635.5,,0.688757774316,-0.1099873939825,0.103759996276,0.03054631642775,0.9965825341885,-0.009847875447629998,0.07611138973445,-0.004399450101759999,0.0040639136569675,-0.016124079863399997,0.016261245155995002,0.027223570333985,-0.003762331478225,4.518042802809999,1.668432831765,3.782735824585001,0.1001389734447,1.9888102412200002,0.4070453196765,2949904.0,1521544950.0,54818781.5,,,,,,2453659.5,1521544950.0,965138337.5,,-2.102000117305,1.98900000155,-1.816000366215,-0.08449999988080001,-0.07800000160935,-0.08500000089410001,-50.0,-39.5,-33.5,-21.5,16.0,119.5,121.5,127.0,142.0,149.0,-1.0,-2.4600000381500005,0.5300000309949999,-0.4650001525900001,-0.02450000122190001,0.07199999690015002,-0.003000002354400011,3.416486913396442,0.14300087546204326,6.124170899046938,2.0325058134860665,0.017200479843610884,0.031932835982806815
33,33,59.5207863846,5952.5,1521544951.0,57848930.0,,2949560.5,1521544950.0,151757509.0,,0.6881602696889999,-0.1100736959185,0.1022266384405,0.0306423543972,0.9966676749105,-0.00955929420115,0.0749875411217,-0.01703081465465,0.00840262960158,-0.01642351106995,-0.004248817755624999,0.0399506435712,0.024804658735419996,4.15129375458,1.534650027755,3.71573448181,0.07081699743844501,1.98258018494,0.4158667474985,2058303.5,1521544950.0,146425621.0,,,,,,2453668.5,1521544951.0,54722876.5,,-2.947000026705,1.063999930024,-2.3110012054449998,-0.08799999952314999,-0.09400000050665,-0.07050000131129999,-43.5,-41.0,-40.0,-39.0,-36.0,123.0,124.0,132.0,138.5,146.5,-1.0,-0.8449999093999994,-0.925000071526,-0.4950008392300002,-0.0034999996423499824,-0.01599999889729999,0.014499999582800016,3.893280311004923,0.1468000347282585,5.778847054890376,2.026964328378253,0.02510746000469103,0.04721628393948665
34,34,59.6233504872,5963.5,1521544951.0,167833924.0,,2949571.5,1521544950.0,261819830.5,,0.6864252710450001,-0.109708149848,0.100421359563,0.030287577222199998,0.9968337394915,-0.009605726933930001,0.07288946660279999,-0.0174435654053,-0.004142754494539499,-0.01832840761305,-0.015394360939445,0.045966074535449986,-0.0025800430393999978,5.333741426465,1.8389014601700002,3.2402461767150004,-0.049495499581124994,2.29360353947,0.3678111881015,1166698.0,1521544950.0,248999936.0,,,,,,2453679.5,1521544951.0,164855098.5,,-2.59700000286,1.0990000158555,-2.275999450685,-0.07799999788405,-0.08999999985099999,-0.07150000333785,-40.5,-39.0,-37.5,-29.5,-21.5,125.5,131.0,140.0,153.0,159.0,-1.0,0.35000002384499984,0.03500008583150005,0.03500175476000012,0.010000001639099991,0.004000000655649996,-0.0010000020265500118,3.6238630698777308,0.13891094312689828,6.506116466089463,2.3234354027690833,0.025639245591107307,0.04854403134287067
35,35,59.725914589700004,5971.5,1521544951.0,247854470.5,,2949579.5,1521544950.0,341814990.5,,0.6859475662715,-0.1097668835985,0.09939203904715,0.0306420591457,0.996885379251,-0.00950024800497,0.07204373990855001,-0.004134278892464999,0.00038207716795500037,-0.016100710966700002,0.0042556401542715,0.016435230272190002,-0.0008758847368999997,4.69912171364,1.6673567891149998,4.1157906055449995,-0.06736971251655001,2.12157142162,0.3301979899405,2058317.0,1521544950.0,342959639.5,,,,,,2453687.5,1521544951.0,244343024.0,,-1.921999931335,1.574000039695,-1.84099998474,-0.07899999991060001,-0.07750000059605,-0.09500000253315,-50.0,-48.0,-37.0,-35.0,-22.0,121.5,130.0,133.5,157.5,180.0,-1.0,0.6750000715249997,0.4750000238395,0.4349994659450001,-0.0010000020265500118,0.012499999254949991,-0.023499999195299992,3.0920609316157224,0.14585009619318412,6.465412272276478,2.1481700788717863,0.016627421284016588,0.016999836507887157
36,36,59.828478692299996,5981.5,1521544951.0,347846984.5,,2949589.5,1521544950.0,441817836.5,,0.6859465556450001,-0.1108238194895,0.09915286640419999,0.031034228685,0.996886862882,-0.010112397808555,0.07177160871560001,-0.004346443948460001,-0.027135447548700002,-0.009868141223385,-0.017868137168399998,0.01597296534553,-0.04070192366765,4.708852052685001,1.6021133065200002,2.5966707468,-0.14085672795749998,1.937914550305,0.2709264159205,2058323.5,1521544950.0,443461529.0,,,,,,2453697.5,1521544951.0,344250928.5,,-2.101999998095,0.8489999562495001,-2.3510002136250003,-0.07849999889734999,-0.08900000154975,-0.0764999985695,-45.5,-45.5,-41.0,-32.0,13.0,143.0,151.5,154.0,160.0,187.5,-1.0,-0.18000006676000013,-0.7250000834454999,-0.5100002288850003,0.000500001013250026,-0.011500000953700004,0.018500003963649998,3.265946558375968,0.14119312973325918,5.610949444460452,1.9618242900265688,0.029199388690005545,0.047234018864008034
37,37,59.931042794899994,5994.5,1521544951.0,477908015.0,,2949600.0,1521544950.0,546878430.0,,0.6861585828000001,-0.111167982153,0.09896864846615,0.031327584616750004,0.996869228626,-0.010180422983825,0.07187903583399999,-0.004761979511495,-0.006926883313825001,-0.009068155019395,-0.0035655910049400006,0.019736023191185004,-0.007786528626869999,4.849558591845,1.8454772830000001,2.8253800869,-0.0736303590238,2.079107403755,0.33122234046450005,2058331.5,1521544950.0,553986074.5,,,,,,2453710.5,1521544951.0,474869038.5,,-1.81700003147,0.768999972939,-1.456001663209,-0.0559999998659,-0.08899999782455001,-0.06700000166895001,-45.0,-34.5,-32.5,-25.5,16.0,150.5,165.5,170.0,175.5,188.0,-1.0,0.28499996662500005,-0.07999998331050008,0.8949985504160003,0.022499999031449988,3.725199995696649e-09,0.009499996900549992,2.452099287551289,0.12468359884680105,5.908195796794295,2.1066127467908315,0.012364853285301212,0.021514043754593586
38,38,60.0336068974,6003.5,1521544951.0,567838549.5,,2949610.0,1521544950.0,646879528.0,,0.685045626776,-0.111667246529,0.0978672419283,0.031511298859799995,0.996953636755,-0.010490767242100001,0.07057214753430001,-0.011743570304900001,-0.0168437113011,-0.0100319110159,-0.020244999718,0.0243496431693,-0.00820728416846,4.35035705566,1.76663970947,3.3729481697099994,-0.0430153906345,1.9654166698500002,0.335848450661,2058337.5,1521544950.0,644486463.0,,,,,,2453719.5,1521544951.0,564542576.0,,-3.297000050545,1.2240000158550002,-1.46599998474,-0.08499999716880001,-0.07550000026824999,-0.06649999879305,-43.0,-37.5,-23.0,-16.0,-15.5,140.0,143.5,173.0,179.5,210.0,-1.0,-1.4800000190749998,0.4550000429160002,-0.009998321530999998,-0.028999997302900014,0.01349999755630002,0.0005000028759000047,3.810189145877728,0.1317099062283373,5.781297581889124,1.994368870537017,0.022853036833906094,0.032712759734940006
39,39,60.136171,6015.5,1521544951.0,687919973.5,,2949621.0,1521544950.0,756904685.0,,0.685285074208,-0.11251829828500001,0.09797117211439996,0.032391409442500005,0.9969062301809999,-0.010753188103499999,0.0708034869605,-0.010663525528799999,-0.000161475708238,-0.00962099037424,0.0059339623365,0.0218052401829,0.0177951159186,5.54827690125,1.98167908192,3.14719939232,-0.187224730849,2.32212162018,0.274683862925,2949975.0,1521544950.0,764948020.0,,,,,,2453731.5,1521544951.0,684664374.0,,-1.97200012207,0.5239999681689499,-1.961000823975,-0.08999999985099999,-0.08000000193715,-0.0729999989271,-40.0,-34.0,-26.5,-25.0,-3.5,158.5,168.5,197.0,202.0,226.5,-1.0,1.3249999284749998,-0.7000000476860503,-0.4950008392350001,-0.005000002682199981,-0.004500001668900007,-0.006500000134049999,2.82999729323471,0.14081548255245444,6.679467985676927,2.34579477859856,0.014363157970618403,0.028763632576595196
