,Unnamed: 0,Unnamed: 0.1,.header.seq,.header.stamp.secs,.header.stamp.nsecs,.header.frame_id,.endpoint_state.header.seq,.endpoint_state.header.stamp.secs,.endpoint_state.header.stamp.nsecs,.endpoint_state.header.frame_id,.endpoint_state.pose.position.x,.endpoint_state.pose.position.y,.endpoint_state.pose.position.z,.endpoint_state.pose.orientation.x,.endpoint_state.pose.orientation.y,.endpoint_state.pose.orientation.z,.endpoint_state.pose.orientation.w,.endpoint_state.twist.linear.x,.endpoint_state.twist.linear.y,.endpoint_state.twist.linear.z,.endpoint_state.twist.angular.x,.endpoint_state.twist.angular.y,.endpoint_state.twist.angular.z,.endpoint_state.wrench.force.x,.endpoint_state.wrench.force.y,.endpoint_state.wrench.force.z,.endpoint_state.wrench.torque.x,.endpoint_state.wrench.torque.y,.endpoint_state.wrench.torque.z,.joint_state.header.seq,.joint_state.header.stamp.secs,.joint_state.header.stamp.nsecs,.joint_state.header.frame_id,.joint_state.name,.joint_state.position,.joint_state.velocity,.joint_state.effort,.wrench_stamped.header.seq,.wrench_stamped.header.stamp.secs,.wrench_stamped.header.stamp.nsecs,.wrench_stamped.header.frame_id,.wrench_stamped.wrench.force.x,.wrench_stamped.wrench.force.y,.wrench_stamped.wrench.force.z,.wrench_stamped.wrench.torque.x,.wrench_stamped.wrench.torque.y,.wrench_stamped.wrench.torque.z,.tactile_values.tactile_values_0,.tactile_values.tactile_values_1,.tactile_values.tactile_values_2,.tactile_values.tactile_values_3,.tactile_values.tactile_values_4,.tactile_values.tactile_values_5,.tactile_values.tactile_values_6,.tactile_values.tactile_values_7,.tactile_values.tactile_values_8,.tactile_values.tactile_values_9,.tag,.delta_wrench.force.x,.delta_wrench.force.y,.delta_wrench.force.z,.delta_wrench.torque.x,.delta_wrench.torque.y,.delta_wrench.torque.z,.wrench_stamped.wrench.force.magnitude,.wrench_stamped.wrench.torque.magnitude,.endpoint_state.wrench.force.magnitude,.endpoint_state.wrench.torque.magnitude,.endpoint_state.twist.linear.magnitude,.endpoint_state.twist.angular.magnitude
0,0,56.242782,5621.5,1521544729.0,450138449.5,,2927400.5,1521544728.0,551869093.0,,0.7184793691185001,-0.118893816465,0.0124193342139,0.7454600395800001,0.666102053982,-0.02421521218075,0.003305142877695,-0.006291715411188501,-0.011477890297429998,-0.006201649043685001,-0.003351277486225,0.01887001930268,-0.012579459863815,3.12287950516,0.759750932455,2.135093688965,0.444157585502,-0.08979581668975,0.252643153071,2927753.5,1521544728.0,549950396.5,,,,,,2431530.5,1521544729.0,446249529.0,,1.965000021455,-7.20200007036,-4.60699996948,0.6764999926090001,-0.142499998212,-0.2134999930855,260.0,335.5,781.5,869.0,959.0,234.0,280.5,318.0,330.0,434.0,5.0,0.0,0.0,0.0,0.0,0.0,0.0,8.772370193771597,0.7235611491352377,3.858526006621282,0.5188138512487908,0.014484063634086383,0.022924910026836026
1,1,56.345346102600004,5635.5,1521544729.0,588320970.0,,2927411.5,1521544728.0,662146139.0,,0.7183100013120001,-0.118635923619,0.012345212764999999,0.7452330822940001,0.6663557871895001,-0.02422620425095,0.00325261132559,-0.003028907202715,0.0019539381934245,0.002509041278435,0.004437820740279999,0.00233573572338,-0.0002556605619999999,3.1397097110750005,0.7859601974485,2.121230483055,0.41514977812799997,-0.10535856708895,0.23992942273600001,2042847.5,1521544728.0,665128801.0,,,,,,2431544.0,1521544729.0,581469545.0,,0.6050000071530001,-6.46699993685,-4.7069984436,0.665000021458,-0.130999997258,-0.19900000095400008,255.5,306.0,775.5,848.0,912.0,256.0,270.0,310.0,327.0,422.0,5.0,-1.3600000143020001,0.7350001335100007,-0.09999847411999953,-0.0114999711510001,0.011500000954,0.014499992131499941,8.021467916779686,0.7063901388046329,3.869771215980823,0.4909336959643273,0.004391746969404379,0.005021481515976632
2,2,56.4479102051,5642.5,1521544729.0,657948017.0,,2927419.0,1521544728.0,737147506.5,,0.7180654472939999,-0.119317242927,0.01206514086595,0.7454187358005001,0.6661232285995,-0.02488480303035,0.00337699263781,0.005328647732365,0.010210212864084998,0.007256229127965002,0.0100673094883,-0.013501844649929998,0.004240778731699998,3.4624124765400004,0.8397769033904999,2.00724899769,0.3951866924765,0.0021867509931000027,0.233976110816,2042852.0,1521544728.0,734114486.5,,,,,,2431551.5,1521544729.0,656783746.5,,0.8850000381445,-5.962000060825,-4.48699913025,0.666000008583,-0.1374999955295,-0.2050000056625,286.0,293.0,760.0,826.0,909.0,267.0,285.0,315.0,329.5,423.0,5.0,0.28000003099149995,0.5049998760249998,0.21999931334999975,0.0009999871250000456,-0.006499998271500025,-0.006000004708499956,7.5141087953034935,0.7102726677303538,4.089324387217955,0.45926258744100057,0.013612339789437126,0.01736763465574105
3,3,56.55047430770001,5655.5,1521544729.0,787937998.5,,2927432.0,1521544728.0,867147298.0,,0.7177399344679999,-0.11882981636800001,0.011914638004,0.74537906293,0.666171651888,-0.024843770845499998,0.00285828894432,5.954437910600002e-05,-0.0029848130959699995,0.000641281055656,0.00613193073223,-0.0009319135523110001,-0.0256580384652,3.37445640564,0.643663585186,2.2094771862,0.510379910469,-0.0015167733654400002,0.256343901157,2042861.5,1521544728.0,866117064.5,,,,,,2431564.0,1521544729.0,781323096.0,,0.9350000500679999,-7.097000051289999,-4.7370010376,0.6840000152590001,-0.141000002623,-0.172000005841,271.5,290.5,757.5,844.0,924.0,260.5,263.0,320.0,326.0,448.0,5.0,0.05000001192350001,-1.1349999904649994,-0.2500019073499997,0.018000006676000102,-0.003500007093499985,0.032999999821500016,8.583752888559927,0.7192503205583592,4.084488741666158,0.5711410940145843,0.003053505549904962,0.026397044820500846
4,4,56.6530384103,5663.5,1521544729.0,867950558.0,,2927439.5,1521544728.0,942149579.5,,0.7182264882960001,-0.1183282389785,0.012330567682299998,0.745310832892,0.6662685161015001,-0.0242371468288,0.0032409610126799995,-0.00707820013728,-0.00035342865970499964,-0.0012230224057649991,-0.005297819792562,0.01072370256162,-0.006542650018599,3.3471887111700003,0.7891905903815,2.264670968055,0.3771395236255,-0.03862627409410002,0.23270858079149997,2042867.0,1521544728.0,945122248.0,,,,,,2431572.0,1521544729.0,860881845.0,,0.4399999856964999,-6.046999860555003,-4.38699874878,0.669499993324,-0.127999998629,-0.2144999951125,275.5,309.0,765.0,846.0,898.0,235.0,254.0,317.0,327.0,446.0,5.0,-0.4950000643715001,1.0500001907349974,0.35000228881999984,-0.014500021935000109,0.013000003994000005,-0.042499989271500005,7.483686613077971,0.7145799385744905,4.1176727225074305,0.4448364788378486,0.007191773967936888,0.013633450056769582
5,5,56.755602512799996,5676.5,1521544729.5,498946905.0,,2927453.0,1521544729.0,77145514.0,,0.7178907841940001,-0.11842144599099999,0.0122021449281,0.744624209952,0.667018854855,-0.0247021725753,0.00323046312928,0.008625402139610001,0.014684116625299996,0.006031918945460001,-0.005766627435699999,-0.0280539840807,0.0349011761297,3.5727956295,0.987955629826,2.18702173233,0.260188430548,0.0269871614873,0.223971813917,2042876.5,1521544729.0,77607472.0,,,,,,2431585.5,1521544729.5,496158992.0,,-0.6450000226500001,-7.2420000322149995,-3.951999282840001,0.6610000133514999,-0.13199999928449999,-0.1855000033975,273.0,310.0,786.0,825.0,900.0,254.0,261.0,302.0,312.0,457.0,5.0,-1.0850000083465,-1.1950001716599967,0.4349994659399994,-0.00849997997250007,-0.004000000655500019,0.028999991715000006,8.275317989502787,0.6991103408777928,4.303950394040678,0.3443685521435491,0.01806667897816308,0.045148334520984025
6,6,56.8581666154,5685.5,1521544730.0,89219450.5,,2927464.5,1521544729.0,192147294.0,,0.7184012745449999,-0.119018581152,0.012348354219699998,0.745402843203,0.666161416268,-0.024310749478000004,0.0035138422993150004,0.003455243279295,-0.0191556040658,0.0007132621410809997,-0.009679305090945,-0.002605235380585,-0.04193262559635,3.236286997795,0.7014760076995,2.33635902405,0.424667328596,-0.08428534492850001,0.247342035174,1157951.0,1521544729.0,182000128.0,,,,,,2431594.0,1521544730.0,81260900.0,,0.8049999952319999,-7.502000022679999,-4.53700027466,0.6775000095365,-0.1344999969005,-0.210000000894,283.0,317.0,769.0,843.5,920.5,258.0,260.0,311.5,324.0,417.5,5.0,1.4500000178819998,-0.25999999046500033,-0.585000991819999,0.016499996185000088,-0.002499997615999977,-0.024499997496500003,8.804112722181557,0.7219394105211823,4.052677585342174,0.49862254432646297,0.019477798030750455,0.04311404977307876
7,7,56.9607307179,5694.5,1521544730.0,179235458.0,,2927473.5,1521544729.0,282149382.0,,0.7181256821315,-0.118776639004,0.012382005238350001,0.7453428300765,0.666224241426,-0.0244675990365,0.00323257126498,-0.0012157618626800009,-0.00345506176923,0.00285098016339,-0.009480867463275002,0.0009865538426999994,0.021074606264150003,3.240059018135,0.760798662901,2.3426576852800003,0.3857838362455,-0.08509264886375001,0.241355791688,2042890.5,1521544729.0,279623878.5,,,,,,2431603.5,1521544730.0,178801531.5,,-0.024999988078999988,-6.367000032215,-4.501998519900001,0.6640000045295,-0.13650000095349998,-0.21400000155,276.0,291.5,754.0,851.0,886.0,258.0,276.0,298.0,320.0,415.0,5.0,-0.8299999833109999,1.1349999904649986,0.03500175475999878,-0.013500005006999992,-0.002000004052999993,-0.004000000656000008,7.797903890329219,0.7108616299526102,4.069992884130308,0.4629498303059258,0.004641510166743703,0.0231300489737848
8,8,57.06329482050001,5705.5,1521544730.0,287981509.5,,2927484.5,1521544729.0,392149178.0,,0.718510602924,-0.1188231478595,0.0123503036967,0.7453561496175,0.6662154576535,-0.024277949191900003,0.0034238006937550003,-0.005160831211343002,-0.01481170891775,-0.005032736649145,-0.0149076602367,0.015060627979485004,-0.02039022554415,3.28460764885,0.6996277570725,2.266974806785,0.4016008079055,-0.07818383164704999,0.239609129727,1157959.0,1521544729.0,385999872.0,,,,,,2431614.0,1521544730.0,283234132.0,,0.2850000143051,-6.68699996546,-4.2119995117150015,0.6854999959470001,-0.13599999994,-0.1955000013115,309.0,316.0,788.0,862.0,885.0,245.0,270.0,301.0,315.0,435.0,5.0,0.3100000023841,-0.31999993324499965,0.2899990081850001,0.02149999141750003,0.0005000010134999788,0.018500000238500014,7.908105552716362,0.7256903574802503,4.0518268941241935,0.4741397003941928,0.0164726846031779,0.029407858585939917
9,9,57.165858923100004,5717.5,1521544730.0,408069490.5,,2927496.5,1521544729.0,512150872.0,,0.717855741435,-0.119463662925,0.01190960231695,0.7453319822365,0.666213590695,-0.02506305257845,0.0033825696699899994,-0.0038379206999950006,-0.006757136659839001,-0.001683468736939999,-0.008511435365913448,0.008173718342605,-0.010991678060445,3.2622051239,0.8105041086675,2.29764127731,0.35478697717200003,-0.10024236887710003,0.2454861700535,2927849.5,1521544729.0,510239129.0,,,,,,2431626.0,1521544730.0,402678122.0,,-0.6750000089404999,-6.9769999273100005,-4.891999816895,0.6710000038145,-0.135000005364,-0.214999996126,277.0,288.0,787.0,852.0,865.0,245.0,256.0,309.0,324.5,433.0,5.0,-0.9600000232456,-0.28999996185000043,-0.6800003051799992,-0.014499992132500084,0.0009999945760000015,-0.019499994814499988,8.547854421213206,0.7174196853317583,4.071615725945296,0.44292865269304244,0.007951263932699295,0.016126722857320627
10,10,57.26842302560001,5725.5,1521544730.0,487963437.5,,2927504.5,1521544729.0,592196814.5,,0.7180484388395001,-0.1187869237135,0.012255387363100001,0.7451940141455,0.6663865144755,-0.02458548832645,0.003223436142295,-0.0026692298357800003,0.0010593027029315,-0.0017359522598500016,-0.0013661884926239995,0.005647914371649999,0.003783792572704999,3.25883424282,0.14796726405600005,2.344309687615,0.5677596330645001,-0.0940565578642,0.24020759016249998,1157967.0,1521544729.0,587000064.0,,,,,,2431634.0,1521544730.0,482593612.0,,0.644999969006,-6.856999803330001,-4.34700164795,0.663999974728,-0.127000004053,-0.209000006318,263.5,316.0,777.0,834.0,868.0,257.0,270.0,308.5,322.0,429.0,5.0,1.3199999779465,0.1200001239799997,0.5449981689449999,-0.0070000290864999926,0.00800000131100001,0.0059999898079999845,8.14437809720088,0.7076058013535296,4.017173489513984,0.6236163270685534,0.0033556579654569142,0.006934154164721633
11,11,57.3709871282,5734.5,1521544730.0,579850435.0,,2927511.0,1521544729.0,657256413.0,,0.717935643633,-0.119590823808,0.0118955188405,0.745466557994,0.666064324878,-0.0250448943047,0.0032679207271199997,-0.019772501421,0.000841932356676,-0.008182120703810001,-0.00421846644265,0.0435249989241,0.0330707038576,3.74119997025,0.7625482678409999,3.35269594193,0.218899935484,0.16007015109099998,0.194810733199,1157970.0,1521544729.0,662000128.0,,,,,,2431643.0,1521544730.0,572153070.0,,0.585000026226,-5.856999803330001,-3.3169990539599996,0.629000008106,-0.126000002027,-0.216000005603,262.0,311.0,754.0,853.5,882.5,242.0,268.0,309.0,319.0,449.5,5.0,-0.059999942779999975,1.0,1.03000259399,-0.034999966622,0.0010000020259999798,-0.0069999992850000034,6.756415799139631,0.6768847857121979,5.081203317839171,0.3339024659907843,0.021415129272278077,0.05482601977262028
12,12,57.4735512308,5748.5,1521544730.0,718136072.0,,2927524.0,1521544729.0,787256996.0,,0.7167732199429999,-0.118605437348,0.013241299775799999,0.745181993633,0.666339686228,-0.0261331358161,0.0035040170076700004,0.00695615915988,0.0114293357947,0.0144575889084,-0.0255175122318,-0.0305464456264,-0.048682257221800015,3.57780861855,2.22815442085,9.10945224762,-0.6547191739079999,1.15594208241,0.0131151378155,2042927.0,1521544729.0,798175119.0,,,,,,2431657.0,1521544730.0,712433518.0,,2.15499995947,-2.327000010755,5.217998886109998,0.08900000154979999,-0.15749999880800006,-0.1335000023245,298.5,335.0,597.0,705.5,851.5,192.0,290.0,311.5,335.0,428.0,5.0,1.569999933244,3.5299997925750017,8.53499794007,-0.5400000065562001,-0.031499996781000045,0.08250000327850003,6.106264508749573,0.22483216078004925,10.037305758309504,1.328544805947116,0.019698724425959255,0.06288235793222273
13,13,57.5761153333,5758.5,1521544730.0,819603442.5,,2927535.0,1521544729.0,897266421.0,,0.714554358928,-0.11744872687300001,0.014738400742600001,0.7476064236579999,0.663484817008,-0.0294505878207,0.00227942576994,-0.04242009913980002,0.0052058123782,0.0103387473912,-0.0581851682643,0.117904726765,-0.04717949975459999,6.792314529419999,4.276403427119998,13.464357376099999,-1.8308131694799998,3.31937813759,-0.0379286073148,1157979.5,1521544729.0,903499904.0,,,,,,2431667.5,1521544730.0,818835550.5,,3.34000002146,0.5379999987785,8.533003234865001,-0.252500005066,-0.07499999925494999,-0.06599999964240001,307.5,321.0,419.0,533.5,729.0,175.5,287.0,337.0,373.0,432.5,5.0,1.18500006199,2.8650000095335,3.3150043487550027,-0.3415000066158,0.08249999955305007,0.06750000268209998,9.17917144127154,0.27154604103055774,15.675205979169528,3.7909875574980063,0.04397106993429348,0.1396887382596339
14,14,57.6786794359,5768.5,1521544730.0,918081045.0,,2927545.0,1521544729.0,997257127.0,,0.7113369600309999,-0.117411392657,0.0193489244459,0.748481883354,0.662193248195,-0.0356766943995,0.00146485893647,-0.0330590862809,0.019396071643299997,0.0578357655565,-0.0563951845228,0.10980494334,0.017882164885200003,6.869209766390001,4.15433502197,14.1262121201,-1.4570697546,3.30757594109,0.0186856165528,2927897.0,1521544729.0,985332236.0,,,,,,2431677.0,1521544730.0,913385814.5,,3.084999907015,0.9879999868585,9.41300048828,-0.1915000006555,-0.143999993801,-0.1024999991061,283.0,347.0,367.0,587.0,660.5,169.5,237.5,271.0,396.5,420.5,5.0,-0.25500011444500004,0.44999998808,0.8799972534149987,0.061000004410500026,-0.06899999454605002,-0.03649999946369999,9.954795155736479,0.26060410258185696,16.247904823437832,3.6143408843264164,0.06938361880463174,0.12472896311700322
15,15,57.78124353850001,5777.5,1521544731.0,7971524.5,,2927553.0,1521544730.0,77262299.0,,0.708120947536,-0.1161376645805,0.024825415038650003,0.7486214401885001,0.6618017534689999,-0.039795835699199984,-0.0002206670010496,-0.0356574703937,0.02463252332765,0.08424890093065003,-0.022973692931730003,0.08832157773205,-0.05872734134185,7.445281982425,4.21582198143,12.8675203323,-1.26646769047,3.089337825775,-0.011981530115,2042946.0,1521544730.0,80161803.5,,,,,,2431686.0,1521544731.0,1383755.0,,2.3950000882099998,-1.0469999946700002,7.722998046869999,-0.0680000036955,-0.248999997973,-0.130999997258,266.0,282.0,363.0,410.5,631.5,99.5,157.0,220.0,299.5,325.0,5.0,-0.6899998188049996,-2.0349999815285003,-1.6900024414100008,0.12349999695999998,-0.10500000417199998,-0.028499998151899974,8.153338778888235,0.2894581122973374,15.452458001207594,3.338875884161092,0.09474224880372693,0.10852369456059878
16,16,57.883807641000004,5785.5,1521544731.0,87945461.0,,2927564.5,1521544730.0,192259763.5,,0.7089744259199999,-0.1140973979795,0.03618487050755,0.7489037029919999,0.661479088472,-0.03982855586044999,0.0014259658189149998,0.04705831550805001,0.034458186059849995,0.1169194473145,0.00438273551234,-0.1343558487895,0.05324312274635,7.71601390839,2.8035160303099995,6.744020938869999,-0.2127339188008,2.877462506295,0.1621692329645,2042953.5,1521544730.0,185675800.5,,,,,,2431694.0,1521544731.0,82764106.5,,2.205000030995,-0.7069999985394999,2.64300003052,-0.0654999986291,-0.2489999979735,-0.14150000363600002,273.0,289.0,304.0,327.5,473.0,19.5,34.0,79.5,95.0,185.0,5.0,-0.19000005721500024,0.33999999613050025,-5.079998016349999,0.002500005066399996,-5.000166947155549e-13,-0.010500006378000026,3.51387582250021,0.29379159252811016,10.62442427572384,2.8898693838064973,0.13065989746405957,0.14458745655934682
17,17,57.986371743599996,5797.5,1521544731.0,207944035.0,,2927576.5,1521544730.0,312256703.0,,0.7275314137845,-0.106626622005,0.056642604439550014,0.74880831516,0.6624188932124999,-0.018178439188650003,0.01245221756225,0.197858913559,0.0839991778353,0.217941046416,0.126702406268,-0.490293255189,0.022162771811900003,3.2241232395200004,3.06152009964,5.38323974609,-0.7915496677160001,1.849682450295,0.15240690484640002,2927929.5,1521544730.0,310325846.5,,,,,,2431706.0,1521544731.0,203626616.5,,1.90499995947,-1.95200001076,-2.336999511715,-0.0780000016095,-0.0650000013411,-0.10199999809260002,126.5,129.5,130.0,143.5,148.5,-14.0,-9.0,-1.5,1.5,20.0,5.0,-0.300000071525,-1.2450000122204998,-4.9799995422349985,-0.012500002980400007,0.1839999966324,0.0395000055434,3.5917816756233796,0.14392011685763534,6.981915650306568,2.017697675083035,0.30610833256325326,0.5068847643126725
18,18,58.0889358462,5809.5,1521544731.0,327947973.5,,2927588.5,1521544730.0,432257275.5,,0.7423611565195001,-0.09766546219575001,0.07926917148685,0.7463776978034999,0.6651226189514999,-0.00200932599035,0.022963090096299998,0.0990411001002,0.08741584371995,0.18177743951250006,0.061985143358550016,-0.2522259179935,0.0666231311909,2.86512851715,3.59636688232,2.789159059525,-0.920832276344,1.82193380594,0.0497176386416,2927941.0,1521544730.0,425354960.0,,,,,,2431718.0,1521544731.0,322623456.0,,2.1049998879400005,-0.656999994069,-2.55700073242,-0.09600000083450001,-0.123000003397,-0.0909999981523,70.5,75.0,86.0,90.5,95.5,-23.0,-22.0,-21.0,-18.0,-1.5,5.0,0.19999992847000048,1.2950000166909996,-0.2200012207050004,-0.01799999922499999,-0.0580000020559,0.010999999940300015,3.376525768601581,0.1806266886692125,5.377938678654176,2.0420202540562578,0.22470804782661696,0.26813935428154456
19,19,58.1914999487,5818.5,1521544731.0,418020009.5,,2927597.5,1521544730.0,522258912.0,,0.7462605678630001,-0.09167836011215,0.09110597817645,0.746115972745,0.6653590975320001,0.004411497515965,0.02426309564585,0.014816943311399999,0.07514695602955,0.110508019537,0.0391115368585,-0.07515346539449999,0.0752671099235,4.946015357975,2.16285431385,0.5599488988508999,-0.6813369095324999,2.452647566795,0.0599826462567,2927950.5,1521544730.0,520353986.0,,,,,,2431727.0,1521544731.0,412852688.0,,2.04499994516,-0.397000003606,-1.5570007324200001,-0.09399999678130001,-0.0680000036955,-0.0930000022054,70.5,79.0,82.0,91.5,104.0,-33.0,-32.0,-25.0,-20.0,-7.0,5.0,-0.05999994278000065,0.25999999046300004,1.0000000000000002,0.0020000040532,0.054999999701500005,-0.0020000040530999963,2.600747019478054,0.14869095570234536,5.427204572668001,2.5462321160979586,0.1344567930288029,0.11332649077983639
20,20,58.2940640513,5826.5,1521544731.0,500880479.0,,2927605.0,1521544730.0,597354584.0,,0.7461093663480001,-0.0884013927737,0.0953052139575,0.7448659148669999,0.6667532098210001,0.00511059233723,0.0242653643708,-6.27087045133e-05,0.0595346900952,0.054209641581899996,0.0319885810207,-0.0362881540783,0.0730312846634,3.9553337097199996,2.87539815903,4.653332710269999,-0.6956650614740001,1.91668617725,0.106719955802,1158007.0,1521544730.0,599000064.0,,,,,,2431735.5,1521544731.0,499729435.5,,2.63499997854,0.08799998089650002,-1.84199867249,-0.13949999958249998,-0.07050000131129999,-0.10049999877825,96.5,105.5,110.5,114.5,124.0,-32.0,-29.0,-15.0,-6.0,-1.5,5.0,0.5900000333800004,0.4849999845025,-0.28499794007000023,-0.04550000280119998,-0.002499997615799998,-0.007499996572849998,3.2161977540254743,0.1858245135143344,6.750265523716028,2.0418190244934107,0.08051750429286286,0.08759947477990318
21,21,58.3966281538,5836.5,1521544731.0,598121523.0,,2927612.0,1521544730.0,667347916.0,,0.7461273610870001,-0.08745553743930001,0.0971648585367,0.744563968912,0.667083463478,0.00550551525668,0.024368796736699998,0.00499821994602,0.0211795216118,0.0180420649896,0.0037436040019200004,-0.0229934488417,0.0365471547663,3.41759729385,1.5266274213799995,6.01554203033,-0.22750325501,1.64019227028,0.157936632633,2927965.0,1521544730.0,665400710.0,,,,,,2431745.0,1521544731.0,593794004.0,,2.295000064375,-1.4819999896,-0.6669994354245,-0.05800000019375,-0.13749999553000006,-0.09450000151969999,126.0,132.0,135.0,148.0,156.0,-20.5,-19.0,-15.5,-12.0,-4.0,5.0,-0.3399999141650003,-1.5699999704965002,1.1749992370655002,0.08149999938874998,-0.06699999421870008,0.005999997258549994,2.8121588702476,0.17663663006423197,7.085005890280329,1.663409869651451,0.028267834148063865,0.043340602004021025
22,22,58.4991922564,5850.5,1521544731.0,738109946.0,,2927626.0,1521544730.0,807343786.5,,0.7525861673049999,-0.08557666473379999,0.100368172395,0.7439998028804999,0.667438746254,0.0132718494722,0.028512256663849996,0.06774866717019999,0.01820063204275,0.0207548399055,0.0506718506304,-0.16886842167899999,0.011320340786215,4.08547997475,2.6322697401050004,4.5470025539400005,-0.5783853828909999,1.993877410885,0.0979069918396,2042998.5,1521544730.0,823215537.0,,,,,,2431758.5,1521544731.0,729521751.0,,1.70500003099,-0.6820000000295,-0.18199882507305,-0.1085000000895,-0.12449999898700001,-0.105000000447,150.5,152.0,155.0,156.5,161.0,-35.0,-32.0,-30.0,-11.0,-4.5,5.0,-0.590000033385,0.7999999895705,0.48500061035145,-0.050499999895750006,0.01299999654300006,-0.010499998927299995,1.8453380931536933,0.19569747024694648,6.655465636173971,2.078379792008794,0.07315673782774247,0.17667011745675093
23,23,58.601756359,5859.5,1521544731.0,829565047.5,,2927635.0,1521544730.0,897351726.0,,0.75671339259,-0.0846078849024,0.102526760785,0.7440916099429999,0.667142252411,0.0180851397209,0.030361468698400007,0.013436827063299999,0.0159126470761,-0.0005902226208940001,0.0153027350205,-0.028101098975499998,0.0149796881749,1.18297600746,1.6979941129700002,3.94026207924,-0.30952745676,0.8596623539920001,0.13858263194599998,2043004.5,1521544730.0,908220681.0,,,,,,2431768.0,1521544731.0,823866864.0,,2.04499994516,0.023000013083200002,-0.557000732422,-0.0860000029206,-0.108999997377,-0.11400000006,122.5,127.0,127.0,127.0,141.0,-30.0,-29.0,-28.0,-26.0,-9.0,5.0,0.33999991416999986,0.7050000131127,-0.37500190734895,0.022499997168900002,0.015500001609999994,-0.008999999612999994,2.119623455292207,0.17964687568730278,4.450649558772686,0.9241383853279015,0.020835283085184134,0.03533039089163497
24,24,58.7043204615,5867.5,1521544731.0,908075451.5,,2927643.0,1521544730.0,977348172.5,,0.75718079768,-0.08354175738885,0.10299401763499999,0.7442624733965001,0.6669396697725001,0.01885300880915,0.03015518569625,-0.003555920033135,-0.012745260490899999,0.007666662704635002,-0.0178752531729,0.01955525910935,-0.017026464027550002,3.63893198967,2.379637122155,4.3872807025950005,-0.5564414560795,1.83645957708,0.1354629695415,2043009.5,1521544730.5,489203857.0,,,,,,2431775.5,1521544731.0,900095166.5,,1.274999964235,-1.75199999288,-2.8319984436050003,-0.1004999987783,-0.035499999299650004,-0.06350000202655001,107.5,113.0,117.0,119.5,137.0,-25.0,-24.5,-23.5,-23.0,-22.5,5.0,-0.7699999809249998,-1.7750000059631998,-2.2749977111830004,-0.014499995857699998,0.07349999807735001,0.05049999803344998,3.5658581110907814,0.12406752178586188,6.176789685746495,1.9236842486254673,0.01529261093762568,0.03149338521198605
25,25,58.806884564099995,5879.5,1521544732.0,28586506.5,,2927656.0,1521544731.0,107343206.0,,0.7540071322830001,-0.08511612043099999,0.10252722074699999,0.744221698996,0.667147361117,0.0145336548535,0.0289349991262,-0.0482061945286,0.00847641737626,-0.0215033084578,-0.0305610584253,0.103209591226,0.0249197969349,4.20238113403,2.51668453217,4.92331361771,-0.594168841839,2.01371717453,0.0948778837919,2043018.0,1521544731.0,104209231.5,,,,,,2431787.5,1521544732.0,19314701.0,,1.680000054835,-2.1219999678450003,-0.07200012207050001,-0.1085000000895,-0.09149999916555004,-0.07400000095369999,105.0,107.5,111.0,113.0,115.0,-23.0,-22.0,-18.5,-18.0,-13.5,5.0,0.40500009060000003,-0.3699999749650005,2.7599983215345003,-0.008000001311200003,-0.055999999865900034,-0.010499998927149978,2.7074837146985673,0.16006404970468777,6.944978416701073,2.101688674481122,0.05346100557506452,0.11048617240356039
26,26,58.9094486667,5891.5,1521544732.0,149317502.5,,2927670.0,1521544731.0,247355773.0,,0.7541642670800001,-0.08499406129249999,0.10267687460899999,0.74434953818,0.667011013512,0.0145911988123,0.028760559497199998,0.0153792566702,0.00692161481377,0.00331474898502,-0.006056696364880001,-0.0468539257367,0.0105255800549,3.52333188057,2.2453932762099997,4.87316846848,-0.43674772977799997,1.76750349998,0.136979728937,2043027.5,1521544731.0,244721908.0,,,,,,2431800.0,1521544732.0,144870959.0,,3.1249998688700003,-2.08699994162,-0.467000579834,-0.08500000089410001,-0.107000000775,-0.09000000357629999,93.5,106.0,106.0,119.5,126.0,-36.0,-30.0,-25.0,-20.0,-7.0,5.0,1.4449998140350002,0.035000026225000536,-0.3950004577635,0.023499999195399995,-0.015500001609449974,-0.0160000026226,3.786724505205613,0.16362762896766858,6.418989751329855,1.8258095870181645,0.017187723764122538,0.04840208428661577
27,27,59.0120127692,5899.5,1521544732.0,228649020.0,,2927678.0,1521544731.0,327343723.0,,0.755256617427,-0.0839993664164,0.103731057819,0.744441250502,0.666849514485,0.0162763950248,0.0292237668151,0.00319299227074,-0.009854742167209999,0.00040095407587000003,-0.024578973188299998,-0.009261708465870001,0.0057173732804,3.1613512039200002,2.12317061424,4.59323787689,-0.4461211860180001,1.6329288482700002,0.123427607119,1158036.0,1521544731.0,326000128.0,,,,,,2431808.0,1521544732.0,223139862.0,,1.4250000596,-1.87700002268,-1.6970001220700002,-0.112000003457,-0.052000001072899996,-0.097000002861,80.5,87.0,92.0,96.5,130.0,-30.5,-26.5,-22.0,-18.5,-16.5,5.0,-1.6999998092700002,0.2099999189399997,-1.2299995422360002,-0.027000002562899986,0.0549999997021,-0.006999999284700006,2.9040598598008134,0.15702548022847634,5.966559233376943,1.697266953170779,0.010366865823099524,0.02688109975290018
28,28,59.114576871800004,5908.5,1521544732.0,318068981.0,,2927687.5,1521544731.0,422344375.5,,0.7539888201645,-0.08447214392725,0.10304691685950004,0.7440256683059999,0.6673681867265,0.01457034094435,0.0288646628124,-0.017356056398799998,-0.0154015092361,-0.004125526839510001,-0.02422097132935,0.04259874959495,-0.007110186647270002,3.802933573725,2.3282340765000002,4.3630332946750015,-0.463011160493,1.779819846155,0.1325277127325,2928040.5,1521544731.0,420412167.5,,,,,,2431816.5,1521544732.0,312901646.0,,2.7599999785400002,-2.28199999407,-1.10699996948,-0.07899999991060001,-0.105000000447,-0.09349999949335,81.5,86.0,87.5,93.0,112.0,-33.0,-30.0,-29.0,-25.0,-24.0,5.0,1.3349999189399997,-0.4049999713899999,0.5900001525900003,0.03300000354639998,-0.0529999993741,0.003500003367649981,3.7484093675724646,0.1612707350544458,6.238512419766687,1.8438279784595935,0.02356818092623012,0.04951629704803726
29,29,59.217140974399996,5922.5,1521544732.0,461159944.0,,2927701.5,1521544731.0,562345900.0,,0.754199123369,-0.08499043402705,0.1029426279575,0.7444194628015001,0.6669273667405,0.01472498069985,0.0288221092479,0.0106163897287625,-0.00301366494984,0.0033694464756000003,0.00894122423229,-0.014954283077750003,-0.023994923497550003,3.998684763905,2.4467625617950004,4.8747010231050005,-0.5132841765880001,1.88991641998,0.13120196759699998,2928054.5,1521544731.0,560444660.5,,,,,,2431831.0,1521544732.0,455721935.5,,2.019999969005,-1.5969999916850002,-0.3620010375975,-0.09299999848005,-0.08650000020865001,-0.097500000149,78.5,91.5,104.0,106.0,115.0,-36.5,-34.5,-31.5,-29.5,-28.0,5.0,-0.7400000095349997,0.6850000023849998,0.7449989318824999,-0.013999998569449987,0.01850000023835,-0.004000000655649996,2.6003564369993124,0.16011714393668391,6.763049381717433,1.9627681158881112,0.011538764095638723,0.02965353986954757
30,30,59.31970507689999,5929.5,1521544732.0,527945994.5,,2927706.5,1521544731.0,611819165.0,,0.7539919814534999,-0.08508474078955,0.10299784546099999,0.744186311595,0.667184849275,0.01433157349945,0.029078563449150004,0.006367586625965,0.011212930915184998,0.004813472554485,0.010820056536581987,-0.019962258750305,-0.006202803295499999,4.010320186615,2.4165852069850002,4.832004785535,-0.5064012408255,1.8795601129550001,0.1100863590837,2043053.5,1521544731.0,610464491.5,,,,,,2431837.5,1521544732.0,520226217.5,,2.00500010252,-0.9169999919855,0.288000488281,-0.09449999779475,-0.0954999998212,-0.09400000050665,71.0,75.5,86.0,100.5,104.0,-34.0,-30.5,-29.0,-22.5,-2.5,5.0,-0.014999866485000181,0.6799999996995002,0.6500015258785,-0.0014999993147000038,-0.008999999612549991,0.003499999642350024,2.223478958222162,0.163971032942734,6.7283595555843805,1.9496941917586266,0.013763920124029352,0.02353805783389158
31,31,59.4222691795,5939.5,1521544732.0,628818511.5,,2927716.0,1521544731.0,706812902.0,,0.7540251523864999,-0.08484072628474999,0.1032562714695,0.7442793021744999,0.6670840168084999,0.0144992352044,0.0289306879921,-0.0034098829121300012,0.008965491876360001,-0.0029287606900499988,0.01092816491192,0.011599082271055,0.006139857779285,3.9109121561050006,2.3797563314400003,4.468285799025,-0.512908488512,1.8433240056,0.1046275421976,2928069.0,1521544731.0,704904359.0,,,,,,2431847.5,1521544732.0,620155485.0,,0.6799999952315,-1.35200000182,-0.3019996643065,-0.09899999946375004,-0.08650000020859999,-0.111500002444,78.0,84.0,96.0,107.0,126.5,-30.5,-29.5,-28.0,-25.0,-17.5,-0.5,-1.3250001072885,-0.4350000098345001,-0.5900001525874999,-0.0045000016690000255,0.008999999612600007,-0.017500001937350018,1.543213464066899,0.1723818449690173,6.397190951626121,1.916211217427558,0.010029206610649493,0.017078095661480188
32,32,59.5248332821,5952.5,1521544732.0,757954001.0,,2927728.0,1521544731.0,826815014.0,,0.753614843798,-0.0844814888277,0.102762388166,0.744390615771,0.666983063723,0.014292235748,0.0284944881607,-0.00212518794201,-0.0042636765334000005,-0.0051590348245,-0.00411095148454,0.00788658102823,-0.0231203435886,4.03932762146,2.37862706184,4.64796495438,-0.48088055849100003,1.87386870384,0.11650682240700001,2928081.0,1521544731.0,824923667.0,,,,,,2431860.5,1521544732.0,750466857.0,,2.075000035765,0.1379999928176,-0.906999206543,-0.07000000029799999,-0.120000001043,-0.14199999719849998,89.5,92.5,101.5,113.0,140.0,-29.5,-23.0,-17.0,-10.0,-5.5,-1.0,1.3950000405335,1.4899999946376001,-0.6049995422365,0.028999999165750037,-0.03350000083440001,-0.030499994754499982,2.2687698664941847,0.19865547940193848,6.601334149242255,1.9380928436050204,0.007022179269338991,0.024771927056206105
33,33,59.6273973846,5960.5,1521544732.0,838008045.5,,2927737.0,1521544731.0,916817852.0,,0.753114480081,-0.0846040739362,0.10246848156199999,0.7440925128470001,0.667321213046,0.013584374853299998,0.028708808816999998,-0.00184939335834,-0.000804346278379,-0.00396785109259,0.00894678262569,0.00816581984383,-0.00565717876242,4.11775541306,2.42762970924,4.823194980619999,-0.479861855507,1.94623339176,0.123464614153,2928090.0,1521544731.0,914910458.0,,,,,,2431868.5,1521544732.0,831908339.0,,1.43499993086,-0.736999992281,-0.45199928283699997,-0.0675000026822,-0.1335000023245,-0.1195000000295,80.0,85.0,92.5,97.5,111.0,-34.5,-33.0,-23.0,-16.5,-8.0,-1.0,-0.6400001049050001,-0.8749999850985999,0.454999923706,0.002499997615799998,-0.013500001281499988,0.022499997168999992,1.6753200117814988,0.19146475129848053,6.790618931146673,2.008316540418916,0.004450962932038629,0.013368964231503208
34,34,59.7299614872,5973.5,1521544732.0,967945575.0,,2927749.5,1521544732.0,41823079.0,,0.753889732788,-0.0853820703324,0.102963452965,0.744839625783,0.6664629923445,0.014273077321549999,0.028933821261900007,0.00188957363955,0.00816648697265,-0.003998044690213499,0.01373965011591,-0.00745103360915,0.009060435177599996,3.8410381078699993,2.293979406355,4.526496171955,-0.464914545417,1.8087618947,0.117628801614,2043083.5,1521544732.0,46933192.5,,,,,,2431881.5,1521544732.0,960575921.0,,3.4650000214550003,-0.7469999901950001,-0.5319992065429999,-0.08550000190735,-0.1235000006855,-0.08850000053644999,81.0,86.0,89.5,91.5,102.0,-38.0,-35.5,-33.5,-30.5,-28.0,-1.0,2.030000090595,-0.00999999791400008,-0.0799999237059999,-0.017999999225150012,0.010000001638999986,0.030999999493050007,3.5843070864250546,0.17434090337734,6.364360365159539,1.8712567063949765,0.00928689180289556,0.018066194196891608
35,35,59.83252558970001,5980.5,1521544733.0,37948012.0,,2927756.0,1521544732.0,106816424.5,,0.7533238120305,-0.08460985918380001,0.102553054096,0.7445134632900001,0.6668591075479999,0.01406370149675,0.0282962362377,0.0017416098850349991,0.009667639143435,-0.0013618734389010002,0.0056342712879335006,-0.005913976987619999,0.017568370653155002,3.702868819235,2.381907939915,4.544646739959998,-0.5162909328934999,1.75870394707,0.1122477389874,1158067.5,1521544732.0,121000064.0,,,,,,2431888.5,1521544733.0,29795623.5,,1.999999988075,-1.87700002268,-1.442000961305,-0.09450000151995,-0.06700000166895001,-0.0925000011921,73.0,74.0,85.5,113.0,136.0,-36.0,-35.0,-34.0,-32.0,-27.0,-1.0,-1.4650000333800002,-1.1300000324850001,-0.910001754762,-0.008999999612599993,0.056499999016549986,-0.004000000655650024,3.0987894103738745,0.14824135971937238,6.327601197746422,1.8363538481827029,0.009917214874293704,0.019374410550072708
36,36,59.9350896923,5992.5,1521544733.0,157986044.0,,2927771.5,1521544732.0,261826823.0,,0.7524068591924999,-0.08569704491874999,0.10209712972600002,0.744556808227,0.6668359047929999,0.01283263083265,0.0282902972276,0.0035846842133799997,-0.008122245220205,-0.0026584267514265,-0.008908206887336999,-0.01996647964495,0.012267323967190002,3.513920545575,2.22451853752,4.5844318866750005,-0.4115741550925,1.7005581259750002,0.117925427854,2928124.5,1521544732.0,259891559.5,,,,,,2431900.5,1521544733.0,149744790.5,,2.860000002385,-1.3719999827400002,-0.5619998931885001,-0.08500000089404999,-0.1030000001195,-0.08500000089410001,73.0,78.0,85.0,92.0,120.0,-37.5,-37.5,-36.5,-34.5,-28.5,-1.0,0.8600000143100001,0.5050000399399999,0.8800010681164999,0.009500000625900009,-0.035999998450549985,0.007500000298000006,3.221463618640547,0.15830034847909372,6.189760580825944,1.7536241420253824,0.009267581190337574,0.025069976000702418
37,37,60.037653794899995,6004.5,1521544733.0,277972936.0,,2927783.5,1521544732.0,381815501.0,,0.7514604904805,-0.08499021163074999,0.10122121210400001,0.7442317586239999,0.6672276401489999,0.0123951495548,0.027796613586300003,-0.009845381108505,0.0034839961188100005,-0.0061039364526405005,0.0011629307533449998,0.011712309704895,0.016754245699315003,3.66933906078,2.22083556652,4.6597881317150005,-0.4305429309605,1.7398680448500001,0.127600107342,2043106.5,1521544732.0,374949389.5,,,,,,2431912.5,1521544733.0,269868265.5,,-0.6049999862909999,0.957999955863,-2.0819984436050003,-0.1050000004473,-0.0439999997616,-0.1240000016985,76.0,85.0,92.0,97.0,107.5,-34.5,-34.0,-33.5,-32.0,-20.5,-1.0,-3.4649999886760003,2.329999938603,-1.5199985504165,-0.01999999955325001,0.059000000357899984,-0.039000000804399984,2.3703388825269824,0.16833597504449788,6.333228654403538,1.796883361903023,0.012096602760505273,0.02047523761799771
38,38,60.1402178974,6012.5,1521544733.0,357969045.5,,2927791.5,1521544732.0,461817072.0,,0.7516776914404999,-0.08504005762710001,0.101259158269,0.7443082385475001,0.6671420688405,0.01269528479055,0.02766640484335,0.00332493870908,0.006849324911895001,0.005141635910380001,0.010988115995355,-0.00982991392189,0.0037377055070749996,3.9291167259199993,2.25683224201,4.625240325925001,-0.456745043397,1.8067332506150002,0.1112769655885,2928144.5,1521544732.0,459900047.0,,,,,,2431920.5,1521544733.0,351351986.0,,1.7899999499300001,-1.197000000625,-0.976998901365,-0.0685000009835,-0.1165000014005,-0.099500000477,70.0,70.0,76.5,80.0,94.0,-34.0,-31.0,-29.5,-25.5,-24.5,-1.0,2.394999936221,-2.154999956488,1.1049995422400003,0.0364999994638,-0.0725000016389,0.024500001221499982,2.364621677037168,0.16782356972719595,6.474882090589989,1.8668914367515206,0.00918721334261664,0.015209745010905409
39,39,60.242782,6025.5,1521544733.0,487970470.5,,2927803.5,1521544732.0,581818670.5,,0.7518720177535001,-0.08525697780615,0.101321075245,0.7443907996829999,0.667041712072,0.012545027805850002,0.027929634371950004,-0.0021273900447000005,0.007592945061249998,0.00221704271137,0.017183439808225003,0.007569717163950001,-0.005030954457225001,3.76854610443,2.18011200428,4.259455919265,-0.426764667034,1.7724912762599998,0.116290196776,2043120.5,1521544732.0,576434725.5,,,,,,2431933.5,1521544733.0,481876031.0,,1.759999978545,-1.0469999946645,-1.406999206545,-0.09299999848,-0.0599999986589,-0.0954999998212,58.0,59.0,63.5,78.0,88.5,-37.5,-35.5,-31.5,-27.0,-21.0,-1.0,-0.029999971384999883,0.15000000596049978,-0.4300003051800001,-0.024499997496500003,0.0565000027416,0.004000000655800015,2.4846439746016173,0.1461822476301319,6.090795746089499,1.8268488758823607,0.008191085489084354,0.019439180135380273
