,Unnamed: 0,Unnamed: 0.1,.header.seq,.header.stamp.secs,.header.stamp.nsecs,.header.frame_id,.endpoint_state.header.seq,.endpoint_state.header.stamp.secs,.endpoint_state.header.stamp.nsecs,.endpoint_state.header.frame_id,.endpoint_state.pose.position.x,.endpoint_state.pose.position.y,.endpoint_state.pose.position.z,.endpoint_state.pose.orientation.x,.endpoint_state.pose.orientation.y,.endpoint_state.pose.orientation.z,.endpoint_state.pose.orientation.w,.endpoint_state.twist.linear.x,.endpoint_state.twist.linear.y,.endpoint_state.twist.linear.z,.endpoint_state.twist.angular.x,.endpoint_state.twist.angular.y,.endpoint_state.twist.angular.z,.endpoint_state.wrench.force.x,.endpoint_state.wrench.force.y,.endpoint_state.wrench.force.z,.endpoint_state.wrench.torque.x,.endpoint_state.wrench.torque.y,.endpoint_state.wrench.torque.z,.joint_state.header.seq,.joint_state.header.stamp.secs,.joint_state.header.stamp.nsecs,.joint_state.header.frame_id,.joint_state.name,.joint_state.position,.joint_state.velocity,.joint_state.effort,.wrench_stamped.header.seq,.wrench_stamped.header.stamp.secs,.wrench_stamped.header.stamp.nsecs,.wrench_stamped.header.frame_id,.wrench_stamped.wrench.force.x,.wrench_stamped.wrench.force.y,.wrench_stamped.wrench.force.z,.wrench_stamped.wrench.torque.x,.wrench_stamped.wrench.torque.y,.wrench_stamped.wrench.torque.z,.tactile_values.tactile_values_0,.tactile_values.tactile_values_1,.tactile_values.tactile_values_2,.tactile_values.tactile_values_3,.tactile_values.tactile_values_4,.tactile_values.tactile_values_5,.tactile_values.tactile_values_6,.tactile_values.tactile_values_7,.tactile_values.tactile_values_8,.tactile_values.tactile_values_9,.tag,.delta_wrench.force.x,.delta_wrench.force.y,.delta_wrench.force.z,.delta_wrench.torque.x,.delta_wrench.torque.y,.delta_wrench.torque.z,.wrench_stamped.wrench.force.magnitude,.wrench_stamped.wrench.torque.magnitude,.endpoint_state.wrench.force.magnitude,.endpoint_state.wrench.torque.magnitude,.endpoint_state.twist.linear.magnitude,.endpoint_state.twist.angular.magnitude
0,0,57.501512,5750.5,1521544839.0,728903054.5,,2938425.0,1521544838.0,796736625.0,,0.6684280484565001,-0.109906022213,0.01000629554625,-0.398900035747,0.915874244693,0.007498326773469999,0.0446864900436,0.0007999952544500005,-0.01000145760769,-0.0016359077806400012,-0.007826215310129999,0.0025360958815499983,-0.012469356055000002,-0.1269618570807,1.222566723825,10.148385524750001,0.7476813793185,0.8481473922730001,0.7571945488455001,2050533.5,1521544838.0,805904968.0,,,,,,2442547.0,1521544839.0,723455812.0,,-1.6359999895100001,-0.335999978334,0.349001693726,0.127000004053,-0.156000003219,-0.0610000006855,238.0,518.5,602.0,766.0,814.0,312.0,350.5,370.0,536.0,840.0,5.0,0.0,0.0,0.0,0.0,0.0,0.0,1.7062221817045944,0.2102046672113182,10.222549460203796,1.3607810363171753,0.010165891055501294,0.014938750577852664
1,1,57.604076102600004,5760.5,1521544839.0,831295489.5,,2938435.5,1521544838.0,901736801.5,,0.6688461857525,-0.10961861923,0.01018124289715,-0.39856174424400004,0.915999509622,0.007592093734005,0.045119360728949995,0.004970252402835501,0.008000701174765,0.002745222631202,0.008944623743119998,-0.0075276345634499985,-0.0021951209475499986,-0.1918236911295,1.256889224055,10.05728149414,0.7250084578995,0.8331459164620001,0.7623109221459999,2050540.5,1521544838.0,906411072.0,,,,,,2442557.0,1521544839.0,823667855.0,,-0.6210000038144999,-1.6259999997949999,0.5790012359619999,0.08900000154975,-0.17549999803350005,-0.0554999988526,242.0,513.0,593.0,763.0,814.5,311.5,339.0,384.0,528.0,844.5,5.0,1.0149999856955,-1.290000021461,0.22999954223599994,-0.03800000250324999,-0.019499994814500016,0.005500001832900003,1.834328060984859,0.2044541500147469,10.137330906229462,1.3419714319486096,0.009810753056246077,0.011894962463211301
2,2,57.7066402051,5767.5,1521544839.0,899096488.5,,2938442.5,1521544838.0,971737151.0,,0.6686207922234999,-0.10889292427950001,0.0102370432066,-0.3985864916255,0.915981944867,0.00794347182426,0.0451963900375,0.010867557810345,-0.004507936906625,0.004713877297601201,0.003549944369165001,-0.01280755632508,-0.0300828498161,-0.08374843001339999,1.2622047066700002,10.1199321747,0.658750683069,0.8811368644240001,0.7401588857175,2050546.0,1521544838.0,980896069.0,,,,,,2442563.5,1521544839.0,890875198.5,,0.14399992227560002,-0.9809999816145,1.239001083375,0.1314999982715,-0.17550000548349998,-0.07099999859930001,240.0,525.0,601.0,775.0,838.0,308.0,330.5,368.5,521.0,841.0,5.0,0.7649999260900999,0.6450000181805001,0.6599998474130001,0.042499996721749984,-7.449999950281949e-09,-0.01549999974670001,1.5868902375865357,0.23050705254116116,10.198686275280648,1.3259675005057265,0.012674618222737218,0.03288789225691258
3,3,57.80920430770001,5780.5,1521544840.0,31053065.5,,2938458.5,1521544839.0,131738559.5,,0.6685273886859999,-0.110032008088,0.009915875384,-0.3986432486545,0.9159832995575,0.0074632956285749985,0.04474863695605,-0.00475569432316,-0.0013079139941804998,0.0026502839020600003,-0.005445480936180001,0.00592219094047,0.00023830101221999908,-0.21953764557850008,1.16997808218,10.18917131425,0.75409668684,0.8245741426940001,0.7656438052654999,2050556.5,1521544839.0,131915486.5,,,,,,2442577.5,1521544840.0,30412373.5,,-0.286000084877,-1.90599997118,0.338999557495,0.1134999990465,-0.1765000000595,-0.07899999991060001,203.0,523.0,596.5,774.0,816.5,313.0,339.5,376.5,517.0,848.5,5.0,-0.4300000071526,-0.9249999895655,-0.90000152588,-0.01799999922499999,-0.0009999945760000297,-0.008000001311300006,1.9569242802596165,0.22422198774971605,10.258472477018342,1.3545459632083532,0.00559922068443706,0.008048751178543777
4,4,57.9117684103,5791.5,1521544840.0,138974070.0,,2938469.5,1521544839.0,241748892.0,,0.6684862122699999,-0.1099278755315,0.010087127030575,-0.398793837684,0.9159142265785,0.00746027633739,0.04481930617105001,-0.007249352476024999,-0.0009943457894099998,-0.002610612548275,-0.0002213105712155,0.007101947384870001,0.008077787828789998,-0.13578945398345,1.106110602617,10.15294027325,0.7547712028025,0.8539459705354999,0.7580975592139999,2050563.5,1521544839.0,232418217.5,,,,,,2442587.5,1521544840.0,130524363.0,,0.184000003338,-1.99600000456,0.3790004730225,0.12550000473849998,-0.154000006616,-0.07799999788405,217.0,529.0,599.0,775.0,801.0,310.0,352.0,364.0,516.5,839.0,5.0,0.47000008821500006,-0.09000003337999972,0.04000091552750002,0.01200000569199998,0.02249999344350001,0.0010000020265500118,2.0399787690030458,0.21342505217758145,10.213917741651176,1.3688006423361927,0.007768985310050346,0.010758126752987316
5,5,58.014332512799996,5801.5,1521544840.0,238885045.0,,2938479.5,1521544839.0,341748052.5,,0.6686573658564999,-0.1095540245245,0.0101956676047,-0.398689424027,0.915955810381,0.007518980986615,0.044889130700349986,0.0019205465794200002,-0.0091566760491815,0.0039254925915200006,-9.965387883500031e-05,-0.0009006955351849996,-0.014964886358959997,-0.10060077905675,1.2419078946100002,10.0498828888,0.702300876379,0.8351512849335,0.7535497546195,2050570.5,1521544839.0,332916375.5,,,,,,2442597.5,1521544840.0,229965899.0,,-0.426000010967,-1.285999996215,0.363999176025,0.1005000025035,-0.1694999933245,-0.06599999964235,218.0,532.5,610.0,765.0,838.0,294.0,364.0,371.5,518.0,872.0,5.0,-0.6100000143050001,0.7100000083449998,-0.015001296997500024,-0.025000002234999985,-0.015499986708500004,0.011999998241700005,1.4027713283909615,0.20781361407039542,10.126825850879262,1.3261000800753675,0.010146068574549178,0.014992298258747925
6,6,58.1168966154,5808.5,1521544840.0,308851957.0,,2938486.5,1521544839.0,411737191.5,,0.6685855244555,-0.109790427234,0.010112486443265,-0.39848951898900004,0.916040339587,0.0075708202622950015,0.0449314735963,0.010799925590855,-0.007656357363515,0.003932936995281,0.005210852113444999,-0.013633306550200001,-0.02421674105485,-0.17211161553850002,1.170304238795,10.10128736495,0.748321533203,0.839875280857,0.7535869479180001,2938839.5,1521544839.0,409839822.5,,,,,,2442604.5,1521544840.0,301871549.5,,-0.2360000729565,-3.05599994734,0.49900131225550004,0.0945000015199,-0.16849999874850002,-0.0515000000596,212.0,531.0,600.0,761.5,802.0,306.0,358.5,372.0,521.0,849.0,5.0,0.18999993801049994,-1.7699999511250002,0.1350021362305,-0.006000000983599998,0.000999994575999974,0.01449999958275,3.105452305576479,0.19993686471395017,10.170311738036515,1.3539826042170113,0.013810365464197718,0.028274910690532302
7,7,58.2194607179,5821.5,1521544840.0,438914060.0,,2938498.0,1521544839.0,526740751.0,,0.668589186274,-0.10926858349600001,0.0102928103158,-0.399120274656,0.915766228972,0.00757483724921,0.0449203970749,0.00572634671584,-0.011405424514399999,0.0029937890823,-0.00103684705501,-0.000280822810991,-0.0367604835462,-0.338822901249,1.0428196191799999,10.4885435104,0.9075109958650001,0.850950479507,0.8133747577670001,1162317.0,1521544839.0,526000128.0,,,,,,2442617.5,1521544840.0,431412792.0,,-0.236000072956,-2.770999980715,0.2990005493165,0.115000002086,-0.157499998808,-0.0219999994151,217.0,525.5,600.0,765.0,830.5,312.5,319.0,367.0,527.0,842.0,5.0,5.000166947155549e-13,0.28499996662500005,-0.20000076293900002,0.02050000056609999,0.010999999940500022,0.0295000006445,2.7970588581667952,0.1962530256545473,10.54570143167876,1.4863618074888776,0.013108681403290978,0.03677617522006736
8,8,58.32202482050001,5831.5,1521544840.0,539018988.0,,2938507.0,1521544839.0,616736670.0,,0.6688655774525,-0.10960077365,0.0104342844194,-0.39857975252949995,0.915988560845,0.007467463469189998,0.0452030498082,0.0019464478641000003,0.007452730108309998,-0.0016349696654849994,0.0135186477125,0.0013060602561,-0.007458214495359998,-0.2759430110455,1.17508107424,10.3924984932,0.8678855895995,0.8730725049970001,0.8151928782464999,2050589.5,1521544839.0,610896810.0,,,,,,2442627.5,1521544840.0,533264007.0,,-0.2460000038147,-3.790999961645,0.4890010833740001,0.104500003159,-0.14850000292049995,-0.01849999977275,216.5,524.5,602.5,772.0,797.5,308.5,345.0,370.0,517.0,821.5,5.0,-0.009999930858700018,-1.0199999809299998,0.1900005340575001,-0.010499998926999987,0.008999995887500056,0.00349999964235,3.8303157533825027,0.18252329034731773,10.462360393694444,1.4764892225681912,0.007874323536788791,0.015494663366012296
9,9,58.4245889231,5842.5,1521544840.0,648965954.5,,2938517.0,1521544839.0,716747146.0,,0.66879904648,-0.109632842856,0.0104608873496,-0.3999806796230001,0.915363703236,0.00780332986969,0.0454173630261,-0.012467426156725001,-0.01163042270133,-0.0003672572014174999,0.014607788314095004,0.0194125858724,0.04061364129209,-0.37788048386600004,0.9886070489875,11.52492761615,1.30216562748,1.361345231535,1.0620169043519998,1162325.0,1521544839.0,728999936.0,,,,,,2442638.5,1521544840.0,640900683.5,,-2.31100001633,-1.811000002175,2.724001693725,0.10049999877795,-0.23349999636399998,-0.0480000004172,209.0,527.5,592.0,746.5,813.0,332.0,353.5,363.0,549.5,858.0,5.0,-2.0650000125153,1.97999995947,2.2350006103510003,-0.004000004381049999,-0.08499999344350008,-0.029500000644450002,4.005075194147018,0.2587015618360414,11.573421884425173,2.1625855048859615,0.01705398267376263,0.04732550928078083
10,10,58.52715302560001,5851.5,1521544840.0,740479945.5,,2938527.0,1521544839.0,816746323.0,,0.664265044018,-0.10884920802300001,0.0110739980587,-0.40191214218800003,0.914510431891,0.0130188438924,0.0443600003044,-0.053399047417199995,0.0084258271482,0.0190458981957,0.154358595632,0.0578753050085,-0.0260140811318,-0.30110013485,-0.38863915205,15.8705501556,2.2064166069,1.98593449593,1.35160148144,2050603.5,1521544839.0,812913548.0,,,,,,2442648.0,1521544840.0,734911640.0,,-0.636000049114,-1.96600003317,6.32900123596,0.18299999833099997,-0.256999999285,-0.0489999987185,233.0,569.0,583.0,683.0,825.5,351.5,375.0,410.0,582.0,841.0,5.0,1.674999967216,-0.15500003099500015,3.6049995422350003,0.08249999955305001,-0.02350000292099999,-0.0009999983013000008,6.6577705606066555,0.319278873237878,15.878163115522149,3.261753612699717,0.05731665609817696,0.16689175951029478
11,11,58.6297171282,5862.5,1521544840.0,849229931.5,,2938538.0,1521544839.0,926764128.5,,0.6481125536185001,-0.1112206620555,0.0150057382312,-0.4017198992955,0.9149737858045,0.0199584950599,0.03230376450325,-0.1817621920325,-0.05364636329025,0.045238607779199996,-0.02444676528415,0.312434796828,0.008008282222999999,2.205681025985,-1.321177363395,17.26429271695,1.603116691115,2.13609033823,1.192224144935,2938891.0,1521544839.0,924805726.0,,,,,,2442658.5,1521544840.0,841083142.0,,-0.8560000181195,-1.0659999825065,8.279001998904999,-0.10949999839050001,-0.363499999046,-0.04550000093874999,342.0,503.0,556.5,644.0,864.5,308.0,422.0,537.5,564.5,714.0,5.0,-0.2199999690055,0.9000000506635,1.9500007629449991,-0.2924999967215,-0.106499999761,0.0034999977797500123,8.391124244795652,0.38235160394509626,17.45469396553461,2.924767250599106,0.19483828776841883,0.3134920719667009
12,12,58.7322812308,5874.5,1521544840.0,969153046.0,,2938550.0,1521544840.0,46736674.0,,0.628477953118,-0.1187826113915,0.02251120415935,-0.4069174983615,0.9130851619724999,0.02052988776485,0.016462584284200003,-0.14305153086,-0.0671207937088,0.06531773230010003,-0.10029213491585,0.14986693561800002,0.126408669784,6.78230690956,-1.711189091205,16.0664949417,2.62399816513,2.7941454649,1.265016019345,2050621.0,1521544840.0,51418832.5,,,,,,2442671.0,1521544840.0,965997732.5,,2.52900003195,1.29900001213,8.039000320435001,-0.18599999696,-0.10099999792889999,-0.07400000095364999,370.0,393.0,428.5,734.0,865.5,242.5,434.5,500.0,523.0,685.5,5.0,3.3850000500695003,2.3649999946365003,-0.2400016784699979,-0.0764999985695,0.26250000111710003,-0.0285000000149,8.526943669631628,0.2242164101752992,17.523130851334642,4.036444076018682,0.17098347166412414,0.22022207544673894
13,13,58.8348453333,5883.5,1521544841.0,58890938.5,,2938561.5,1521544840.0,161745900.0,,0.6190311024180001,-0.1270952960485,0.03073607077685,-0.40757272634,0.912932657614,0.0177709492554,0.01107217637375,-0.0478284506694,-0.06958680782099999,0.07996208964814999,-0.05238639711935,-0.0045609516092,-0.04259326375265,6.3694279193900005,-0.7130318284035,15.432839870450001,2.404495835305,2.378722429275,1.156587183475,2938913.0,1521544840.0,144831368.0,,,,,,2442679.5,1521544841.0,52669742.0,,2.4839999556500003,1.004000055046,7.3590000152599995,-0.167000003159,0.06400000117719999,-0.042500000447,335.0,343.0,459.5,746.0,746.0,215.0,302.5,421.0,487.0,740.0,5.0,-0.04500007629999958,-0.2949999570840001,-0.6800003051750023,0.01899999380100001,0.16499999910610003,0.03150000050664998,7.8315485770566635,0.18382396808844761,16.71079210796342,3.574578930519465,0.11629196144639917,0.06767069528112235
14,14,58.9374094359,5894.5,1521544841.0,169327973.5,,2938572.5,1521544840.0,271733957.0,,0.6223216639904999,-0.1360262197215,0.0389327379533,-0.4029064411135001,0.9150161633165,0.01287218013735,0.0156869894658,0.06651395684825,-0.07723369058165,0.06867906719865,-0.020834991809200003,-0.1633687556325,-0.122186894661,10.28262805938,1.9610697031,10.028306007380001,1.26731479168,3.5426609516099994,1.04349654913,2050636.0,1521544840.0,262396196.5,,,,,,2442690.5,1521544841.0,162343095.5,,3.4390001177800005,0.47899998947949995,7.2390010833749985,-0.1290000043805,0.09299999848005,-0.0505000017583,358.5,399.5,424.0,587.5,678.5,270.0,271.0,341.5,401.0,698.5,5.0,0.9550001621300002,-0.5250000655664999,-0.1199989318850001,0.0379999987785,0.028999997302850012,-0.0080000013113,8.028654898867968,0.16685398114832808,14.496384223854562,3.904538186177644,0.12290632078029834,0.20506848716343337
15,15,59.03997353850001,5904.5,1521544841.0,270795464.0,,2938582.5,1521544840.0,371739132.5,,0.6322668928885,-0.14015207695499998,0.04480970019195,-0.398786812963,0.916631336001,0.00944487570943,0.02581760813275,0.096562201081,-0.04369038969195,0.046769571709300004,0.0237264368188,-0.211063074581,-0.0688929758805,2.212424635885,4.233382701875,12.97047519685,-0.0281895995140125,1.5184417963049999,0.8476342558859999,2050643.0,1521544840.0,362914704.0,,,,,,2442701.0,1521544841.0,267767389.5,,0.26399998664799995,-0.10599995925799988,8.133997726439999,-0.09400000050650001,-0.0960000036287,-0.039999999105900005,311.0,416.0,436.0,485.0,563.0,246.5,265.0,275.0,339.5,617.5,5.0,-3.1750001311320006,-0.5849999487374999,0.8949966430650003,0.035000003874,-0.18900000210875,0.010500002652399995,8.138971126502655,0.14018559384046714,13.822068539191463,1.73923660668643,0.11584688889613429,0.22328637974890547
16,16,59.142537641000004,5913.5,1521544841.0,358870983.0,,2938591.0,1521544840.0,456732280.0,,0.637982867684,-0.142233475479,0.0484853395377,-0.3959668644080001,0.9176693278,0.00796485373778,0.0320906249686,0.0439502570926,-0.011656871485899998,0.0424461968327,0.0306668681011,-0.09131186227980001,-0.0964730030256,1.92864716053,4.0606617927599995,11.487756729100001,-0.07159030437469999,1.4893245697,0.868425726891,1162354.0,1521544840.0,452000000.0,,,,,,2442709.5,1521544841.0,354590206.0,,-0.2660000443455,-0.720999998601505,6.864001083374999,-0.0669999998063,-0.297499999404,-0.07250000163914999,282.0,307.0,340.0,382.0,502.5,144.0,155.0,220.0,335.0,379.0,5.0,-0.5300000309935,-0.6150000393435051,-1.2699966430650005,0.02700000070019999,-0.2014999957753,-0.03250000253324998,6.906888437939934,0.31345095287317437,12.336012675576482,1.725507487297205,0.06220279235616948,0.13632810900512357
17,17,59.245101743599996,5925.5,1521544841.0,480630516.5,,2938601.0,1521544840.0,556798970.0,,0.642518511223,-0.142430594906,0.056574340828800015,-0.39603427701800004,0.9174410397630001,0.00643158235675,0.0376487016273,0.104229216469,0.0194202698152,0.118408712248,0.0369397910258,-0.25607908074,0.0160403102256,3.46438646317,3.8861620426199996,6.61758947372,-0.459205091,1.47924518585,0.7123190164569999,2050656.5,1521544840.0,558944171.5,,,,,,2442721.5,1521544841.0,472574685.5,,0.5289999723415,1.7489999406060002,-3.8759986877450014,-0.11249999701964998,-0.0984999984504,-0.07249999791385,161.0,170.0,173.0,181.5,185.5,19.5,20.5,27.0,35.5,54.0,5.0,0.7950000166869999,2.469999939207505,-10.739999771119999,-0.045499997213349984,0.19900000095360004,3.725299985157804e-09,4.285114653119339,0.16617685976590818,8.420018968528856,1.7048266822955895,0.1589386661000604,0.2592264170677956
18,18,59.3476658462,5934.5,1521544841.0,573443531.5,,2938611.0,1521544840.0,656805555.5,,0.65445494398,-0.13839500271400001,0.06973986599530001,-0.3993607508965,0.9153493102485,0.00242995661359,0.0513700586142,0.122846385511,0.06490991151785,0.150918913958,0.06285714867850001,-0.283199935345,0.101699537802,-0.7842027246969999,-2.649913668635,8.266858816145,2.548054099085,0.415378138423,1.2002669572799998,2938963.0,1521544840.0,644903735.5,,,,,,2442731.0,1521544841.0,568538901.0,,-1.2910000298180002,0.8690000049785,-2.311000061035,-0.1469999961555,-0.16799999773500002,-0.05949999950825,156.0,161.5,165.5,171.5,182.5,-19.5,-11.0,-10.0,0.5,9.0,5.0,-1.8200000021595,-0.8799999356275001,1.564998626710001,-0.034499999135850015,-0.06949999928460003,0.012999998405600005,2.786137715143759,0.23102650940997826,8.716534348622456,2.847061548067027,0.20513666087911872,0.30740205026730655
19,19,59.4502299487,5946.5,1521544841.0,692476033.5,,2938623.0,1521544840.0,776798031.0,,0.6654814671425,-0.131960063058,0.08300810973994999,-0.40081082406199997,0.913864529248,0.00034976744375599995,0.0648174505163,0.06846686416664999,0.0433874123071,0.0963224192046,0.03648392147305,-0.15683366700200002,0.018786791971725,-0.4149202257395,-0.8268029689805001,5.45837855339,1.28734451532,0.5489942133429999,0.9425452947615,2938975.0,1521544840.0,764871698.5,,,,,,2442743.0,1521544841.0,686622974.5,,-0.8259999871275,-0.025999998300999968,-2.38099975586,-0.07349999644800499,-0.13449999690050002,-0.0590000003576,196.5,204.5,215.0,233.0,249.5,-36.5,-28.5,-27.0,-22.5,-14.5,5.0,0.4650000426905002,-0.8950000032795,-0.0699996948249999,0.07349999970749499,0.0335000008345,0.0004999991506500073,2.520339623156304,0.16423610652438173,5.536213360714216,1.6873180435488824,0.12588958446570347,0.1621135996267271
20,20,59.55279405130001,5955.5,1521544841.0,781885504.0,,2938631.0,1521544840.0,856791518.0,,0.667817309532,-0.12882003570800002,0.08822528928580001,-0.40364176147200004,0.912422428958,-0.00113990434096,0.0675080746923,0.0123109795711,0.00227886600266,0.04567874600190002,-0.0610560507778,-0.0146056696113,0.0428458449239,1.38547956944,-1.23746013641,5.14841270447,1.51491355896,1.06381297112,0.940586447716,2938984.0,1521544840.0,854888464.0,,,,,,2442752.0,1521544841.0,776237364.5,,-1.0959999978535,-1.186000002175,-2.4159996032699995,-0.051500000059599996,-0.109500002116,-0.09949999675165,187.0,190.5,198.5,223.0,242.0,-37.5,-35.0,-34.0,-29.5,-27.0,5.0,-0.270000010726,-1.160000003874,-0.034999847409999514,0.02199999638840499,0.024999994784500015,-0.04049999639405,2.9060051760887773,0.15666125820738566,5.473300156403594,2.0763824296769173,0.04736350160792821,0.07600614020339826
21,21,59.6553581538,5963.5,1521544841.0,858862519.0,,2938639.0,1521544840.0,936792488.0,,0.669207923113,-0.125949329358,0.09177426455439999,-0.403572824021,0.9122176026950001,-0.00128402409256,0.07061425016919999,-0.00964414670884,0.0503953290436,0.0394919282351,-0.00103550620746,-0.06957839770600001,0.09430348090469999,1.36448609829,-0.320314049721,8.62039089203,1.00834619999,1.50750982761,0.934765458107,2938991.0,1521544840.0,924867049.5,,,,,,2442759.5,1521544841.0,853672265.5,,0.419000017643,-0.3459999846295,-1.761000823975,-0.05750000104305,-0.19300000369550002,-0.07750000059605,140.0,165.0,183.5,187.0,203.0,-46.0,-40.0,-34.5,-30.5,-21.0,5.0,1.5150000154965002,0.8400000175454999,0.6549987792949994,-0.0060000009834499995,-0.0835000015795,0.0219999961556,1.8429326917142355,0.21578114291754394,8.733588182085821,2.040376044028403,0.06474805905106833,0.11719800429692953
22,22,59.7579222564,5976.5,1521544841.0,989508390.0,,2938654.0,1521544841.0,86794986.0,,0.6714908195675,-0.123909571042,0.09874489627575,-0.4049746308615,0.911228190053,-0.00376421789392,0.07512743979525,0.02562847610395,0.004225287711450001,0.0418585100496,0.0029560471763200005,-0.08259052355624999,-0.0024273961353499986,1.658712804315,-0.1290806531905,5.11060476303,1.238709270955,1.1224918365449998,1.0228044986699998,2939007.5,1521544841.0,89864844.0,,,,,,2442772.5,1521544841.0,982606661.0,,0.043999898433499995,-1.215999973565,-3.3459999084500005,-0.07699999958275,-0.101500000805,-0.06599999964240001,104.0,112.0,130.0,134.5,143.0,-45.5,-43.5,-34.5,-32.0,-26.0,5.0,-0.3750001192095001,-0.8699999889354999,-1.5849990844750004,-0.0194999985397,0.0915000028905,0.011500000953649987,3.5603802204427057,0.1434825775206011,5.374594963914168,1.959723864109335,0.04926262992601725,0.08267904842341878
23,23,59.860486359,5984.5,1521544842.0,69043993.5,,2938662.5,1521544841.0,171814562.0,,0.673595630694,-0.1224113692615,0.101449668151,-0.4056029198855,0.9106761041165,-0.0046632587644600005,0.07831636576519999,0.005815417095485,0.004378746899542501,0.01419962663296,-0.00804370909087,-0.014793623598004997,0.0093127346446,0.7720732688899999,-0.51285931468,4.213139533995,1.179029405115,0.9415841400615,0.9594317674635,2050698.5,1521544841.0,162946764.0,,,,,,2442780.5,1521544842.0,63023194.0,,-0.3760000586509501,-3.0059999950250003,-1.675997924805,-0.0620000008494,-0.17899999767549998,-0.052999999374150016,91.0,96.0,103.0,119.0,120.0,-45.0,-41.0,-30.0,-26.5,-21.5,5.0,-0.4199999570844501,-1.7900000214600005,1.6700019836450004,0.014999998733350001,-0.0774999968705,0.013000000268249995,3.462135332153624,0.19670790326475066,4.31389227289001,1.7880716840661957,0.015956876164217707,0.019242650068499612
24,24,59.963050461499996,5996.5,1521544842.0,188957452.5,,2938674.5,1521544841.0,291792083.0,,0.672040352999,-0.122640797295,0.1000536075705,-0.4055725063365,0.9108437472255,-0.0038000322431799996,0.07655043394510001,-0.017789622074650003,0.0011526058753705,-0.015070242916959999,0.0008604093823799995,0.042530220625300014,-0.00660527037439,2.72280550003,0.08406755328160001,5.86647081375,0.956034123898,1.60603672266,0.9484922885895,2050706.0,1521544841.0,280960413.0,,,,,,2442792.5,1521544842.0,182087277.5,,-0.08599997758845,0.1940000228584,-1.675999832155,-0.054999999702,-0.1490000039335,-0.06849999912084999,82.0,85.0,89.0,97.0,112.0,-49.0,-45.5,-44.5,-43.0,-41.0,5.0,0.2900000810625001,3.2000000178834003,-1.9073499999411325e-06,0.007000001147400001,0.029999993741999995,-0.015499999746699971,1.6893807866783208,0.17296893079093556,6.468092218969127,2.095946760321845,0.023343336853136408,0.04304868833612444
25,25,60.065614564099995,6003.5,1521544842.0,258862495.0,,2938681.0,1521544841.0,356793006.0,,0.671664746358,-0.123458668727,0.0992326899755,-0.40523046088,0.911071535344,-0.003690386320530001,0.0756525750344,-0.00130397728868,0.00037143737864900003,-0.005814631528810001,0.00551687903135,0.0076556983975000015,-0.0134848316186,1.87346148491,0.357435464859,6.9245095252999995,0.635721325874,1.18269264698,0.774321556091,2050712.0,1521544841.0,359438408.5,,,,,,2442799.5,1521544842.0,253306474.5,,0.8689999461169999,-0.02600000575165,-2.40600128174,-0.08100000023845,-0.129500001669,-0.07450000196695,75.0,80.0,82.5,83.5,93.5,-44.5,-41.5,-40.5,-40.0,-27.0,5.0,0.95499992370545,-0.22000002861005,-0.730001449585,-0.02600000053645,0.019500002264499997,-0.006000002846100014,2.558257038372993,0.16994558177244695,7.182370793334926,1.5499927011501515,0.0059706165771620445,0.016458625579981692
26,26,60.1681786667,6016.5,1521544842.0,388883948.0,,2938694.5,1521544841.0,491798043.5,,0.6729362463155,-0.1236618310725,0.1003423125445,-0.4047163358395,0.911176989896,-0.00417846332821,0.0770945736151,0.01555399574865,0.007325719898675001,0.01224497082125,0.011549595092815,-0.036141127611300006,-0.009676396451835,2.042857885365,0.2953573465345,5.377586126324999,0.8365515470505,1.310977756975,0.8949040174484999,2939045.0,1521544841.0,464884852.0,,,,,,2442812.5,1521544842.0,385002158.5,,0.34399996995899995,-1.0859999783349998,-1.960999679565,-0.057499999180449984,-0.147500000894,-0.0670000016689,78.0,80.5,84.5,92.0,96.0,-42.0,-37.5,-33.5,-30.0,-27.0,5.0,-0.524999976158,-1.0599999725833498,0.4450016021750001,0.02350000105800001,-0.01799999922500001,0.007500000298050008,2.267873822665063,0.1719054984377008,5.760116044663768,1.7942503645258798,0.0211076352582692,0.03915618597510913
27,27,60.2707427692,6026.5,1521544842.0,488922476.5,,2938701.0,1521544841.0,557407839.0,,0.673591843886,-0.123301390095,0.101073020283,-0.405353085655,0.91081220472,-0.004442418868380001,0.0780401729716,-0.00255465376891,0.0170428592255,-0.00292173620643,0.00748061961731,-0.0030916111355200004,0.029239283812500006,1.6196448802899999,-0.0738634467125,5.118385791780001,0.955187439919,1.26533925533,0.921397447586,2939054.0,1521544841.0,555517789.0,,,,,,2442822.5,1521544842.0,484315174.0,,0.8990000367165001,-1.10099999383,-2.0209991455100003,-0.047000000253300006,-0.16099999845000001,-0.054999999702,70.5,75.0,76.0,80.0,83.0,-43.0,-39.5,-37.0,-31.0,-25.5,5.0,0.5550000667575001,-0.015000015495000074,-0.059999465945000274,0.010499998927149985,-0.013499997555999982,0.012000001966899994,2.470797360890221,0.17650778875712597,5.369038876792125,1.8336956489221672,0.017479183302408052,0.030338975710133644
28,28,60.373306871800004,6038.5,1521544842.0,609840988.5,,2938713.0,1521544841.0,677415199.0,,0.671886813454,-0.123607886122,0.09969082809460003,-0.405068028545,0.911117735052,-0.00387203779545,0.07595638517110001,-0.00806173001301,0.00477555210738,-0.00894798014068,0.00431529488451,0.0302284560476,-0.0167180073127,3.09620213509,0.496440649033,5.685300827030001,0.734215736389,1.5872277021399999,0.841664493084,2050735.0,1521544841.0,692768954.0,,,,,,2442834.5,1521544842.0,602766236.5,,-0.6160000681875,-0.38099999502325,-2.10600013733,-0.07099999859930001,-0.148500002921,-0.0920000001788,64.0,65.5,67.5,72.0,91.0,-43.5,-42.0,-41.0,-38.5,-34.0,5.0,-1.5150001049039998,0.7199999988067499,-0.08500099181999943,-0.023999998346,0.012499995528999995,-0.0370000004768,2.227072890286418,0.18856630319740803,6.492731818978526,1.9408152011256024,0.012956223883947491,0.03481196767592223
29,29,60.475870974399996,6048.5,1521544842.0,710264563.0,,2938723.0,1521544841.0,777408879.0,,0.672032908786,-0.123685706141,0.0995448479676,-0.405263864588,0.91102192234,-0.00401646676703,0.0760534356168,0.0009681850263420001,0.005736630819100001,0.0014055399931800002,0.0103790515854,-0.00577038729461,-0.00671697986084,3.0408544540400007,0.257893443108,5.137344837190001,0.851931929588,1.6043535471,0.903346896172,2050741.5,1521544841.0,788736299.0,,,,,,2442844.5,1521544842.0,704459517.5,,-1.60100002289,0.15400003120300002,-2.13599891663,-0.06599999964235,-0.1400000005965,-0.09700000286115,64.0,68.0,76.0,79.0,87.5,-46.0,-42.5,-42.0,-37.0,-27.5,5.0,-0.9849999547025,0.53500002622625,-0.029998779300000056,0.004999998956950011,0.008500002324499989,-0.005000002682349999,2.673837776445841,0.18266088983379367,5.975417710491524,2.0287370286874222,0.005985136428880234,0.013643309708172752
30,30,60.57843507689999,6055.5,1521544842.0,778860926.0,,2938731.0,1521544841.0,857441839.0,,0.672007461032,-0.123219940615,0.099084386396,-0.404883355492,0.9111755203030001,-0.00349170397617,0.076265638716,0.013184526495700002,-0.00312890042311,0.004550308140600001,0.019041794909299997,-0.024788178759400002,-0.0253876774047,2.95712924004,0.154789924622,4.977211952209999,0.803544342518,1.68864905834,0.887561559677,1162409.5,1521544841.0,861500032.0,,,,,,2442851.5,1521544842.0,773951976.0,,0.4889999508855,-0.8209999721494999,-1.3310005188,-0.05150000005965,-0.166500002146,-0.08900000154974999,66.5,73.0,75.0,89.0,96.0,-42.5,-41.0,-40.0,-37.0,-26.5,5.0,2.0899999737755,-0.9750000033525,0.8049983978299997,0.0144999995827,-0.0265000015495,0.00800000131140001,1.638512827927011,0.19569236315354122,5.791477538615349,2.0700204527592287,0.014294301695009937,0.04026882073740089
31,31,60.6809991795,6067.5,1521544842.0,899462461.0,,2938743.0,1521544841.0,977416784.0,,0.671875087108,-0.12387109029400001,0.0989713525657,-0.40420924401999997,0.9115260527850001,-0.0033380662891,0.0756571176821,-0.000435883449113,0.0110774347261,-0.0026447608837499997,0.00343289481535,0.0101959884023,0.00124279152318,3.9404006004300003,0.371020972729,4.1756005287199995,0.978876829147,1.9079515934,0.9731398820880001,2939096.0,1521544841.0,975499345.0,,,,,,2442863.5,1521544842.0,894030427.0,,-0.505999994278,0.279000001401,-2.7310001373299997,-0.07400000095369999,-0.110499996692,-0.07750000059605,57.5,65.5,74.0,75.0,82.0,-33.0,-30.0,-26.0,-26.0,-19.5,-0.5,-0.9949999451635,1.0999999735505,-1.3999996185299999,-0.022500000894049996,0.05600000545400001,0.01150000095369999,2.7914581754143426,0.153923680772217,5.753264571486403,2.3548843622370783,0.011397118698356657,0.010829934306503483
32,32,60.7835632821,6076.5,1521544842.0,988951563.5,,2938753.0,1521544842.0,77407871.0,,0.671714281581,-0.12419190126700001,0.0982377237823,-0.404061617693,0.911618796943,-0.0031743524351300003,0.07533459798360001,-0.0132402916668,-0.0156050541888,-0.0133178601267,0.0140671681806,0.0591363667375,-0.047047113781900005,3.0163261890400004,-0.043373644352,4.48248672485,0.9823973178859999,1.61405932903,0.912040233612,2939106.0,1521544842.0,75496598.0,,,,,,2442872.5,1521544842.0,984048168.5,,-0.1060000777247,-0.295999990403505,-2.59100074768,-0.042499998584400005,-0.17899999767549998,-0.09899999946375004,69.5,77.0,80.0,81.0,89.0,-33.0,-32.5,-28.0,-25.0,-21.5,-1.0,0.3999999165533,-0.574999991804505,0.13999938965000025,0.03150000236929998,-0.0685000009835,-0.021499998867700033,2.610007066135039,0.2089216334928614,5.403035460754392,2.0981204435268754,0.024416970287315824,0.07686628654189318
33,33,60.8861273846,6088.5,1521544843.0,108867049.0,,2938766.0,1521544842.0,207413155.0,,0.6704317167764999,-0.123625067875,0.09613007735825,-0.40465238715,0.9114998849285,-0.0019083053578399997,0.07362504806555001,-0.006095352086019999,0.00978940306671,-0.011694972526495,0.0025989008728550013,0.022492750829825,0.01823183453633,4.4935295581800005,0.32909232378000003,3.7129070758800005,0.8154596984385001,2.05192601681,0.8876608610154999,2050771.0,1521544842.0,205753173.5,,,,,,2442884.5,1521544843.0,104103482.5,,-0.1160000681878,0.9340000025949999,-2.2459995269800004,-0.0559999998659,-0.13949999958249998,-0.099500000477,52.5,57.5,59.0,75.0,80.0,-20.5,-17.0,-8.5,-2.5,0.5,-1.0,-0.009999990463100005,1.229999992998505,0.3450012206999995,-0.013500001281499995,0.039499998093000005,-0.0005000010132499844,2.4352260461528865,0.18026785615694577,5.838303572265495,2.379772405592169,0.01642431465390664,0.029070223875980645
34,34,60.9886914872,6096.5,1521544843.0,188858985.5,,2938774.5,1521544842.0,292448966.5,,0.6699220475909999,-0.123489504306,0.09526226074989999,-0.404098517526,0.9117931880975,-0.000954920485547,0.0730522788812,-0.002045661921065,-0.00782933801529,-0.01353760506087,-0.0011962032684599993,0.02465110023298,-0.02323049524495,4.462538957594999,0.249314904213,3.5738538503650004,0.7666236162185,2.053300738335,0.858808428049,2939126.5,1521544842.0,280513736.0,,,,,,2442892.5,1521544843.0,183484454.5,,-0.256000053883,-0.7509999848905,-1.995999526975,-0.0525000002235,-0.1539999991655,-0.06399999931455,66.5,67.0,70.5,75.0,85.0,-5.0,-1.5,1.0,4.5,7.5,-1.0,-0.1399999856952,-1.6849999874855,0.25000000000500044,0.003499999642399998,-0.014499999583000025,0.035500001162450015,2.147917856105781,0.174837781039179,5.722660501312701,2.3539982173058203,0.015771810842038828,0.033893414615254476
35,35,61.09125558970001,6109.5,1521544843.0,319440960.5,,2938787.5,1521544842.0,422452362.0,,0.6695876861475001,-0.126057600646,0.09373209541494999,-0.402568147516,0.9125848087505,-0.001069441075962,0.07159992388035,0.008402700532029999,-0.00982347842858,0.0001430982820483,-0.0015463815613549993,-0.00418428081676,-0.04196807978705,4.973962306975,0.35923358798050004,3.4024685621249997,0.8824259638784999,2.260642647745,0.9347806572915,1162431.5,1521544842.0,417500032.0,,,,,,2442905.5,1521544843.0,313829446.0,,-0.361000072956,-1.1059999741600002,-2.561000061035,-0.053999999538050014,-0.118000000715,-0.0630000010133,70.0,76.5,77.0,79.0,80.5,9.0,12.5,18.0,18.0,29.0,-1.0,-0.10500001907299994,-0.35499998926950016,-0.5650005340600002,-0.001499999314550006,0.035999998450500004,0.0009999983012499991,2.81287722948184,0.14425325038461076,6.037064031314425,2.600576020764775,0.01292774465195221,0.04220449292313556
36,36,61.193819692299996,6117.5,1521544843.0,398859023.5,,2938794.5,1521544842.0,492381873.5,,0.6697250738245,-0.12611446377149998,0.0932235249776,-0.4022384972345,0.912730545151,-0.0007522547526960001,0.07159769622244999,-0.005683755681215,-0.006423298258399999,-0.014507971884700002,0.00020656408164999862,0.022723242110100003,-0.008053489411949999,4.377481937404999,0.540988743305,3.74761509895,0.7256363332269999,2.14896607399,0.8994012475015001,2939147.5,1521544842.0,490484290.0,,,,,,2442913.5,1521544843.0,395179396.0,,-0.07600004673049998,-0.335999978335,-2.19600028992,-0.058000000193699996,-0.1424999982115,-0.09800000116225,62.5,65.5,67.0,83.5,96.5,-10.0,-8.0,-4.0,4.0,19.0,-1.0,0.2850000262255,0.7699999958250001,0.3649997711149999,-0.004000000655649996,-0.024499997496500003,-0.035000000148950015,2.2228561055257003,0.18241230698762545,5.787886994626603,2.4399848112778026,0.01685363721477812,0.024109066602057423
37,37,61.296383794899995,6127.5,1521544843.0,498865007.5,,2938802.5,1521544842.0,572287592.5,,0.6697659780495,-0.1278060096375,0.09257209443945,-0.401552642028,0.913093770203,-0.001240118771975,0.07080602672594999,-0.0031781183903040002,-0.002887341885635,-0.006723812769075001,-0.01201179360165,0.011688596660525002,0.008507514544299998,4.995458602905,0.8359887599945,3.014016628265,0.5966810286044999,2.199959158895,0.848613649607,2050797.0,1521544842.0,577175386.5,,,,,,2442923.5,1521544843.0,494874015.5,,-0.4160000801084,-1.98099995926,-2.64099998474,-0.053999999538050014,-0.12750000134099998,-0.097500000149,68.0,79.5,81.5,85.0,171.0,-9.5,-8.0,-5.0,-2.5,18.0,-1.0,-0.3400000333779,-1.644999980925,-0.4449996948199999,0.004000000655649996,0.014999996870500019,0.0005000010132499981,3.327506247121859,0.16934727727695947,5.893876491379221,2.4322815784776712,0.007977896829422326,0.01879585808476304
38,38,61.3989478974,6140.5,1521544843.0,628870010.0,,2938816.0,1521544842.0,707277737.0,,0.6690692975479999,-0.12874140299050002,0.09124940036965,-0.4007544229965,0.9135191285715,-0.0010157135591945,0.06983966232514999,-0.003365471600985,0.0009799865352550004,-0.008501185891247,0.0008288291906000007,0.0028541090616999998,0.011471906953,4.71313261986,0.6170234382155,3.85832452774,0.736508846283,2.272683739665,0.9221612513065,2050806.0,1521544842.0,708662715.0,,,,,,2442936.5,1521544843.0,625710685.5,,-0.23100001811979998,-0.8209999851884999,-2.09100074768,-0.061499997973450016,-0.15600000321899998,-0.08599999919535001,70.0,78.5,81.0,89.0,106.0,-18.5,-16.5,-11.0,-1.5,0.0,-1.0,0.1850000619886,1.1599999740715,0.5499992370600002,-0.007499998435400008,-0.028500001878000007,0.011500000953650004,2.2582484608317976,0.1884522502297666,6.122173239712819,2.5608432272597197,0.009195484449655423,0.011850634814285624
39,39,61.501512,6150.5,1521544843.0,728881478.0,,2938825.0,1521544842.0,797266923.0,,0.669119013481,-0.129591196937,0.09110274218469999,-0.400649257382,0.913590210022,-0.00148120877875,0.06950472452439999,0.00472773392509,-0.020832518054,-0.00248144937233,-0.004449061488439999,0.00406110143387,-0.0208858792075,5.3262958526599995,1.01652860641,3.1474254131299997,0.658133327961,2.37261366844,0.900441288948,2050812.5,1521544842.0,804182043.5,,,,,,2442946.0,1521544843.0,719866949.0,,-0.5610000610350001,-1.095999983699,-2.151000213625,-0.04849999956789999,-0.1269999966025,-0.07099999859930001,61.0,76.0,82.5,87.5,96.0,-21.0,-18.0,-12.0,-6.0,2.5,-1.0,-0.3300000429152001,-0.27499999851050005,-0.059999465945000274,0.01299999840555003,0.02900000661649998,0.015000000596049999,2.478454952538835,0.15336964789756125,6.269692548197999,2.621684498921194,0.021505879836084825,0.021737217928115404
