,Unnamed: 0,Unnamed: 0.1,.header.seq,.header.stamp.secs,.header.stamp.nsecs,.header.frame_id,.endpoint_state.header.seq,.endpoint_state.header.stamp.secs,.endpoint_state.header.stamp.nsecs,.endpoint_state.header.frame_id,.endpoint_state.pose.position.x,.endpoint_state.pose.position.y,.endpoint_state.pose.position.z,.endpoint_state.pose.orientation.x,.endpoint_state.pose.orientation.y,.endpoint_state.pose.orientation.z,.endpoint_state.pose.orientation.w,.endpoint_state.twist.linear.x,.endpoint_state.twist.linear.y,.endpoint_state.twist.linear.z,.endpoint_state.twist.angular.x,.endpoint_state.twist.angular.y,.endpoint_state.twist.angular.z,.endpoint_state.wrench.force.x,.endpoint_state.wrench.force.y,.endpoint_state.wrench.force.z,.endpoint_state.wrench.torque.x,.endpoint_state.wrench.torque.y,.endpoint_state.wrench.torque.z,.joint_state.header.seq,.joint_state.header.stamp.secs,.joint_state.header.stamp.nsecs,.joint_state.header.frame_id,.joint_state.name,.joint_state.position,.joint_state.velocity,.joint_state.effort,.wrench_stamped.header.seq,.wrench_stamped.header.stamp.secs,.wrench_stamped.header.stamp.nsecs,.wrench_stamped.header.frame_id,.wrench_stamped.wrench.force.x,.wrench_stamped.wrench.force.y,.wrench_stamped.wrench.force.z,.wrench_stamped.wrench.torque.x,.wrench_stamped.wrench.torque.y,.wrench_stamped.wrench.torque.z,.tactile_values.tactile_values_0,.tactile_values.tactile_values_1,.tactile_values.tactile_values_2,.tactile_values.tactile_values_3,.tactile_values.tactile_values_4,.tactile_values.tactile_values_5,.tactile_values.tactile_values_6,.tactile_values.tactile_values_7,.tactile_values.tactile_values_8,.tactile_values.tactile_values_9,.tag,.delta_wrench.force.x,.delta_wrench.force.y,.delta_wrench.force.z,.delta_wrench.torque.x,.delta_wrench.torque.y,.delta_wrench.torque.z,.wrench_stamped.wrench.force.magnitude,.wrench_stamped.wrench.torque.magnitude,.endpoint_state.wrench.force.magnitude,.endpoint_state.wrench.torque.magnitude,.endpoint_state.twist.linear.magnitude,.endpoint_state.twist.angular.magnitude
0,0,49.44196,4941.5,1521546588.0,760082005.5,,3113324.0,1521546587.0,787622422.0,,0.669578583616,-0.2149360642105,0.01968173730615,-0.348485827771,0.9362593807055,-0.0011878797145649998,0.04443602317465,-0.0029511802868000003,-0.0015262168310925,-0.0039645204567600005,-0.0041394805863850005,0.0064983201734800005,-0.0009691909047000008,-1.28199863434,1.359879136085,10.33128499985,0.594828337431,0.2554817348715,0.6043694019315,2172580.0,1521546587.0,787350762.0,,,,,,2617266.5,1521546588.0,752138016.5,,-0.526000058651,-0.15199995636915,1.6610000610349998,0.0819999985397,-0.167499996722,-0.13349999487400002,96.0,206.0,306.0,339.0,798.0,21.0,184.0,191.0,248.0,294.0,5.0,0.0,0.0,0.0,0.0,0.0,0.0,1.748914306418514,0.22935234311804806,10.498963830366048,0.8856376470402092,0.005172642008952049,0.00776548746775556
1,1,49.5445241026,4954.5,1521546588.0,890084027.5,,3113337.0,1521546587.0,917627412.0,,0.6701077740720001,-0.214492451538,0.020333386348599998,-0.347414172503,0.936622407197,-0.000598180779357,0.0451829753469,0.0060532555264499995,0.00260119394723,0.0036641030690700003,0.015198638498100001,-0.015877020988200003,-0.00137254477209,-1.4321383237799998,1.2784460783,10.5023698807,0.70997184515,0.26200139522599997,0.624277114868,3113690.0,1521546587.0,915691108.0,,,,,,2617279.5,1521546588.0,882075848.5,,-0.4360000252725,-0.126999980211,1.81600074768,0.153499998152,-0.1290000043805,-0.1185000017285,100.0,215.0,299.5,330.0,787.5,44.0,172.5,180.0,224.0,288.5,5.0,0.09000003337849999,0.02499997615815,0.15500068664500022,0.07149999961230001,0.038499992341500006,0.014999993145500018,1.8719197986520506,0.23290663574163686,10.676385983308892,0.9810334694361759,0.007538817130052409,0.022021859294961053
2,2,49.64708820510001,4961.5,1521546588.0,960075497.0,,3113344.0,1521546587.0,987623224.0,,0.6687983146835,-0.2147600139255,0.0193265120992,-0.3474398813335,0.936675543606,-0.0002961651673806,0.043866940658,0.0033661975793050003,-0.0046939557421399975,0.0034296806859849998,-0.005619546762289998,-0.004986131261925,-0.015773180046709998,-0.956784904001,1.493048608305,10.255027770999998,0.580620497465,0.3444002270695,0.6024157106875,2172594.0,1521546587.5,488340502.0,,,,,,2617286.5,1521546588.0,953164916.0,,-0.5760000109669999,0.33299999833115,0.7009990692135,0.147500000894,-0.13750000297999998,-0.14200000464899998,159.0,215.0,315.0,332.0,781.0,40.0,173.5,179.0,243.0,289.0,5.0,-0.13999998569449995,0.45999997854215,-1.1150016784665,-0.005999997257999989,-0.008499998599499986,-0.02350000292049997,0.966470230561047,0.2466302949832928,10.407219901744504,0.9047852601391961,0.006717679380552963,0.017470947872414943
3,3,49.7496523077,4972.5,1521546589.0,70082068.0,,3113356.5,1521546588.0,112626120.5,,0.6689206475239999,-0.2145247548405,0.019610854941549998,-0.34764294828750003,0.9365947688885,-0.0003755441566175,0.04398108199115,-0.0028727890675150003,-0.00616309212158,-0.0010560445146115,-0.004396504567730001,0.0029925292782150004,-0.012973714002755,-0.9058761894705,1.29828286171,10.33286476135,0.681218534708,0.37480784952650004,0.6286149919035,2172603.5,1521546588.0,109337098.0,,,,,,2617297.5,1521546589.0,62838354.5,,-1.351000016925,1.43299999237,1.06600074768,0.127499997616,-0.1319999992845,-0.14599999785399995,100.0,207.0,307.0,321.0,779.0,15.0,150.0,188.5,252.0,293.0,5.0,-0.7750000059580001,1.09999999403885,0.36500167846649995,-0.020000003278,0.005500003695499993,-0.003999993204999969,2.2394301993851222,0.23451278979312834,10.453432174937001,0.9998482005495791,0.006881268163816623,0.014021474206385215
4,4,49.852216410299995,4986.5,1521546589.0,210081934.5,,3113370.5,1521546588.0,252627309.0,,0.6691111891195,-0.214431493664,0.019729149140950003,-0.347510694728,0.936634368649,-0.000350839983341,0.04418021421945,-0.0018126179401999995,-0.0013350563678049994,-0.001525664086855,-0.0060146631503925,0.0087751323830885,0.02298914698115,-1.07689625025,1.24131166935,10.2142252922,0.6862813830375001,0.29827107489149995,0.6235705316069999,1231503.0,1521546588.0,254000128.0,,,,,,2617311.5,1521546589.0,202982949.0,,-1.941000000015,-0.316999977827,1.636000442505,0.107499998063,-0.1314999982715,-0.105000000447,94.5,216.0,308.5,323.5,745.5,53.0,161.0,173.5,246.0,289.0,5.0,-0.5899999830899999,-1.7499999701970002,0.5699996948249999,-0.019999999553000008,0.0005000010129999899,0.04099999740699994,2.558215673839308,0.1996834976226616,10.345576760823205,0.9740574822408743,0.0027194871222843966,0.025331403436729204
5,5,49.9547805128,4992.5,1521546589.0,270083427.0,,3113376.5,1521546588.0,312628039.0,,0.6689736355460001,-0.214562685466,0.019390817549700002,-0.3473123086295,0.936718975466,-0.00015781156614433497,0.04394991694495,0.004366031976715,-0.0075192244068500004,-0.0014381046046549998,0.0041433584305105,0.001011835659505,-0.0196005004565,-1.1827433109249998,1.3333731889700002,10.2685275078,0.681557148695,0.24146127700800002,0.62741959095,2172617.5,1521546588.0,310338852.5,,,,,,2617317.5,1521546589.0,261892039.5,,0.2889999985695,-0.8770000398180001,0.8859985351559999,0.119999997318,-0.149500004947,-0.09599999710915,99.0,216.0,300.0,326.5,735.0,48.0,155.0,163.0,273.0,294.0,5.0,2.2299999985845,-0.5600000619910002,-0.750001907349,0.012499999255000005,-0.018000006675500002,0.009000003337850004,1.2797044476411428,0.214397412018965,10.422064237906381,0.957329117043589,0.008813008326116374,0.020059183648164378
6,6,50.0573446154,5004.5,1521546589.0,390080451.5,,3113388.5,1521546588.0,432631193.5,,0.669267493843,-0.21460063913,0.019715247732099997,-0.34803296171250003,0.9364378183865,-0.00034308963110700003,0.04423923515770002,0.004839805068472001,0.0035533270305550006,0.005988330032495,0.00405266689813,-0.016421157980549998,0.011761930992974998,-0.8444699645039999,1.54708790779,10.14231681825,0.4992211312055001,0.33765409886849995,0.5832403004169999,3113741.5,1521546588.0,430674514.5,,,,,,2617329.5,1521546589.0,381663196.0,,-0.5509999752045001,0.4280000269415,2.2160003662100003,0.07750000059605,-0.1424999982115,-0.09400000050665,94.5,213.0,284.0,335.5,750.0,16.5,167.0,190.0,213.5,288.0,5.0,-0.8399999737739999,1.3050000667595,1.3300018310540005,-0.04249999672195,0.007000006735499997,0.001999996602500012,2.3232396817332774,0.18747933133525801,10.294328582143482,0.8386902147726001,0.00847997303444779,0.020601494098557157
7,7,50.1599087179,5016.5,1521546589.0,510120034.0,,3113400.5,1521546588.0,552624275.5,,0.6687357861825001,-0.214130812817,0.0194031498165,-0.347956535582,0.9364836921105,-8.508472291435001e-06,0.04386884927285,0.0025787546284499994,0.005422991920620001,-0.0006595397564499988,0.01363808810274,-0.0016297070744499993,0.0043043461222100005,-1.026635468008,1.52114665508,10.24367666245,0.5421715676784999,0.2759999409315,0.6018158197405,2172633.5,1521546588.0,547337758.5,,,,,,2617341.5,1521546589.0,503526909.0,,0.2889999985695,0.17799996733659998,2.2960002899200003,0.04849999956789999,-0.143999993801,-0.107499998063,95.5,209.0,299.0,327.5,761.0,25.0,148.5,176.0,217.5,308.0,5.0,0.8399999737739999,-0.2500000596049,0.07999992370999998,-0.02900000102815001,-0.0014999955895000085,-0.013499997556350007,2.3209528902710903,0.18613032465538584,10.406766024815578,0.8557501136915401,0.0060410106352497195,0.014393776008622442
8,8,50.2624728205,5025.5,1521546589.0,600154518.5,,3113408.0,1521546588.0,627631183.0,,0.668964407052,-0.21444293984,0.0195480807361,-0.347537216428,0.936631681284,-0.000161312539347,0.0440335189513,0.00199057906357,0.0154256951779,0.00900017752143,0.00350997582856,-0.00914965301698,0.0300376548115,-0.834721565247,1.3302861452099999,10.0421800613,0.578032493591,0.31387975811999996,0.5983499884610001,3113761.0,1521546588.0,625673836.0,,,,,,2617350.5,1521546589.0,592960255.5,,-0.09099993705740002,-1.377000039815,2.0610015869150002,0.06549999862910001,-0.1385000050065,-0.1215000003575,90.0,201.0,308.5,332.5,801.0,16.0,159.0,189.5,215.5,298.0,5.0,-0.37999993562690004,-1.5550000071516001,-0.2349987030050005,0.016999999061200026,0.005499988794500005,-0.014000002294500005,2.480350305795758,0.1955370841914268,10.164241324525769,0.8891933281889705,0.017969910187506904,0.03159583496638498
9,9,50.36503692310001,5033.5,1521546589.0,680165529.0,,3113416.0,1521546588.0,707620171.0,,0.669099282379,-0.214377898475,0.0196667760823,-0.347879691293,0.936500836392,-0.0005070609028269999,0.044109485514699995,-0.0239542757977,0.005294195965840001,-0.014414662300200004,-0.00870991194608,0.045593557219400005,0.0145909339173,-0.802958130836,1.8624851703599998,9.97155284882,0.33527058363,0.317442804575,0.565310895443,1231520.0,1521546588.0,710000128.0,,,,,,2617358.5,1521546589.0,672225119.5,,-0.1360000133515,0.122999960183865,1.14099960327,0.08999999985095,-0.152000002563,-0.0980000011623,101.0,210.5,289.0,332.5,783.0,25.5,149.5,216.5,231.0,262.0,5.0,-0.04500007629409998,1.4999999999988651,-0.9200019836449996,0.02450000122184999,-0.0134999975565,0.023499999195200003,1.1556405533292513,0.20200990317341821,10.175728916716327,0.7298991073638937,0.028453792878029457,0.048657274673024845
10,10,50.467601025600004,5045.5,1521546589.0,800167441.0,,3113427.5,1521546588.0,822634532.0,,0.6687691393285,-0.2139338826235,0.019583456340900002,-0.3486434261175,0.936227356163,-0.00043558257371784987,0.04387775102025,0.009672779181325,-0.011529466104919998,0.010753619945435,-0.014743049639900004,-0.02894563626755,-0.0219777188875,-1.016312092544,4.513226270675,10.7984890938,-0.8785393834119999,0.16439962387105,0.34707707166699997,3113781.0,1521546588.0,825678835.0,,,,,,2617370.5,1521546589.0,792057559.0,,0.8589999318125,2.25799998045,3.94100074768,0.05199999921025,-0.1504999995235,-0.106499999762,98.0,202.0,276.0,327.5,724.0,-33.5,161.0,164.0,243.0,273.0,5.0,0.9949999451639999,2.1350000202661352,2.80000114441,-0.038000000640700006,0.0015000030395000141,-0.008499998599699994,4.622546017919173,0.19156330474218047,11.747743117240846,0.9588123790459839,0.018496799390327803,0.039220243486187537
11,11,50.570165128199996,5056.5,1521546589.0,910079598.0,,3113438.5,1521546588.0,932629745.5,,0.6656970647730001,-0.212150219403,0.021054079375,-0.3515068862645,0.935183106353,0.0022180523719000002,0.043245500827749986,-0.0542241785179,0.0155747880943,0.0185810385404,0.0619808406526,0.07075111457654999,0.08815412664305,-2.8082219362250003,0.3129833340645,17.90351486205,1.8055638670900005,0.5576834082605,1.0676017999650005,3113791.0,1521546588.0,925678355.0,,,,,,2617381.5,1521546589.0,903719132.0,,1.149000012873,1.4379999727000001,9.26600151062,0.042499998584400005,-0.38750000298,-0.1135000027715,77.0,153.0,207.0,344.0,685.0,-7.0,145.0,174.5,218.5,263.5,5.0,0.2900000810605,-0.8200000077499998,5.325000762939999,-0.009500000625849991,-0.2370000034565,-0.0070000030095000035,9.447053982373525,0.40601077918979506,18.12511830102476,2.1704481715255386,0.059397731887364746,0.12891274128660052
12,12,50.6727292308,5064.5,1521546589.0,990228533.5,,3113447.0,1521546589.0,17626161.0,,0.6561186589729999,-0.211083936797,0.023820598613,-0.352001396249,0.935213135682,0.00822755667014,0.037466187404400005,-0.141173585864,0.0358477087225,0.0550962241326,0.10015056711100001,0.22709985954300002,0.0262245603615,0.15097764134400002,-2.09671115875,18.439060211199997,2.4543552398700004,1.39888930321,1.27666890621,3113800.0,1521546589.0,15678727.5,,,,,,2617389.5,1521546589.0,982947197.5,,-1.3709999829550001,1.832999987155,8.610998916625,-0.0609999988228,-0.31450000405300005,-0.11749999970200001,94.0,104.0,145.5,324.0,563.0,-159.5,-137.0,-56.0,-23.5,263.5,5.0,-2.519999995828,0.3950000144550001,-0.6550025939949986,-0.1034999974072,0.07299999892699993,-0.003999996930500002,8.910041091279533,0.34122939840478084,18.558500300500345,3.1001023244719077,0.15572614899246393,0.24958407373720626
13,13,50.7752933333,5077.5,1521546590.0,120110511.0,,3113461.5,1521546589.0,162628095.5,,0.6403447241100001,-0.216064181186,0.04031460982575,-0.3554994147235,0.9342529379305,0.008024157940244999,0.026955239767299997,-0.014488511681235,-0.05753412384925,0.17124480969,-0.0582889324977,-0.09719946114745,-0.00697471756142,2.98924827576,-1.046714067459,9.4554066658,1.98285216093,1.1191745400450002,1.043075859545,2172677.0,1521546589.0,165839214.5,,,,,,2617402.5,1521546590.0,112884665.5,,-1.421000009775,0.997999989988,0.275999832153,-0.0879999995232,-0.134999997914,-0.109500002116,57.0,59.5,76.0,92.0,123.0,-32.0,-26.5,-4.0,32.0,92.0,5.0,-0.050000026820000036,-0.834999997167,-8.334999084471999,-0.0270000007004,0.17950000613900005,0.007999997585999993,1.7582437018641877,0.1948313368436074,9.971756656116604,2.504448360808274,0.18123155691987652,0.11355166922655803
14,14,50.87785743590001,5088.5,1521546590.0,230113029.0,,3113472.5,1521546589.0,272624177.0,,0.6505195058769999,-0.2217805391065,0.06110252670515,-0.3567214711805,0.933193257294,-0.0013489534756199995,0.04356188153440002,0.114009255473,-0.03850155592190002,0.1981604231815,-0.02410827112095,-0.3702257456825,-0.05347891538825,0.5871401131145,-1.54314684868,5.877883434294999,2.26174199581,0.9108440279945,1.15543484688,3113825.5,1521546589.0,270697659.0,,,,,,2617413.5,1521546590.0,222640412.0,,-1.21100000143,1.997999989985,-0.7989990234375,-0.0625,-0.12949999794349998,-0.1285000033675,33.0,37.0,45.5,59.5,86.0,-144.0,-143.5,-139.0,-136.5,-116.0,5.0,0.210000008345,0.9999999999969998,-1.0749988555905,0.02549999952320001,0.005499999970500019,-0.019000001251500004,2.469195092109491,0.19284384961106227,6.1053705355349805,2.698174083399449,0.23183622119372577,0.37484437556632483
15,15,50.9804215385,5096.5,1521546590.0,310096502.0,,3113480.5,1521546589.0,352628535.5,,0.6576774691639999,-0.2247140024295,0.07446871662724999,-0.354751391875,0.9333433570965,-0.005811668257235,0.054650733519699984,0.07952024696555,-0.06303645190729999,0.1653145709195,0.0014921132825660005,-0.2529702171735,-0.127717753301,1.85330379009,-1.16324877739,2.1827191114400004,1.7231594920150002,1.171959668399,1.0962800383550002,3113832.5,1521546589.0,340690589.0,,,,,,2617421.5,1521546590.0,303905909.0,,-0.3509999871255,2.83799999356,-1.15899963379,-0.011499999905945,-0.1875,-0.167000003159,24.5,27.0,42.5,44.0,52.0,-167.0,-162.5,-160.5,-156.5,-139.0,5.0,0.8600000143044999,0.8400000035750002,-0.36000061035250003,0.051000000094055004,-0.05800000205650002,-0.038499999791499984,3.0855672258976976,0.25135134981324997,3.0906545222503783,2.3546970127324083,0.1939741511254059,0.28338662933721986
16,16,51.082985641,5108.5,1521546590.0,430093884.0,,3113492.5,1521546589.0,472629932.5,,0.6602634059804999,-0.2270427727275,0.08346616350024999,-0.3498958205930001,0.9348191619924999,-0.00787926620955,0.0601970232274,-0.011469957871695,-0.0142477371929395,0.021135372679025,-0.0570704341762,-0.0359038539024,0.06198192205655,0.05462906882165,1.7647441625599998,6.589672088624999,0.292362228036,0.217548035085,0.6829614639285,2172698.5,1521546589.0,472337042.0,,,,,,2617433.5,1521546590.0,423776493.0,,0.5489999890325,3.998000019790001,-0.18900032043435,-0.3414999991655001,-0.1145000010725,-0.08049999922515,33.0,36.0,36.0,45.0,72.0,-151.5,-149.0,-148.0,-134.5,-97.0,5.0,0.899999976158,1.1600000262300003,0.96999931335565,-0.32999999925955503,0.07299999892749999,0.08650000393384999,4.03994136929273,0.3690701146813275,6.8221026472820885,0.7741054070104912,0.027951063074216083,0.09158536915866584
17,17,51.1855497436,5118.5,1521546590.0,530080914.0,,3113501.5,1521546589.0,562620653.0,,0.6587223513580001,-0.224624117627,0.082918080871,-0.352569136558,0.9338786641305,-0.0068601846038349994,0.059317155725599986,-0.0264978949511,0.03097156523805,-0.0162698084701,0.016442228174299998,0.051098366734949996,0.06604875054585,0.17243123054549991,0.6655348539369998,7.743070840835,0.352806508541,0.3975558653475,0.6232761740685,2172704.0,1521546589.0,562381002.5,,,,,,2617443.5,1521546590.0,523420355.5,,1.333999955655,0.198000007868,-0.30399818420400004,-0.1269999966025,-0.10049999877810001,-0.09999999776465,41.5,49.0,53.0,60.0,61.5,-135.0,-130.5,-126.5,-119.0,-101.0,5.0,0.7849999666224999,-3.800000011922001,-0.11499786376965004,0.2145000025630001,0.014000002294400002,-0.01949999853949999,1.382452451552168,0.19033982359023852,7.7735329945438325,0.819143630691564,0.04388716165108032,0.08511067735004292
18,18,51.2881138462,5125.5,1521546590.0,600087999.5,,3113508.0,1521546589.0,627626240.0,,0.656886142794,-0.2252265229615,0.08262985222965,-0.3530881513895,0.9338147943495,-0.006666465627015001,0.057203320807,-0.0443983857482,-0.0009465156189499992,-0.0040385854110695,-0.03799375673955001,0.09444207516065,0.08427246995439999,-3.3745879530900003,-4.17251753807,10.988802909875002,3.10276210308,-0.5554939582947501,1.311141610145,3113861.0,1521546589.0,625691154.5,,,,,,2617450.5,1521546590.0,594468638.5,,-0.13100001811949996,2.03799998164,-0.774001312255,-0.04799999948595,-0.149500004947,-0.122999995947,38.0,48.0,56.0,68.0,75.0,-124.0,-123.5,-119.5,-112.0,-102.5,5.0,-1.4649999737745,1.839999973772,-0.47000312805100003,0.07899999711655001,-0.0490000061689,-0.022999998182350004,2.1839603845501436,0.199457390017934,12.229126536704051,3.41391249563679,0.04459173377415806,0.13215400222486345
19,19,51.3906779487,5138.5,1521546590.0,730091452.0,,3113520.0,1521546589.0,747637050.5,,0.6540023876305,-0.227185392895,0.08368373206410001,-0.355690518832,0.933000190525,-0.00583023050089,0.054409150825349986,-0.020593329383025,-0.04672235688685,0.01571126215772,-0.02822146728765,0.05411277611960001,-0.01951922069473,1.7780706286400003,-0.7958281338194999,5.175637960434999,1.0517524480835,0.9688742756835,0.8359125852584999,2172718.0,1521546589.0,763339705.0,,,,,,2617463.5,1521546590.0,724532667.0,,-0.900999999047,1.883000010253,-1.63399810791,-0.07350000226862001,-0.08449999801795,-0.1485000029205,56.5,59.5,60.0,63.5,81.0,-152.5,-149.0,-145.5,-138.5,-136.5,5.0,-0.7699999809275,-0.15499997138700006,-0.8599967956550001,-0.025500002782670013,0.06500000692905,-0.02550000697350001,2.6509318839889024,0.1859966420823484,5.530109029350744,1.6563968197036636,0.05342197681412159,0.06407529735996102
20,20,51.4932420513,5149.5,1521546590.0,840559005.0,,3113532.0,1521546589.0,867622682.0,,0.652371523488,-0.232323805631,0.0842302177088,-0.35631748330799995,0.932945611466,-0.00746568209515,0.05093722338000002,-0.031376435252200005,-0.0361223565342,-0.020260409900099998,0.0157663964589,0.0719750824665,-0.09937625909839999,2.95024180412,-0.412620097399,5.8819527626,1.4321808815000001,1.70847892761,1.04912519455,2172725.5,1521546589.0,868839387.5,,,,,,2617474.5,1521546590.0,834411222.5,,-0.6810000300419999,2.3480000101050003,-1.40899963379,-0.2044999971985,-0.195999994874,-0.1105000004175,51.5,52.0,55.0,61.0,78.5,-155.5,-151.0,-147.5,-144.0,-133.0,5.0,0.21999996900500007,0.4649999998520002,0.22499847412,-0.13099999492988,-0.11149999685605001,0.038000002503,2.821727317865892,0.30405015529853296,6.593295863906955,2.463880272509423,0.05195949903568577,0.12371189363093194
21,21,51.5958061538,5158.5,1521546590.0,930096507.0,,3113540.0,1521546589.0,947628866.5,,0.6508791543045,-0.2324442999495,0.0846362893479,-0.35278346613100003,0.9343300435340001,-0.004647218404115,0.0504915348992,-0.02258084211435,-0.00016085547275000026,0.006995374951784999,0.0363543074491,0.03931268937695,-0.05398766151335,1.4060928821599998,-0.416348874569,7.55295825005,1.135618805885,0.925010502337,0.8758941292764999,3113894.0,1521546589.0,955676247.0,,,,,,2617483.5,1521546590.0,925516608.5,,-0.06100002527249997,0.2879999816416,-1.0090000152585,-0.0699999984354,-0.10799999907615,-0.1215000003575,35.5,39.0,48.0,50.5,57.5,-182.0,-165.5,-162.0,-157.5,-149.0,5.0,0.6200000047695,-2.0600000284634,0.3999996185315001,0.1344999987631,0.08799999579785,-0.010999999939999993,1.0510689907425015,0.17699223053082558,7.693999084066377,1.7065945703108458,0.02364012639120986,0.07603808790226316
22,22,51.698370256400004,5170.5,1521546591.0,50122499.0,,3113554.5,1521546590.0,92624729.0,,0.6523313766609999,-0.2339744069415,0.0874931076722,-0.350956996419,0.9349069585725001,-0.005936114179229999,0.052370387741950006,0.01508447377543,0.013019713920545,0.014811438697599997,0.0017074634960364998,-0.05471129166775,0.02063489216075,2.215189754965,0.9880230426794998,5.672603368759999,0.801079362631,1.113686561586,0.91018936038,3113907.5,1521546590.0,90677186.5,,,,,,2617495.5,1521546591.0,43844111.5,,-0.29100004434575,1.05299999714,-0.17899818420405,-0.1085000000895,-0.08850000053644999,-0.122000001371,39.0,43.5,45.5,50.0,54.0,-176.0,-171.5,-164.0,-160.5,-157.5,5.0,-0.23000001907325,0.7650000154984,0.8300018310544499,-0.0385000016541,0.0194999985397,-0.0005000010135000067,1.1070367517541662,0.18571079787911404,6.169415220475506,1.6463506839186755,0.02482806911435586,0.058498202041000286
23,23,51.800934358999996,5179.5,1521546591.0,140103936.0,,3113562.5,1521546590.0,172632150.5,,0.652981270432,-0.232839873899,0.08792418565815,-0.35208891041,0.9344329376414999,-0.006177595052194999,0.05319995302055,0.00916184053272,0.015452489617745,0.004843810480825,0.0026431193641495,-0.029658876617500007,0.05039779535705,1.7072134613949999,0.2087668180465,5.28429222107,1.0663321018205,1.0641270875904998,0.9260861873630001,1231579.0,1521546590.0,175000064.0,,,,,,2617504.5,1521546591.0,134025901.0,,-1.6709999948749998,1.3130000025,-1.403998565675,-0.08049999922515,-0.0914999991655,-0.1215000003575,29.5,34.5,38.0,42.5,73.0,-207.0,-195.0,-185.0,-185.0,-174.0,5.0,-1.3799999505292495,0.26000000536,-1.22500038147095,0.028000000864350002,-0.0029999986290499964,0.0005000010135000067,2.547041806067326,0.17208936576502382,5.557149059072149,1.7683512762857108,0.01860594682642241,0.058536935511148185
24,24,51.90349846149999,5191.5,1521546591.0,260103464.0,,3113575.5,1521546590.0,302621688.5,,0.6526710594295,-0.23134009378800002,0.0879303009884,-0.35348524517650004,0.933912252218,-0.006017264715869999,0.05310223000215,-0.0032350943976200003,0.01026053628606,-0.0003857923993749999,0.006660102423075,0.0038280841165000004,0.011902973254845,2.25031483173,-0.450001478195,5.9625878334049975,1.275439083575,1.2951277494450002,0.9429821670055001,3113928.5,1521546590.0,300681544.5,,,,,,2617516.5,1521546591.0,254601927.5,,-0.021000003815,1.012999975681,-0.5740005493165,-0.04549999907615,-0.1639999970795,-0.11549999937449999,22.0,24.0,28.5,31.0,46.5,-232.5,-198.0,-195.0,-194.0,-182.0,5.0,1.6499999910599998,-0.30000002681899995,0.8299980163585,0.035000000149,-0.07249999791400001,0.006000000982999992,1.1645113058728027,0.2056854365615494,6.3889648491247,2.047758801857166,0.01076537395609097,0.014166579142277237
25,25,52.0060625641,5199.5,1521546591.0,340095519.5,,3113583.5,1521546590.0,382620406.5,,0.6518814529770001,-0.231165481405,0.08749785595925,-0.3540158232455,0.9337516234085,-0.005803043988175001,0.0524114165489,-0.00603766298291,0.00603251234287,0.0006458459980160001,0.00022119026807999878,0.005678330338140001,0.013015693749345,2.606716513635,-0.33356808126000004,6.01007795334,1.247999966145,1.3443921208399998,0.9233607947825,1231586.5,1521546590.0,377499904.0,,,,,,2617524.5,1521546591.0,334016187.5,,0.6940000891664999,0.9679999887955,-0.598998260498,-0.04650000110265,-0.16449999809250002,-0.125,24.0,24.5,26.0,32.5,38.5,-228.0,-207.0,-205.5,-193.5,-187.0,5.0,0.7150000929814999,-0.0449999868855,-0.02499771118149996,-0.0010000020264999963,-0.0005000010130000175,-0.009500000625499994,1.333213793114528,0.21177228212157265,6.559517943608083,2.053652659876047,0.008559304674752142,0.014202135203569671
26,26,52.1086266667,5209.5,1521546591.0,440093040.0,,3113593.5,1521546590.0,482621252.5,,0.653039410585,-0.2321196984405,0.08785491152595001,-0.35307678928400005,0.9340518035825,-0.00636438054294,0.05332358904475,0.00343570902912,-0.003423525603445,-0.0024443394633449998,-0.01703626844765,-0.007644640340899999,0.020671285621055004,1.90001434088,0.30091202259100003,5.419164419174999,0.8996676504610001,1.109916567805,0.8497856259350001,2172768.5,1521546590.0,477336629.5,,,,,,2617534.5,1521546591.0,433895606.5,,0.6889999747275,0.9729999840254999,-1.4290000915549999,-0.04900000058115,-0.16400000453,-0.1215000003575,27.0,31.5,34.5,35.0,68.0,-226.0,-211.0,-206.5,-196.5,-191.0,5.0,-0.0050001144389999475,0.004999995230000054,-0.8300018310570001,-0.0024999994784999998,0.0004999935625000228,0.0034999996425000013,1.8610457264001647,0.20990295764868397,5.750473505976857,1.662363461707393,0.005431336806191075,0.027856364044672913
27,27,52.2111907692,5222.5,1521546591.0,570092916.0,,3113604.0,1521546590.0,586859050.5,,0.6532410979345,-0.231656133408,0.0881238966041,-0.353986871919,0.93370220961,-0.006744511297244999,0.05336125732445,0.0014232169005450005,0.02251435607555,0.001658349323165,0.006975803262405,-0.0034780784766715,0.039760018701949985,2.4317128658300002,0.462029337883,5.27819800377,0.7861719727519999,1.24520456791,0.8009732663635001,2172776.5,1521546590.0,587457834.0,,,,,,2617547.5,1521546591.0,564921186.0,,-1.15600002408,-0.027000015973850003,-1.253998947145,-0.06000000052155,-0.1124999970195,-0.104499999434,22.0,23.0,35.5,52.0,65.0,-234.0,-215.0,-203.0,-197.0,-192.5,5.0,-1.8449999988075,-0.99999999999935,0.17500114441000014,-0.010999999940400004,0.05150000751049999,0.0170000009235,1.7057486379816684,0.16485296258690502,5.829757519649456,1.676352874580324,0.02262016574475735,0.040516884730011984
28,28,52.3137548718,5232.5,1521546591.0,670125007.0,,3113614.0,1521546590.0,686857761.0,,0.65315716346,-0.231008538491,0.08809476569610003,-0.353996568151,0.933700122255,-0.006494383964979999,0.053369789341699995,0.0036309964398400004,-0.00420387618295,-0.00219231125644,0.0038797919246599997,-0.0022637645775000002,-0.015068676108799996,2.3926486969,-0.0740272402763,5.67330932617,1.10956156254,1.2716126442,0.916457295418,2172783.0,1521546590.0,682971799.5,,,,,,2617557.5,1521546591.0,665399119.5,,-0.5509999752045001,0.922999972104,-1.26900024414,-0.049499999731750004,-0.1585000008345,-0.11749999970200001,24.0,28.0,30.0,34.0,152.0,-230.0,-211.5,-207.0,-206.0,-197.0,5.0,0.6050000488754999,0.94999998807785,-0.015001296994999969,0.010500000789800006,-0.046000003815,-0.013000000267999995,1.6630969727609763,0.20341767417790851,6.157652680160492,1.9204217120935698,0.00597184550644259,0.015723944006289278
29,29,52.4163189744,5239.5,1521546591.0,740090489.0,,3113621.0,1521546590.0,756863072.0,,0.6533557440364999,-0.2309530233475,0.08829564262855001,-0.3542043144915,0.9336071659525,-0.006766171053025,0.05358262392045,0.006635677650555001,-0.0005584546889949998,0.00420595074183,-0.005029453332899999,-0.010640358648754998,0.017481297403400004,2.1795784234999998,0.2435694634915,5.379905223845,0.8841654062270001,1.19924002886,0.8328385949135,3113974.0,1521546590.0,754951081.0,,,,,,2617564.5,1521546591.0,734501386.5,,-0.6609999895099999,1.242999979855,-0.939000320436,-0.07200000062585,-0.13050000369550002,-0.125499997288,21.5,27.0,56.0,61.0,131.0,-236.5,-217.0,-212.0,-211.0,-195.0,5.0,-0.11000001430549987,0.320000007751,0.329999923704,-0.02250000089410001,0.027999997138999973,-0.007999997586000021,1.6922445266067967,0.194844811000796,5.809756312039861,1.7069110221585022,0.007876173637270573,0.021073879374905655
30,30,52.518883076899996,5252.5,1521546591.0,870089411.0,,3113634.0,1521546590.0,886859034.0,,0.652582592313,-0.231624355223,0.0877279227113,-0.354532687707,0.9335287620020001,-0.00689421033928,0.0527550350846,-0.00462780525208,0.00748224247329,-0.0015972026239099999,-0.00359723065352,0.00656685331608,0.0225936046885,2.44645643234,0.325543642044,5.473992824550001,0.9463124275210001,1.27591466904,0.860867142677,2172797.0,1521546590.0,884458695.5,,,,,,2617577.5,1521546591.0,864909091.5,,1.344000065325,2.828000003095,-1.7139999389650002,-0.06499999947845,-0.10049999877805,-0.131999999285,23.0,24.0,33.0,41.0,79.5,-231.0,-227.0,-220.0,-211.0,-197.0,5.0,2.005000054835,1.5850000232399997,-0.7749996185290003,0.007000001147400001,0.03000000491745002,-0.006500001996999989,3.569554031510232,0.17818319083972695,6.004641969463119,1.8068087033477016,0.008941565304917763,0.023801987389076233
31,31,52.621447179499995,5260.5,1521546591.0,950084924.0,,3113642.0,1521546590.0,966866703.0,,0.653147687769,-0.23168327251899998,0.0881397767624,-0.354599948066,0.933474309516,-0.007128270739140002,0.0532332420754,-0.00401521805887,0.00823387145271,-0.0013584438981400005,0.00161807446448,0.011639940606200001,0.011939336992899998,2.78018188477,0.759976625443,5.459192752840001,0.6614363789559999,1.400572896,0.798658967018,2172802.5,1521546590.0,974487119.0,,,,,,2617585.5,1521546591.0,946182665.5,,-0.15599999427800004,0.15799995660800004,-1.6289989471450002,-0.0894999988379,-0.1169999986885,-0.12749999761550002,18.0,18.5,22.0,28.0,32.5,-242.0,-229.0,-216.0,-214.0,-199.0,0.0,-1.500000059603,-2.6700000464869995,0.0850009918200001,-0.024499999359449992,-0.016499999910449994,0.004500001669499987,1.6440612988275056,0.19482171048691058,6.173310400124376,1.7426871968355395,0.009260884676121513,0.016752735601044275
32,32,52.7240112821,5271.5,1521546592.0,60101389.5,,3113655.0,1521546591.0,96860572.5,,0.6532607417430001,-0.230529956534,0.08828893719175,-0.3552314839235,0.9332197520215,-0.0068638852503250004,0.05351894113965,0.00423894199742,0.006611478748905001,0.00422455885243,-0.00876537007441,-0.010918046626395,0.0185316405518,2.320869088175,0.6728504002095,5.251671791075,0.6870503127575,1.22093385458,0.7961353957649999,2172812.0,1521546591.0,95964242.0,,,,,,2617596.5,1521546592.0,55805033.5,,-0.3860000133540001,1.8329999685299998,-2.838999938965,-0.0920000001787,-0.08250000327825,-0.12099999934450001,13.0,14.0,18.0,48.0,62.5,-239.5,-223.0,-218.0,-204.0,-199.0,-1.0,-0.23000001907600004,1.675000011922,-1.2100009918199996,-0.002500001340800001,0.034499995410250006,0.006499998271000021,3.401294687083661,0.17294869301374052,5.780935701656025,1.6113811398640756,0.0089178011865234,0.023226217001884226
33,33,52.8265753846,5279.5,1521546592.0,140079021.0,,3113663.0,1521546591.0,176869857.0,,0.652843480946,-0.22965517151099998,0.0879159468144,-0.3549734895,0.9333430929109999,-0.00644163675345,0.053131892335299996,-0.0125478576065,0.019981481186,-0.0059634745745400005,-0.00031707786017500005,0.0184609811334,0.0572120457577,2.53984689713,-0.021125793457,5.51964473724,0.989750266075,1.36704611778,0.8624866604799999,2172816.0,1521546591.0,170971017.0,,,,,,2617604.5,1521546592.0,135000379.5,,-0.5860000014305,0.8380000233675,-2.3340007782,-0.05100000090895,-0.08799999952314999,-0.13650000095349998,17.5,19.5,23.0,27.5,54.0,-228.5,-216.5,-215.0,-212.5,-199.0,-1.0,-0.19999998807649996,-0.9949999451625,0.5049991607649997,0.04099999926975,-0.005499996244899996,-0.015500001608999987,2.5481757540402667,0.1702270550444106,6.075997579439224,1.895337415036923,0.024336625688469157,0.06011760592836613
34,34,52.929139487200004,5291.5,1521546592.0,260082483.0,,3113675.5,1521546591.0,301865606.5,,0.6530625989565,-0.2284753900935,0.08820473924914997,-0.3559686794015,0.9329417884615,-0.006590234508765,0.05350140622145,0.01062318983658,0.00415354469782,0.00369975429607,-0.01036132888144,-0.02052703720165,0.01978675701585,2.681487083435,0.773251771927,5.180887937545,0.6162078380584999,1.343070089815,0.7771324515345,2172826.0,1521546591.0,297471543.5,,,,,,2617616.5,1521546592.0,256817105.0,,-1.4160000145449998,0.323000007868,-2.728999328615,-0.08049999922515,-0.08449999988080001,-0.1260000020265,17.0,17.5,25.0,58.0,58.5,-240.0,-219.0,-217.0,-213.5,-199.0,-1.0,-0.8300000131144998,-0.5150000154995,-0.39499855041500004,-0.0294999983162,0.0034999996423499824,0.010499998926999987,3.091411066463871,0.17174545224192214,5.88471673938655,1.6695760578866794,0.01199134178113916,0.03033532834290038
35,35,53.0317035897,5304.5,1521546592.0,390087485.0,,3113688.5,1521546591.0,431866760.0,,0.653527712577,-0.2287298272625,0.08821862881289999,-0.356999026932,0.9325213363395,-0.007308883547975002,0.05387128493295,0.00017764993520700002,0.003458183927505,0.005133374284405001,-0.014214230724874996,-0.008249250757735,0.018349398533326,2.4700068235400003,0.12443700432750004,5.499334812160001,0.9495443999744999,1.3118125200300002,0.856390863657,2172835.0,1521546591.0,433482916.0,,,,,,2617629.5,1521546592.0,386832613.5,,1.0290000081065,1.10300000906,-0.6589996337890001,-0.0539999995381,-0.17149999737750002,-0.120500002056,12.0,14.5,18.5,19.5,34.5,-230.5,-216.5,-213.5,-204.0,-200.5,-1.0,2.4450000226515,0.7800000011920001,2.069999694826,0.02649999968705,-0.08699999749670001,0.0054999999704999905,1.6461259228879102,0.21644514211710394,6.0298508814576035,1.8319093772852344,0.006192101995261667,0.024633207661585572
36,36,53.13426769229999,5311.5,1521546592.0,460092544.5,,3113695.5,1521546591.0,501859120.0,,0.6535584829855,-0.2289865558185,0.08849515594099999,-0.356771046958,0.9326172467135,-0.0074741834802050005,0.0536975280392,0.0012983422964895,-0.00953273335478,0.0022360603859150003,-0.007273859174378,-0.007216531522189999,-0.018614653186735,2.684123158455,0.3354886174205,5.327188253405,0.7957516312595,1.3499555587799998,0.8141342401505001,2172840.0,1521546591.0,498459402.0,,,,,,2617636.5,1521546592.0,455909273.0,,-0.75600001812,1.717999973895,-2.189000320435,-0.08050000295045,-0.07450000196695,-0.1380000039935,18.0,23.0,26.0,27.0,35.5,-228.0,-217.5,-213.5,-209.0,-199.0,-1.0,-1.7850000262265,0.614999964835,-1.530000686646,-0.02650000341235,0.09699999541055003,-0.01750000193750001,2.8835364295540282,0.17627961274720347,5.974613328859816,1.76590351670713,0.009877178948548372,0.021248356824984573
37,37,53.2368317949,5324.5,1521546592.0,590115546.5,,3113707.0,1521546591.0,617048902.0,,0.6528803657560001,-0.229099492326,0.08791139557064999,-0.35715090165749996,0.932514974763,-0.007361223430545002,0.0529598754753,-0.0004682855305249995,0.00460466127084,-0.0005525499171649996,0.003632308379946501,-0.001990351115850001,0.013621781301505,2.7386875152600005,0.466565042734,5.0505695343,0.6750939786435001,1.3396688699700001,0.7548848986625001,3114059.0,1521546591.0,605117897.5,,,,,,2617649.5,1521546592.0,586023513.5,,-2.141000001135,2.15299999118,-2.7090007782,-0.07299999892714999,-0.06849999725820001,-0.131999999285,22.5,31.0,34.0,37.0,42.0,-216.5,-216.0,-213.0,-208.5,-197.0,-1.0,-1.3849999830150002,0.43500001728500015,-0.5200004577650001,0.0075000040233000045,0.006000004708749993,0.006000004708500012,4.069149196474536,0.1656660776350346,5.764229772150109,1.679379579307817,0.004661277525339161,0.01423755904491448
38,38,53.339395897399996,5332.5,1521546592.0,670112490.0,,3113714.5,1521546591.0,692034583.0,,0.6529799314645,-0.2292693457175,0.088049489298,-0.35698768681950005,0.932571001669,-0.007535526735275,0.05304958499075,0.003593370337175001,0.007453258770375002,0.0015096802454300005,0.005841961750525,-0.010220754055389998,0.01276771276825,2.871487140655,0.494960606098,4.9558751583100005,0.634831935167,1.3650035262100002,0.7317839860915001,1231638.5,1521546591.0,692499968.0,,,,,,2617657.5,1521546592.0,665252989.5,,1.1290000319495,0.932999992372,-1.2840015411399999,-0.05199999921025,-0.14800000190749998,-0.131500005722,7.0,8.5,14.5,30.0,52.5,-228.5,-219.0,-209.0,-204.0,-195.0,-1.0,3.2700000330845,-1.219999998808,1.42499923706,0.0209999997169,-0.07950000464929997,0.000499993563000012,1.9477653902762568,0.20469551042309655,5.7490106092518305,1.6738440831730945,0.008410856741242395,0.017366831026065243
39,39,53.44196,5343.5,1521546592.0,780099033.5,,3113725.5,1521546591.0,802038198.0,,0.6531772522845001,-0.228900956772,0.08815224554545001,-0.35712139789700004,0.932501817034,-0.0072817702068449985,0.0534003574373,-0.00227072771385,0.00931871688426,-0.002678336794285,0.013221141631695,0.00729699782804,0.003981470317649999,2.644443392755,0.324196755886,5.062729120255,0.6836440861225,1.29404717684,0.7357822060585001,3114079.0,1521546591.0,805126730.0,,,,,,2617668.5,1521546592.0,777008567.5,,0.6339999079695,1.3679999947525001,-0.8590003967284999,-0.049499999731800005,-0.155999995768,-0.11700000241399999,14.0,18.0,18.5,24.0,28.0,-227.0,-215.5,-211.0,-204.0,-199.0,-1.0,-0.4950001239799999,0.4350000023804999,0.42500114441150016,0.002499999478449991,-0.007999993860500015,0.014500003307999984,1.7352986920204532,0.2011846147644999,5.720962378751546,1.638078992945748,0.009958321982294994,0.015617197867674187
