,Unnamed: 0,Unnamed: 0.1,.header.seq,.header.stamp.secs,.header.stamp.nsecs,.header.frame_id,.endpoint_state.header.seq,.endpoint_state.header.stamp.secs,.endpoint_state.header.stamp.nsecs,.endpoint_state.header.frame_id,.endpoint_state.pose.position.x,.endpoint_state.pose.position.y,.endpoint_state.pose.position.z,.endpoint_state.pose.orientation.x,.endpoint_state.pose.orientation.y,.endpoint_state.pose.orientation.z,.endpoint_state.pose.orientation.w,.endpoint_state.twist.linear.x,.endpoint_state.twist.linear.y,.endpoint_state.twist.linear.z,.endpoint_state.twist.angular.x,.endpoint_state.twist.angular.y,.endpoint_state.twist.angular.z,.endpoint_state.wrench.force.x,.endpoint_state.wrench.force.y,.endpoint_state.wrench.force.z,.endpoint_state.wrench.torque.x,.endpoint_state.wrench.torque.y,.endpoint_state.wrench.torque.z,.joint_state.header.seq,.joint_state.header.stamp.secs,.joint_state.header.stamp.nsecs,.joint_state.header.frame_id,.joint_state.name,.joint_state.position,.joint_state.velocity,.joint_state.effort,.wrench_stamped.header.seq,.wrench_stamped.header.stamp.secs,.wrench_stamped.header.stamp.nsecs,.wrench_stamped.header.frame_id,.wrench_stamped.wrench.force.x,.wrench_stamped.wrench.force.y,.wrench_stamped.wrench.force.z,.wrench_stamped.wrench.torque.x,.wrench_stamped.wrench.torque.y,.wrench_stamped.wrench.torque.z,.tactile_values.tactile_values_0,.tactile_values.tactile_values_1,.tactile_values.tactile_values_2,.tactile_values.tactile_values_3,.tactile_values.tactile_values_4,.tactile_values.tactile_values_5,.tactile_values.tactile_values_6,.tactile_values.tactile_values_7,.tactile_values.tactile_values_8,.tactile_values.tactile_values_9,.tag,.delta_wrench.force.x,.delta_wrench.force.y,.delta_wrench.force.z,.delta_wrench.torque.x,.delta_wrench.torque.y,.delta_wrench.torque.z,.wrench_stamped.wrench.force.magnitude,.wrench_stamped.wrench.torque.magnitude,.endpoint_state.wrench.force.magnitude,.endpoint_state.wrench.torque.magnitude,.endpoint_state.twist.linear.magnitude,.endpoint_state.twist.angular.magnitude
0,0,55.027883,5503.5,1521541350.0,171845912.5,,2589482.5,1521541349.0,372545635.5,,0.7267169892984999,-0.167965774791,0.01902790890625,-0.02784043149395,0.998453265805,-0.0134972303031,0.04619112000635,0.013988734075455,0.00029819199889,0.010625925047528,0.00556068523652865,-0.021216813755625,-0.01742091136645,1.53128182888,0.055347114801450006,11.712910652149999,0.2377292737365,0.706285238266,0.2751430124045,1807038.5,1521541349.0,362796975.5,,,,,,2093955.5,1521541350.0,166364612.0,,0.4300000190735001,-0.3790000002835,5.6740009307850015,-0.1235000006855,-0.08700000122189999,-0.015499999746685,11.0,16.0,19.5,422.0,621.0,256.5,263.5,339.0,869.0,1029.0,5.0,0.0,0.0,0.0,0.0,0.0,0.0,5.702878885191861,0.15186013424884207,11.812711936207698,0.7943914165314017,0.01756940188559875,0.02801004389640139
1,1,55.1304471026,5515.5,1521541350.0,292059540.0,,2589493.0,1521541349.0,477551850.0,,0.7260370348915001,-0.16794767535750002,0.0184344010415,-0.02796697335355,0.9984846633485,-0.0135316503079,0.0454212505303,-0.003271082184170001,-0.001845795644385,-0.0010432795943499992,0.004484994998189999,0.0081553114882,-0.014022884450865,1.69159847498,0.1474549546835,11.557010650650001,0.223559699953,0.7496019303800001,0.272590920329,1024248.0,1521541349.0,480999936.0,,,,,,2093967.5,1521541350.0,286389176.0,,1.065000009538,0.49600000157949997,4.509000015255,-0.09700000286115,-0.07149999961254999,-0.0210000006482,3.5,5.5,14.0,433.0,588.5,252.0,265.0,326.0,867.0,1045.0,5.0,0.6349999904644998,0.875000001863,-1.1650009155300003,0.02649999782435,0.01550000160935,-0.005500000901514998,4.659540981626022,0.12232027847778208,11.681084861580835,0.8283645352852265,0.0038981242320393177,0.01683049535592068
2,2,55.23301120510001,5522.5,1521541350.0,361905455.0,,2589500.0,1521541349.0,547542433.5,,0.726373121789,-0.167001181507,0.0189217474234,-0.028021204478099998,0.9984677412705,-0.013233442381750001,0.04584550063315,0.004001263388075,-0.004184130764795,0.00035215688612999984,-0.0035023349015350005,-0.005654160849999999,0.00028658465434999904,1.849678456785,1.1160540580729998,11.250285625450001,-0.371456131339,0.702051848173,0.1437000520525,1024251.0,1521541349.0,548999936.0,,,,,,2093974.5,1521541350.0,357589158.5,,2.160000038145,1.6010000504550002,4.743998718264999,-0.1124999970195,-0.0784999988973,-0.03600000031295,0.5,10.0,18.0,435.5,580.0,257.5,282.5,325.5,864.0,1047.0,5.0,1.0950000286070003,1.1050000488755,0.2349987030099987,-0.015499994158350003,-0.006999999284750008,-0.014999999664749996,5.452918958250092,0.14182559423036456,11.455820080127074,0.8071593151245625,0.005800092536339588,0.006657177738673635
3,3,55.335575307700005,5535.5,1521541350.0,492678403.5,,2589513.0,1521541349.0,677541630.0,,0.7260897649860001,-0.16847763088799994,0.0186205634372,-0.028012406262699997,0.998473377229,-0.0141727554476,0.0454461556488,0.007549116152079999,0.00214839828853,-0.00205165179454,-0.00526732886336,-0.0153955361365,0.004975987045310001,1.59171330929,0.379588842392,11.516274452200001,0.0975908637047,0.669182300568,0.224366292357,1807060.0,1521541349.0,669797231.0,,,,,,2093987.5,1521541350.0,485858470.5,,-0.1400000333784,-0.033999999612500005,6.178998184205001,-0.10200000181800001,-0.07550000026819999,-0.0250000003725,6.0,11.0,54.5,470.0,612.5,257.5,306.0,334.0,876.0,1039.0,5.0,-2.3000000715234004,-1.6350000500675002,1.4349994659400016,0.01049999520150001,0.002999998629100012,0.010999999940449996,6.180677517046841,0.12934160363160496,11.631948083044124,0.7125090604463478,0.008112585590907067,0.017015514490022206
4,4,55.438139410299996,5542.5,1521541350.0,562201022.5,,2589519.0,1521541349.0,737550386.0,,0.725703760262,-0.167181077097,0.0188584160913,-0.028945512975499996,0.998458408625,-0.013795019566600002,0.045306301545199996,-0.00903621678459,-0.0165504209812,-0.0012121606218199999,-0.0167335020363,0.022104604105599997,-0.0138604075409,1.7506049871400002,0.5441715717319999,11.3584165573,0.009999834001059998,0.7057347297669999,0.22111144661899998,1807065.5,1521541349.0,742794700.0,,,,,,2093994.5,1521541350.0,558187895.5,,0.3399998664855,-0.2389999978245,4.76900024414,-0.11400000006,-0.07699999958275,-0.0145000005141,3.0,5.5,39.5,448.5,614.0,261.5,294.0,328.0,837.0,1052.0,5.0,0.4799998998639,-0.204999998212,-1.409997940065001,-0.011999998242,-0.0014999993145500131,0.0104999998584,4.787074705577264,0.1383302207195969,11.50540599933907,0.7396294865034087,0.018895475167514105,0.03099571761169601
5,5,55.5407035128,5553.5,1521541350.0,671928048.0,,2589530.5,1521541349.0,852539632.5,,0.7263127746955,-0.16730010579,0.01897622782435,-0.02837199455475,0.9984539635835,-0.0136377012883,0.04581167168245,-0.006365912905905,0.008141382706615,-0.0026798401426000023,0.017263074247099996,0.005169036630600001,0.007808782691395001,1.846650242805,0.798000216484,11.32930850985,-0.15641682595,0.7271547615530001,0.16455626487750002,2589884.0,1521541349.0,855594126.0,,,,,,2094005.5,1521541350.0,666927568.5,,0.969999980925,0.8360000051534999,3.638999176025,-0.08350000157955001,-0.06350000202655001,-0.06050000153485,18.0,31.0,131.5,489.0,594.0,226.5,269.0,298.0,822.0,1039.0,5.0,0.6300001144395001,1.075000002978,-1.130001068115,0.030499998480449982,0.013499997556199987,-0.046000001020750005,3.857733917045314,0.12109810364689269,11.506526529588324,0.7617736113832685,0.010676539827632735,0.01963949488329071
6,6,55.6432676154,5564.5,1521541350.0,782032966.0,,2589542.5,1521541349.0,972541553.0,,0.7262792585179999,-0.1679812991725,0.0189917453706,-0.02790933050705,0.9984707739605001,-0.01387865112855,0.045656940034650005,-0.0100399935157,0.00698592290249,-0.006477346866854999,0.006316291615935001,0.0151566347534265,0.01644310062546,1.7610426545100002,0.5137527734045,11.47878456115,0.026740264147525,0.7350200116635001,0.2225385084745,2589895.0,1521541349.0,965593295.0,,,,,,2094016.5,1521541350.0,777523626.5,,-0.25000004768385,0.006000014394499986,5.25400085449,-0.10949999839050001,-0.07700000330805,-0.05800000019375,2.5,8.0,15.0,475.0,596.0,209.0,266.0,317.0,820.0,1021.0,5.0,-1.2200000286088502,-0.8299999907589999,1.615001678465,-0.025999996810949985,-0.013500001281499988,0.002500001341100004,5.259948764293842,0.14588779996776363,11.624444423045777,0.7684353239060177,0.013840542295314466,0.023237785501318962
7,7,55.745831717899996,5576.5,1521541350.0,901980995.5,,2589555.5,1521541350.0,102546002.5,,0.7261098638214999,-0.1677039986655,0.018860631076,-0.0284531187688,0.9984576066735,-0.0138638412756,0.045611592509500004,0.012837400140505,0.001879303042005,0.0034223825644100004,0.005626915311665001,-0.02360395442325,0.0014455653545499998,1.7587842941300005,0.6074681580065,11.521482467650001,-0.0032288134098050003,0.7386396229265,0.212069042027,1807091.0,1521541350.0,105295687.5,,,,,,2094028.5,1521541350.0,898074339.5,,0.8849999427774999,0.6559999980035001,4.863999557495,-0.10000000149025001,-0.06900000199675001,-0.047000000253300006,4.5,9.0,24.5,496.0,575.5,220.5,260.5,329.0,819.0,1020.0,5.0,1.1349999904613501,0.649999983609,-0.390001296995,0.009499996900249994,0.008000001311299992,0.010999999940449992,4.987188846575626,0.13026895484884995,11.670771097431246,0.7684869526408935,0.013418022384401684,0.024308403887005593
8,8,55.8483958205,5586.5,1521541350.5,501936435.0,,2589565.5,1521541350.0,202536973.0,,0.726360239818,-0.167562782112,0.01885050852215,-0.028267936743000002,0.998455433603,-0.013712620334999998,0.04582112614985,0.013024739123934998,0.00042356689202,0.01089866032707,-0.0015489399168399994,-0.030213049631405,-0.003118209952,1.74813020229,0.5067718476059999,11.496778965,0.036980547010910005,0.7324497997759999,0.22019059211,2589919.0,1521541350.0,205591660.0,,,,,,2094038.5,1521541350.5,497166968.0,,2.2599999427799995,-0.244000007957,4.599000167844999,-0.1140000000595,-0.07950000092385001,-0.0485000014305,10.5,20.0,37.0,477.0,582.0,239.0,250.5,323.0,819.0,1018.0,5.0,1.3750000000024996,-0.9000000059604999,-0.2649993896500016,-0.013999998569250008,-0.010499998927100004,-0.0015000011771999914,5.130101196768632,0.14720224284710018,11.639961489616319,0.7657246025190002,0.016988349981190875,0.030413004064059078
9,9,55.9509599231,5597.5,1521541351.0,112470030.0,,2589577.0,1521541350.0,317535677.0,,0.7264499819050001,-0.167546114748,0.0190107880339,-0.0283587005137,0.9984457130959999,-0.013808872235700001,0.045948418391199994,0.012551996702399999,-0.00566906416415,0.007490240536239998,-0.000433461346556,-0.0220995046036,-0.0262503421777,1.64662539959,0.43430343270300004,11.5837450027,0.10177621245400001,0.70847761631,0.243803918362,1024281.0,1521541350.0,307000064.0,,,,,,2094049.5,1521541351.0,108062513.5,,2.190000009535,0.4209999836980001,5.25900001526,-0.109500002116,-0.0840000025928,-0.03399999905375,9.5,12.0,56.5,513.0,576.0,234.5,252.0,316.5,814.0,1029.0,5.0,-0.06999993324499965,0.6649999916550001,0.6599998474150013,0.004499997943500006,-0.004500001668949982,0.014500002376749997,5.712304455168833,0.1421346222236138,11.708251063494059,0.7561344330490749,0.0156778382758926,0.03431699953244501
10,10,56.053524025600005,5605.5,1521541351.0,191913961.5,,2589584.5,1521541350.0,392537514.5,,0.7264424137854999,-0.16729793903200002,0.01900919618645,-0.02829423211385,0.998452123737,-0.01342909510185,0.0459591929826,0.00031673213395000047,0.010276838437810002,0.005675974230175,0.009466975170735002,-0.012959684579105,0.01167618743219,0.950263231994,0.8284421265124999,12.048266887650001,-0.06691717356445,0.5082631707190001,0.21799541264800001,2589938.0,1521541350.0,395597514.0,,,,,,2094057.5,1521541351.0,188572867.0,,1.520000171665,0.365999976546,4.609000396725,-0.105000000447,-0.07149999961260001,-0.04449999891225,5.5,10.0,74.0,494.5,595.5,239.0,270.0,328.0,812.0,1025.0,5.0,-0.6699998378699998,-0.0550000071520001,-0.6499996185349994,0.004500001668999998,0.012500002980199987,-0.010499999858499994,4.866953992149968,0.1346012627788538,12.114043567822582,0.5570739257609872,0.011744377845724154,0.019847176026448615
11,11,56.1560881282,5617.5,1521541351.0,311880469.0,,2589594.5,1521541350.0,491813213.5,,0.7239618845939999,-0.16806921609449998,0.019939387248650003,-0.028927955297750007,0.9984430783930001,-0.014592448182899996,0.045403825298150007,-0.0366290032485,-0.021781784376800003,0.0167683972454,-0.04491368977875,0.007033997151144998,0.0103261587567,0.8520428463800499,0.6057381927965,15.444591522249999,0.6052816808224999,1.0436256527875,0.4252642989155,1024288.5,1521541350.0,500500096.0,,,,,,2094069.5,1521541351.0,307312873.5,,0.21999998092650005,-0.9390000157064999,8.814000320435,-0.06350000202655001,-0.2210000008345,-0.056499999016550013,6.5,12.5,31.0,406.5,533.5,238.5,242.5,371.0,695.0,1020.0,5.0,-1.3000001907385001,-1.3049999922525002,4.204999923709999,0.04149999842044999,-0.1495000012219,-0.01200000010430001,8.866607167893068,0.23678154597664702,15.479932269213464,1.279206840283282,0.045796388021279257,0.046619161298040106
12,12,56.2586522308,5624.5,1521541351.0,383632421.0,,2589602.0,1521541350.0,566822573.5,,0.7202294159655,-0.1700808520025,0.02424566135545,-0.0277673511502,0.998508127353,-0.017058162916700002,0.04380184756615002,-0.08818439976539999,-0.03195671916295,0.054586719126150006,-0.07073146371805,0.11012474808514999,-0.09636330165875,0.9943060427885,0.473191574216,15.1674551964,1.2873993516,1.2612966895100002,0.5762745141985,2589954.0,1521541350.0,554896609.0,,,,,,2094076.5,1521541351.0,377893036.0,,1.7900001525900002,-1.064000000805,8.153996658325001,-0.02999999932945,-0.2459999993445,-0.06950000301005001,0.5,2.5,48.5,170.0,473.0,224.5,236.0,428.0,440.5,849.5,5.0,1.5700001716635,-0.12499998509850008,-0.6600036621099985,0.03350000269710001,-0.02499999851000001,-0.0130000039935,8.415691180881138,0.2573834688857425,15.207374918355768,1.8921835918281564,0.10852386910998302,0.1625308770882961
13,13,56.3612163333,5636.5,1521541351.0,502036452.0,,2589614.0,1521541350.0,686811512.0,,0.7130095794019999,-0.1718679501245,0.03802216743585,-0.0211828337679,0.9987009754325,-0.017614832538200002,0.0428574282928,-0.03052248466105,0.015142147580150003,0.169823095498,0.05318457923965,-0.07308818188014997,-0.0835827776278,1.439795792105,0.5407497137785,10.071736335755002,0.7952658534049999,0.8127750605349999,0.469768181443,2589967.0,1521541350.0,684903893.0,,,,,,2094088.5,1521541351.0,497997587.0,,-0.24000005721999998,-1.9440000258400003,0.4440013885499999,-0.07950000092389999,-0.09449999779465,-0.01899999938905,0.5,3.0,41.0,84.0,134.0,185.5,196.0,209.5,274.5,289.0,5.0,-2.0300002098100003,-0.880000025035,-7.709995269775001,-0.049500001594449984,0.15150000154985002,0.050500003620999996,2.0084504875564777,0.12494598715794299,10.188488356615146,1.230338661066911,0.17320736262568603,0.12311199176125272
14,14,56.4637804359,5645.5,1521541351.0,593158006.0,,2589622.5,1521541350.0,771812434.0,,0.7158747800245,-0.17056525928299998,0.05424381410725,-0.02015498404285,0.9982473194765,-0.0161629010684,0.05323609336565,0.05350214840375,0.01194877146651,0.219773019429,-0.0057002676368,-0.3098401643635,0.018677517184625,2.824473142625,0.711352646351,5.9136111736300006,0.654052227736,1.553974151615,0.490810543299,2589976.0,1521541350.0,774867380.0,,,,,,2094098.0,1521541351.0,593701712.0,,-1.32999997139,-1.89400002882,-2.4059989929200003,-0.07650000043215,-0.07400000095364999,-0.04549999907615,4.0,7.0,27.5,46.5,85.5,143.5,155.5,164.5,177.0,181.0,5.0,-1.08999991417,0.04999999702000002,-2.85000038147,0.0030000004917499906,0.020499996841,-0.026499999687099998,3.338407882059893,0.11575189036550894,6.5920003211287925,1.7559940119224335,0.226507026584862,0.3104549406147594
15,15,56.566344538500005,5656.5,1521541351.0,702026485.5,,2589634.0,1521541350.0,886807936.0,,0.722099015364,-0.172593410852,0.07645638748660001,-0.0196562527343,0.9972196936769999,-0.019069746493,0.0693026625715,0.058568706418699996,0.004073204981860001,0.19082748034000002,-0.0145334036518,-0.285903412234,0.001595185184,1.28387737274,1.80029118061,3.13041853905,0.32343420386300004,1.0200242996200002,0.46111494302699996,1807144.5,1521541350.0,880950419.5,,,,,,2094108.5,1521541351.0,698270552.0,,0.03500003814684999,-2.90900005922,-1.070999908446,-0.0805000029504,-0.06599999964235,-0.03800000064075,-7.5,-3.5,5.0,27.5,67.5,119.0,121.5,125.0,133.5,159.0,5.0,1.3650000095368502,-1.0150000303999998,1.3349990844740005,-0.004000002518250001,0.008000001311299992,0.0074999984354000016,3.100088248921889,0.1108162915662747,3.8326113386102496,1.1651979431523891,0.19965473103159165,0.28627700844552983
16,16,56.668908641,5667.5,1521541351.0,812259435.0,,2589647.0,1521541351.0,16810070.0,,0.7224919030760001,-0.17266433085400001,0.0910760581267,-0.021105243902599997,0.996621964785,-0.0226319641855,0.0760724798079,0.0149650272504,0.037415476946000004,0.0860765709022,-0.0370816159316,-0.0849036970253,0.0672265285286,6.508032321930001,1.32550060749,-0.206874147058,0.55922305584,2.66585278511,0.528506934643,2590000.5,1521541351.0,19898246.0,,,,,,2094119.5,1521541351.0,808639786.0,,0.6449999332430001,-1.4740000270299998,-0.7209995269782501,-0.09200000017885004,-0.09750000014905,-0.0374999996275,-8.0,7.0,22.0,54.0,78.0,88.0,90.5,114.0,128.0,134.0,5.0,0.60999989509615,1.4350000321899998,0.3500003814677499,-0.011499997228450036,-0.0315000005067,0.0005000010132499981,1.7631055871588561,0.1391994972477834,6.64486519625966,2.7746749499765753,0.0950423380077707,0.11446872999500474
17,17,56.77147274359999,5675.5,1521541351.0,891890525.5,,2589654.5,1521541351.0,91814903.0,,0.7215655432529999,-0.1714978495265,0.09411727100694997,-0.0226861779369,0.996497648961,-0.023119562595000004,0.07709094130550001,-0.0338666544343,0.02424375907675,0.0146586088155,0.007889694174354998,0.017161156271720702,0.04138119122485,-2.45240187645,-0.21561489999269995,6.473705530165,1.117190062999,-0.009571053087600008,0.586153298616,1807159.5,1521541351.0,91951100.5,,,,,,2094127.5,1521541351.0,888172189.0,,1.36000008583,-1.0139999888815,-1.086001205446,-0.08150000125165,-0.11350000277155001,-0.02450000029055,-8.0,-7.5,-4.5,13.5,21.0,101.5,105.0,113.5,119.5,128.0,5.0,0.715000152587,0.4600000381484997,-0.3650016784677499,0.010499998927200035,-0.016000002622499995,0.012999999336950004,2.0142479562207467,0.14186173144085673,6.926010976023879,1.2616580088912102,0.044154104556084525,0.0454879714422931
18,18,56.8740368462,5686.5,1521541351.5,502201556.5,,2589665.5,1521541351.0,201815570.0,,0.7170594163375,-0.1659396547545,0.09299294970865,-0.024312640282650004,0.9967785326145,-0.019922571097599998,0.07378283209945,-0.045152461468699986,0.06025238790225,-0.022485015131650004,0.06371205462830001,0.08220433425444999,0.025157710236235004,3.5395334959,0.04620755463849999,3.3156744241750005,0.6996094584465,1.626536667345,0.523214459419,1024316.0,1521541351.0,200000000.0,,,,,,2094138.5,1521541351.5,497294852.0,,-0.80499999523,-0.8989999942479999,-1.525999832155,-0.089500002563,-0.1240000016985,-0.0645000003278,-2.5,0.5,2.5,10.5,18.0,82.0,84.0,104.0,110.0,112.0,5.0,-2.1650000810599996,0.1149999946335002,-0.4399986267089999,-0.008000001311350008,-0.010499998926950001,-0.04000000003725,1.945482323156726,0.1659713858539815,4.85016797583671,1.84630124711833,0.07857907437782764,0.10700321892124175
19,19,56.976600948699996,5699.5,1521541352.0,132640003.5,,2589679.5,1521541351.0,341813126.5,,0.7134214062225,-0.16480934095600006,0.08952516994495,-0.02396311967805,0.997146791691,-0.01864119746555,0.06911240890914999,-0.006251818971395,-0.014441775643665004,-0.0123523370072,-0.0059707316946100005,0.03151575602386,-0.01337083763806,2.05611026287,0.8737330138705001,4.806941509245,0.2755660563705,1.32089430094,0.4028364419935,2590032.0,1521541351.0,334894642.0,,,,,,2094151.5,1521541352.0,128817747.5,,-0.189999985695,-1.0540000028910002,-0.5609996795654999,-0.0860000029204,-0.0815000012517,-0.07599999755625,-0.5,1.5,6.0,13.5,27.0,73.5,82.0,85.0,89.5,97.5,5.0,0.615000009535,-0.15500000864300026,0.9650001525895,0.003499999642600005,0.0425000004468,-0.011499997228450009,1.2090230110014126,0.14076310004715695,5.300724994367202,1.4081816660776916,0.020005758014444062,0.034751572825813946
20,20,57.0791650513,5709.5,1521541352.0,232190012.5,,2589687.5,1521541351.0,421858358.5,,0.7109555812955,-0.1655747944175,0.08837747734770003,-0.02424808103935,0.9973432092595,-0.0196904667455,0.0658085166099,-0.03219477466515,-0.01377521819405,-0.0136332612966,-0.027791931735400004,0.08411520374285003,-0.020352355658925004,3.3384076356900003,1.2220146656035,3.2726969122900003,0.3485666140915,1.4658060073849999,0.4020927250385,1807183.0,1521541351.0,422994574.5,,,,,,2094161.5,1521541352.0,228531568.5,,1.0949999809285,-0.6990000061695001,-0.4359996795655,-0.0819999985397,-0.082499999553,-0.0530000012368,-3.0,4.0,15.0,24.0,44.5,75.0,80.5,83.5,88.0,111.5,5.0,1.2849999666235,0.3549999967215001,0.12499999999999988,0.004000004380700001,-0.0009999983013000008,0.022999996319450003,1.3702998531123016,0.1278250750747153,4.832062754631384,1.559411586231824,0.037578264537027804,0.0908954198579537
21,21,57.1817291538,5719.5,1521541352.0,331936955.0,,2589696.0,1521541351.0,506909944.0,,0.7093392654874999,-0.16662267783950002,0.08844013892640001,-0.02431369995575,0.9974204415285,-0.021029764678950003,0.06417924064984999,-0.008146306964544998,-0.030485647036700005,0.014883412159594997,-0.0369183449966,0.012166031772800002,-0.028030786402395,2.6683102846150004,0.5748063027854999,6.750099658965,0.6625071465969999,1.277427375315,0.4531962126495001,1024328.5,1521541351.0,513500032.0,,,,,,2094171.5,1521541352.0,329828710.0,,1.1100000858285002,-0.958999996632,0.33899993896499997,-0.08950000256294999,-0.0975000001489,-0.08300000056625,-12.5,-8.5,-2.5,3.5,51.0,66.0,71.0,72.0,95.5,101.0,5.0,0.015000104900000144,-0.2599999904625,0.7749996185304999,-0.007500004023249991,-0.01500000059590001,-0.029999999329449994,1.505557087160008,0.15622259945923656,7.281080103024793,1.508682612631338,0.03488915232445796,0.047923913787601406
22,22,57.284293256400005,5730.5,1521541352.0,442067980.5,,2589707.5,1521541351.0,621906991.0,,0.7113517891619999,-0.16779705840599998,0.09188996465725,-0.02371995774355,0.9971939347195,-0.0218862275371,0.06754639756580001,0.02548190529605,-0.011384260597889998,0.033404396312600004,-0.0068507067005600004,-0.0593240935726,-0.020716119381654997,1.9685779213900003,0.9443830251684999,4.808812618255,0.5216929912565,1.1761179566395,0.518537670374,2590060.0,1521541351.0,614978088.0,,,,,,2094182.5,1521541352.0,438711513.0,,0.270000052452,-2.06899996623,-0.6760013580299999,-0.054499998688699994,-0.132999997586,-0.0460000000894,-12.5,-9.0,-5.5,-4.0,-3.0,77.5,79.0,80.0,98.0,115.5,5.0,-0.8400000333765002,-1.1099999695979998,-1.015001296995,0.03500000387424999,-0.0354999974371,0.03700000047685,2.193316831796589,0.15091470843880364,5.281272302040398,1.38719080902842,0.043529100379938665,0.06320947605179685
23,23,57.386857359,5737.5,1521541352.0,511904000.5,,2589714.0,1521541351.0,686910953.0,,0.712499688871,-0.1679514564585,0.09352464202485,-0.023622364985950002,0.9970841258195,-0.021704085323200003,0.06923842332289999,0.010990863732105002,-0.0043735013628,0.017942769687465002,-0.014701788728750003,-0.04668252270772,0.01102532068885,2.165603280065,1.0457596778845,5.05430197716,0.4487705379725001,1.4003061652200002,0.4804685115815,1807201.0,1521541351.0,690501643.5,,,,,,2094189.5,1521541352.0,508885695.0,,1.0049998283375,-2.2390000425250003,0.1090003967283,-0.09249999746695,-0.15550000220549998,-0.0515000000596,-7.5,-7.0,-3.5,5.0,83.0,94.5,104.0,112.0,116.0,137.0,5.0,0.7349997758854999,-0.17000007629500047,0.7850017547582999,-0.037999998778249985,-0.02250000461949997,-0.005499999970199995,2.4566291807825382,0.18811897890280782,5.597268918574564,1.5469655273232856,0.02149115129083427,0.05016929553495422
24,24,57.489421461499994,5751.5,1521541352.0,651850461.5,,2589728.5,1521541351.0,831908305.0,,0.7127373999914999,-0.167342675683,0.09453805979830003,-0.02403701510925,0.9970163280185,-0.0219558590284,0.06998822471874999,0.00254578185635,-0.00792516768164,0.00019968877289999919,0.0028916071831499982,0.0022399132180999926,-0.02166302936555,2.5335320234300003,0.8682996332645001,4.49366378784,0.6004728078845001,1.3797621130950002,0.523719936609,1807212.0,1521541351.0,835003686.5,,,,,,2094203.5,1521541352.0,648625724.0,,-0.5549999952319999,-2.36900003776,-1.161000061037,-0.08449999988080001,-0.0819999985397,-0.05199999921025,-11.0,-7.5,-3.0,1.0,9.0,119.0,127.5,132.0,139.0,166.5,5.0,-1.5599998235694998,-0.1299999952349995,-1.2700004577653,0.007999997586149984,0.07350000366579998,-0.0004999991506500004,2.6959427507538654,0.12871771307101446,5.2312276766565144,1.5932964739002,0.00832641361260983,0.021969648258880828
25,25,57.5919855641,5758.5,1521541352.0,721851467.5,,2589735.0,1521541351.0,896908435.0,,0.7124621394299999,-0.16751652147600002,0.0942091967128,-0.0236743964306,0.9970625666195,-0.02187797390445,0.06947674389830001,-0.01647189669425,0.0037804273769,-0.012510944231305,0.004366131241845,0.03834827268115,-0.005628590373549999,1.712717294695,1.0154541730854998,5.422109842299999,0.4862911254165001,1.129973948,0.5094788968564999,1807216.5,1521541351.0,907499830.5,,,,,,2094210.5,1521541352.0,720035474.5,,-0.82499997616,-1.3940000288200003,-0.80599861145,-0.08700000122189999,-0.08249999955295,-0.055500000715250006,-15.5,-13.0,-9.5,-4.5,-3.5,120.5,122.0,136.0,151.0,173.5,5.0,-0.26999998092800004,0.9750000089399996,0.35500144958700003,-0.0025000013410999837,-0.0005000010132499981,-0.0035000015050000092,1.8092801891010386,0.1321192651290496,5.776142558070276,1.3314987525941093,0.021027095315732103,0.039004283729381195
26,26,57.6945496667,5770.5,1521541352.0,843023538.0,,2589749.0,1521541352.0,36908326.0,,0.7118190855140001,-0.16804073713,0.09386599324139999,-0.024009502897900003,0.9970893964380001,-0.022297383455500003,0.0688411648064,-7.817859476289999e-06,0.018209837333299998,0.0060069153688,0.0191966112892,-0.00662031032319,0.0130491855204,2.9153838157700003,1.0909686088600001,5.29244327545,0.47979974746699994,1.44754981995,0.4632515013220001,2590102.0,1521541352.0,34965823.5,,,,,,2094222.5,1521541352.0,839556907.5,,-0.14999990463250001,-1.0540000103399998,-1.335999298095,-0.0729999989271,-0.0879999995232,-0.05199999921025,-12.5,-11.0,-5.5,-2.0,2.5,122.0,126.0,130.0,141.0,175.5,5.0,0.6750000715275,0.3400000184800005,-0.530000686645,0.014000002294799987,-0.005499999970250011,0.0035000015050000092,1.7083062130943654,0.12560652720820603,6.140002534415396,1.5938036994510214,0.01917501679457149,0.024137515127075404
27,27,57.7971137692,5779.5,1521541352.0,931828021.5,,2589758.5,1521541352.0,131909614.5,,0.71296770716,-0.16711728427,0.0946500453056,-0.024356870640349998,0.997002726121,-0.021769966235549998,0.070130589292,-0.0031044807326650005,0.01263761365675,0.002700275493595,0.010323391626265,-0.001959102151853,0.0077814069898135,1.5644911527649998,1.12215703726,4.882696866990001,0.3159912973645,1.0841471552850002,0.4298191815615,1807232.5,1521541352.0,131480819.0,,,,,,2094231.5,1521541352.0,929541699.0,,-0.09999995231644998,-1.1890000008064998,-1.9609992981,-0.0799999982119,-0.07499999925494999,-0.0360000003129,-23.5,-20.0,-16.5,-11.0,-1.0,119.5,122.0,132.0,139.5,175.5,5.0,0.049999952316050006,-0.13499999046650002,-0.625000000005,-0.006999999284799996,0.013000000268250015,0.015999998897349994,2.2954823544366096,0.11541663495647109,5.248580539371199,1.2082922176199165,0.013290544281483435,0.013075197537771723
28,28,57.8996778718,5792.5,1521541353.0,61880469.0,,2589771.0,1521541352.0,256905226.0,,0.7119960471894999,-0.1678629083665,0.09415750816895,-0.02416811578465,0.9970636669455,-0.0222957210358,0.06915768306459999,-0.01470647882336,0.0023804405529299997,-0.013421254364045,0.0007192834893600008,0.03639714187785,-0.00929018048234,3.2054953575150003,1.524434387685,5.11672067642,0.2398273050785001,1.528491318225,0.3894943892955,1807241.5,1521541352.0,264493801.5,,,,,,2094244.5,1521541353.0,59226124.0,,-0.5049999237061501,-0.31899999603599993,-0.6659992218019999,-0.0785000026226,-0.08749999850989999,-0.07450000196695,-13.0,-12.5,-11.0,-8.5,77.5,109.0,121.5,126.0,129.0,144.5,5.0,-0.4049999713897001,0.8700000047704999,1.295000076298,0.0014999955893000017,-0.012499999254950005,-0.03850000165405,0.8946177305727038,0.1391716581925223,6.227353464346688,1.595465049897079,0.020051859896587317,0.03757095632278821
29,29,58.00224197439999,5800.5,1521541353.0,142680406.0,,2589779.5,1521541352.0,341907867.5,,0.7122866421825,-0.16661789792749998,0.094352422939,-0.024426540997700003,0.997048289807,-0.02158435530615,0.0695133567427,0.008752021909229999,-4.4359414779999735e-05,0.005049448087435,0.011359343383565,-0.017423972387749998,-0.01103643991945,2.429202079775,1.2949832677850002,5.450964212415,0.2910469174385,1.35759371519,0.4081361293795,1024361.0,1521541352.0,328999936.0,,,,,,2094252.5,1521541353.0,140456135.5,,0.37999982833845003,0.4810000158847,-1.121001052855,-0.07499999925494999,-0.08049999922515,-0.07050000131129999,-14.5,-13.0,-8.0,-5.5,95.0,105.5,112.0,120.0,142.0,148.0,5.0,0.8849997520445999,0.8000000119206999,-0.4550018310530002,0.003500003367650009,0.006999999284749993,0.00400000065565001,1.2776557616667925,0.13067325643904704,6.106636983909833,1.447184889286341,0.010104295187939757,0.023546390423384342
30,30,58.1048060769,5809.5,1521541353.0,231852412.0,,2589787.5,1521541352.0,421908629.0,,0.7124404249465001,-0.16761048367999998,0.09426803425475,-0.02414705204535,0.997036765828,-0.022015669729749998,0.06964130890595,-0.0004990974122150013,-0.01029124149844,-0.0023125524747999995,-0.012382869702879998,0.00234508996117,-0.013842211980284999,2.03265786171,1.230236649515,4.9543352127050015,0.32887077331549996,1.20017427206,0.4344781488180001,1024364.5,1521541352.0,423500032.0,,,,,,2094261.5,1521541353.0,229694278.5,,-1.290000009535,-0.7790000043809999,-1.19100074768,-0.0744999982417,-0.07449999824165,-0.05350000038745,-17.5,-11.0,-8.0,5.0,100.0,119.5,129.5,131.5,139.5,147.0,5.0,-1.66999983787345,-1.2600000202657,-0.0699996948249999,0.0005000010132499844,0.006000000983499995,0.01700000092384999,1.920787289733097,0.1181640787950226,5.4945989477331345,1.31808403778219,0.010559670863942536,0.01872008924956367
31,31,58.207370179499996,5821.5,1521541353.0,352102517.5,,2589798.5,1521541352.0,531916796.5,,0.7120439169955001,-0.16737633716150002,0.09416569810465,-0.0242486320328,0.9970626670905,-0.0220149347652,0.06923384710955001,-0.010541427913295,0.0046382671045,-0.010325621208745,0.0036181204384200007,0.02023776211905,0.003559259663999999,2.57280349731,1.548017978665,4.974884510039999,0.16167473047949998,1.3440555334100002,0.383186981082,2590151.0,1521541352.0,525001789.0,,,,,,2094273.0,1521541353.0,346210089.5,,-0.5599999904635,-1.9440000258400003,-1.025999832155,-0.08349999785425,-0.08650000020865001,-0.03150000050665,-15.5,-13.5,-9.0,-3.0,60.0,115.5,127.0,130.0,146.5,162.0,-0.5,0.7300000190714999,-1.1650000214590002,0.16500091552500007,-0.008999999612549991,-0.012000001967000004,0.0219999998808,2.2683500050404763,0.12428495367370564,5.810779068789017,1.406931504315827,0.01546782717547511,0.020864470768508482
32,32,58.3099342821,5833.5,1521541353.0,471860527.5,,2589809.5,1521541352.0,641906711.5,,0.7121752222284999,-0.16641496706800002,0.09421915529330001,-0.02474665904555,0.9970445401455,-0.0216360435503,0.06943813013235,0.0033650727975450003,0.002600522808075001,0.00015520323095499994,-0.005489263062899999,-0.00238342382765,0.0114555070051,2.8729591369600005,1.6098818182949999,4.91061830521,0.158570125699,1.46134150028,0.3911281377075,1807268.0,1521541352.0,651496996.0,,,,,,2094285.5,1521541353.0,470533697.0,,0.2850000381471,-0.8340000115335,-0.5259998321530001,-0.0815000012517,-0.07950000092385001,-0.0429999995977,-21.0,-17.5,-17.0,-9.5,22.0,145.0,149.5,151.0,163.0,174.0,-1.0,0.8450000286106001,1.1100000143064999,0.5000000000019998,0.00199999660255,0.006999999284799996,-0.011499999091049998,1.0263804676662114,0.1217025074364594,5.912680086981055,1.5210669562222878,0.004255645879416483,0.012924448106585567
33,33,58.4124983846,5840.5,1521541353.0,541827439.5,,2589817.0,1521541352.0,716905098.5,,0.7123176888435,-0.167077831201,0.09407564684234998,-0.02421319733715,0.9970604017585,-0.02183034321335,0.06933741973600001,0.0017420520764430002,-0.007499687466074999,-0.0007637838487399997,-0.005880937079885001,-0.00503541284059,-0.0004125250722500015,2.97263252735,1.670841157435,4.786043167115,0.0953897032889,1.480594992635,0.3641524761915,1807273.5,1521541352.0,721482293.5,,,,,,2094292.5,1521541353.0,539739798.0,,-0.635000038147,-1.13899998888,-0.6260002136230001,-0.08650000020865001,-0.08399999886750001,-0.0625,-18.0,-17.0,-14.0,-11.0,25.5,145.0,147.0,147.0,168.0,188.0,-1.0,-0.9200000762941,-0.30499997734650003,-0.10000038147,-0.004999998956950011,-0.004499997943649997,-0.0195000004023,1.4465207535916562,0.13581052921565565,5.87660305904067,1.5277001517397912,0.007737145681285695,0.007753127133484903
34,34,58.51506248720001,5852.5,1521541353.0,661818980.5,,2589829.0,1521541352.0,836912658.0,,0.711722605748,-0.16617579018,0.0935250306938,-0.025049462296,0.9970709213050001,-0.021621766636700002,0.06895361872229999,0.00635102370657,0.00173991545821,-0.00337314687842,0.011288742884500002,-0.00677427656039,-0.0222290427465,3.0526986122099995,1.8152803182599997,4.536221981050001,0.010712787509000002,1.51185464859,0.334509730339,2590182.0,1521541352.0,834990493.0,,,,,,2094304.5,1521541353.0,660314925.5,,0.5800001144410001,-3.128999968615,-0.7060001373289999,-0.08399999886755001,-0.07800000160935,-0.0405000001192,-21.5,-19.0,-16.0,-1.0,7.0,134.0,136.0,154.0,179.5,190.0,-1.0,1.215000152588,-1.989999979735,-0.07999992370599984,0.0025000013410999967,0.005999997258150007,0.0219999998808,3.259674390219491,0.12157405179750408,5.761208320501193,1.5484560058235026,0.007398711224701694,0.02583518686316635
35,35,58.6176265897,5863.5,1521541353.0,771852612.0,,2589841.5,1521541352.0,961906916.5,,0.7115889370434999,-0.16567849127899995,0.09360551586845,-0.02565666231255,0.9970633047785,-0.021786356282200003,0.06878757038364999,0.00712605095521,0.012330610994375,0.0047503558480755,0.010021772779885,-0.016445624324325003,0.023174640581,3.16849505901,1.304547607895,4.8161315918000005,0.304429844022,1.592227339745,0.421122804284,2590194.5,1521541352.0,959982976.0,,,,,,2094315.5,1521541353.0,770220607.0,,-0.200000095367,-2.3890000186850004,-0.9560001373295,-0.07200000062585,-0.07249999791385,-0.04550000093875,-18.0,-17.0,-8.0,-6.0,2.0,140.5,141.5,157.0,167.0,180.0,-1.0,-0.7800002098080001,0.7399999499299996,-0.25000000000050016,0.011999998241700005,0.005500003695499993,-0.005000000819550003,2.5809411829791404,0.11185034587812819,5.910696144259943,1.6748760693408689,0.015013009371681483,0.0301323489812362
36,36,58.720190692299994,5872.5,1521541353.0,861903428.5,,2589851.5,1521541353.0,61915652.0,,0.7120077276829999,-0.1654952645755,0.0936645174831,-0.0256168388378,0.9970405846445001,-0.0215403130735,0.06920879828349999,0.0036520442240199993,-0.02038169454245,-0.005023173093000001,0.0015352174946100005,2.524608249999949e-05,-0.0330168622263,3.5712813139,1.437041282655,4.013733625415,0.25035563111299997,1.731734573845,0.42265379428850003,1807296.5,1521541353.0,57980817.0,,,,,,2094324.0,1521541353.0,855648432.0,,-0.2499999284745001,-2.21400006637,-1.961001205445,-0.06599999964235001,-0.07149999961255,-0.05849999934435,-19.0,-16.0,-13.0,7.0,23.0,133.0,140.0,159.0,189.0,198.5,-1.0,-0.049999833107500065,0.17499995231500032,-1.0050010681155002,0.006000000983499995,0.0009999983013000008,-0.012999998405599995,2.9681344285393076,0.11353633700570845,5.561402295001961,1.800060778447933,0.021306880751489017,0.03305254485498679
37,37,58.8227547949,5880.5,1521541353.0,941921472.0,,2589860.0,1521541353.0,146912377.0,,0.7109695148395001,-0.1655542387825,0.09235588739424999,-0.02549365514995,0.997142350972,-0.021490295965400003,0.06778816072909999,-0.011326818015764998,-0.004204704216889999,-0.0126411035562,0.0022044366156950003,0.02297914313195,-0.0023332039956200003,3.720098376275,1.64392924309,4.191594839095,0.190002642572,1.823329150675,0.409145772457,1807303.0,1521541353.0,142500606.5,,,,,,2094332.5,1521541353.0,940618598.5,,0.345000219345,-1.998999973385,-0.7259986877439999,-0.0760000012815,-0.07050000131129999,-0.054999999702,-12.5,-12.0,-8.0,-7.0,32.0,142.0,142.0,166.0,175.5,208.0,-1.0,0.5950001478195001,0.21500009298500025,1.235002517701,-0.010000001639149993,0.000999998301250013,0.0034999996423499963,2.1545533503599623,0.11735097079658652,5.840471092350187,1.8783052092258583,0.017486390223038124,0.023202249907205957
38,38,58.9253188974,5894.5,1521541354.0,81858515.5,,2589874.0,1521541353.0,286909589.0,,0.7105807712379999,-0.165709554027,0.0915496311341,-0.024867687639900004,0.997231273389,-0.021030723623200003,0.066851283828,-0.0210097072731,0.010242951379200001,-0.0172957720831,0.00977712399185,0.040811646185,0.000177351109959,4.0189743042,1.4005279541,4.33836841583,0.310587733984,1.8974785804700005,0.42418390512500004,1807313.0,1521541353.0,287980914.5,,,,,,2094346.0,1521541354.0,75161842.0,,-0.500000047684,-1.09899999723,-1.3659999847400002,-0.07199999690060001,-0.0799999982119,-0.06499999761580001,-22.0,-19.5,-10.0,-5.0,-3.0,156.0,162.0,168.0,192.5,193.0,-1.0,-0.8450002670290001,0.8999999761549999,-0.6400012969960003,0.0040000043808999936,-0.009499996900600008,-0.009999997913800013,1.823117385114086,0.12573384173580485,6.077423263152461,1.9689646236565195,0.029076959686469072,0.041966821076867826
39,39,59.027883,5904.5,1521541354.0,181865453.0,,2589883.5,1521541353.0,381906816.0,,0.7105670414925,-0.1652571803015,0.09116623855445,-0.025408795656499998,0.9972223791145,-0.020856292006150003,0.0668340307493,-0.007171182285830002,-0.0036786066071590002,-0.008519402197405001,0.000327106772000001,0.01561895893496,0.002350228380315001,4.478006124495001,1.8246750235599998,3.683561921115,0.07157129980600001,1.9972255825999998,0.3632493913175,2590237.0,1521541353.0,384984956.5,,,,,,2094356.0,1521541354.0,175464693.5,,0.22499985694865,0.8109999693934999,-1.561001586915,-0.07550000026819999,-0.07499999925494999,-0.08500000089410001,-12.0,-11.5,-4.5,0.5,11.0,139.0,150.0,176.0,185.0,189.5,-1.0,0.7249999046326501,1.9099999666235,-0.19500160217499984,-0.00350000336759998,0.004999998956950011,-0.0200000032783,1.773435039784181,0.1361993027909383,6.078701030590898,2.0312514859170845,0.011727668811319026,0.015798178708062938
