,Unnamed: 0,.header.seq,.header.stamp.secs,.header.stamp.nsecs,.header.frame_id,.endpoint_state.header.seq,.endpoint_state.header.stamp.secs,.endpoint_state.header.stamp.nsecs,.endpoint_state.header.frame_id,.endpoint_state.pose.position.x,.endpoint_state.pose.position.y,.endpoint_state.pose.position.z,.endpoint_state.pose.orientation.x,.endpoint_state.pose.orientation.y,.endpoint_state.pose.orientation.z,.endpoint_state.pose.orientation.w,.endpoint_state.twist.linear.x,.endpoint_state.twist.linear.y,.endpoint_state.twist.linear.z,.endpoint_state.twist.angular.x,.endpoint_state.twist.angular.y,.endpoint_state.twist.angular.z,.endpoint_state.wrench.force.x,.endpoint_state.wrench.force.y,.endpoint_state.wrench.force.z,.endpoint_state.wrench.torque.x,.endpoint_state.wrench.torque.y,.endpoint_state.wrench.torque.z,.joint_state.header.seq,.joint_state.header.stamp.secs,.joint_state.header.stamp.nsecs,.joint_state.header.frame_id,.joint_state.name,.joint_state.position,.joint_state.velocity,.joint_state.effort,.wrench_stamped.header.seq,.wrench_stamped.header.stamp.secs,.wrench_stamped.header.stamp.nsecs,.wrench_stamped.header.frame_id,.wrench_stamped.wrench.force.x,.wrench_stamped.wrench.force.y,.wrench_stamped.wrench.force.z,.wrench_stamped.wrench.torque.x,.wrench_stamped.wrench.torque.y,.wrench_stamped.wrench.torque.z,.tactile_values.tactile_values_0,.tactile_values.tactile_values_1,.tactile_values.tactile_values_2,.tactile_values.tactile_values_3,.tactile_values.tactile_values_4,.tactile_values.tactile_values_5,.tactile_values.tactile_values_6,.tactile_values.tactile_values_7,.tactile_values.tactile_values_8,.tactile_values.tactile_values_9,.tag,.delta_wrench.force.x,.delta_wrench.force.y,.delta_wrench.force.z,.delta_wrench.torque.x,.delta_wrench.torque.y,.delta_wrench.torque.z
0,57.176452000000005,5717.5,1521529088.0,276811003.0,,1363328.0,1521529087.0,827066128.0,,0.585893746036,-0.140331470037,-0.0517470302391,-0.0780765049923,0.983407141992,-0.16366124835,0.0054266228330400006,0.0161144941844,-0.000249096173559,0.00875890337062,-0.00316842306684,-0.0312478093364,0.00173878735529,2.10729885101,1.76816356182,2.51231741905,0.366004228592,0.579651355743,0.103507779539,539195.5,1521529087.0,824999936.0,,,,,,869057.5,1521529088.0,271942489.0,,4.309999930859999,2.14599997997,-4.089999008175,0.044999999925499995,0.265000000596,-0.08750000223515,65.0,89.5,120.0,927.0,1548.0,227.0,245.0,269.0,285.0,1461.0,5.0,0.0,0.0,0.0,0.0,0.0,0.0
1,57.2790161026,5727.5,1521529088.0,376424074.0,,1363340.5,1521529087.0,952065483.5,,0.585779332036,-0.1400430803575,-0.051930385323050006,-0.07812927019624999,0.9834160869194999,-0.163583654567,0.00537589339162,0.009321962992705,-0.0002892663051649995,0.004765469377805,0.0047211070629350005,-0.015619706006774996,0.010028850942364996,2.30593216419,1.8260459899900001,2.362628221515,0.3266159296035,0.6187643706799999,0.07104279287160001,1363692.0,1521529087.0,935154181.0,,,,,,869067.5,1521529088.0,371944387.5,,3.4750001311300003,1.87599999905,-3.84499816895,0.033999999985100005,0.28200000524549995,-0.1064999997615,81.0,87.0,115.5,938.5,1560.0,228.0,259.0,288.0,293.5,1478.0,5.0,-0.8349997997299989,-0.26999998092,0.24500083922499982,-0.01099999994039999,0.017000004649499967,-0.018999997526349996
2,57.3815802051,5739.5,1521529088.0,496408462.0,,1363352.5,1521529088.0,72063453.0,,0.586170221002,-0.13973176246000002,-0.0515721848276,-0.07813572919914999,0.9834363374015,-0.1634450954235,0.005779987605435001,0.004613733750733999,0.01910488675415,-0.0014434542039850002,0.020622295617750003,-0.013431144957619,0.01979190821565,2.184014320375,1.76073932648,2.359728097915,0.31956742703950003,0.558934569359,0.08479856699704999,951455.5,1521529088.0,71560389.0,,,,,,869079.5,1521529088.0,492631635.5,,4.16499994993,2.68600000143,-3.4299991607700004,0.037000000476849995,0.2660000026225,-0.116500001401,63.0,66.0,134.0,917.0,1570.0,246.0,252.0,286.0,290.5,1480.5,5.0,0.6899998188,0.81000000238,0.4149990081799997,0.0030000004917499906,-0.016000002622999943,-0.010000001639500003
3,57.48414430770001,5747.5,1521529088.0,576414584.5,,1363360.5,1521529088.0,152061307.0,,0.5859614219529999,-0.1404103650265,-0.051634693667099996,-0.07819797982080001,0.9833581422734999,-0.163891808528,0.005589406537844999,0.0004248977651975,0.0006050365514450005,0.0017286475874235,-0.0077520927006950015,-0.0032578978570300004,-0.0002835876853350002,2.1654064655300003,1.8330675959599998,2.430871605875,0.3185764849185,0.547452583909,0.0902647301553,1363712.0,1521529088.0,135163822.0,,,,,,869087.5,1521529088.0,572517668.5,,2.074999916555,1.940999996665,-3.4999988555900003,0.035499999299650004,0.27199999988049994,-0.10649999976199999,78.5,119.5,125.0,932.5,1568.0,253.0,257.0,265.0,285.5,1470.0,5.0,-2.0900000333750004,-0.7450000047650001,-0.0699996948199999,-0.0015000011771999916,0.005999997257999934,0.010000001639000014
4,57.5867084103,5755.5,1521529088.0,656147479.5,,1363368.5,1521529088.0,232060025.0,,0.5854770722980001,-0.1403396669435,-0.052057664741,-0.07854838032905,0.9833317918515,-0.16389695067600002,0.00512630890291,-0.010076197768040002,-0.015168004859200003,-0.007530994573455,-0.0168238297247,0.02304330903894,-0.017602200242989998,2.41102516651,1.854558467865,2.34860754013,0.317672163248,0.6621273159984999,0.0648281946778,951467.0,1521529088.0,232080759.5,,,,,,869095.5,1521529088.0,652471905.0,,3.420000064375,2.50599998031,-4.47499923706,0.0525000002235,0.2665000110865,-0.07949999719860001,99.0,105.0,109.0,919.0,1581.5,239.0,261.5,296.0,301.0,1487.0,5.0,1.34500014782,0.5649999836449999,-0.9750003814699992,0.017000000923849998,-0.005499988793999933,0.027000002563399975
5,57.689272512799995,5767.5,1521529088.0,778573989.0,,1363379.5,1521529088.0,342064491.5,,0.585983365641,-0.14019650205900006,-0.051792229066849986,-0.07851827923520001,0.9833402797975,-0.163846853391,0.005549411707524999,-0.0065528372420075,0.006848904843659999,-0.005410061444525001,0.014298311859315004,0.013598504647305002,0.00613491218811,2.3511081933950004,1.89384794235,2.354857206345,0.30902864038949995,0.6455717086795001,0.064290786162,1363732.0,1521529088.0,335161005.0,,,,,,869107.5,1521529088.0,774596409.0,,3.4300000548400003,0.470999968052,-4.7249992370600005,0.06799999997020001,0.25949999690049996,-0.0764999985695,88.0,97.0,112.5,926.5,1561.0,260.5,273.0,278.0,309.0,1481.0,5.0,0.00999999046500033,-2.035000012258,-0.2500000000000009,0.015499999746700008,-0.0070000141860000475,0.002999998629100012
6,57.7918366154,5778.5,1521529088.0,886855959.0,,1363388.0,1521529088.0,427086881.0,,0.58613232102,-0.140240765387,-0.0518892753737,-0.0782325225775,0.983393130285,-0.163664179278,0.005626734490810001,0.0170419978225,0.00229539499815,0.005843584606100001,0.00593747349168,-0.021254001505,0.0012306747818900002,2.06049752235,1.7710549831400002,2.57378768921,0.372861117125,0.526001870632,0.101511515677,951482.5,1521529088.0,448062061.0,,,,,,869119.5,1521529088.0,894201866.0,,2.85000013113,0.5610000014305,-3.6349990844699995,0.03949999995530001,0.2685000002385,-0.0760000012815,80.5,100.5,110.0,916.0,1562.0,246.5,263.0,280.0,312.5,1462.5,5.0,-0.5799999237100004,0.09000003337849999,1.090000152590001,-0.028500000014900002,0.009000003338000051,0.0004999972880000009
7,57.8944007179,5788.5,1521529089.0,7738470.5,,1363401.0,1521529088.0,557064687.5,,0.5852744715310001,-0.140198612816,-0.0517493056435,-0.07873347492555,0.9834205940205001,-0.16326003980800002,0.0055653244033950005,-0.0030796441865344995,0.0016218165777200002,0.014998427235850001,0.0240222558395,-0.02641964522025,0.02156927879565,1.7223146557799998,2.182646691795,4.420278668405,0.428682014346,0.6390991508959999,0.09093350917085001,1363754.0,1521529088.0,555156246.5,,,,,,869130.5,1521529088.5,502919979.5,,2.175000178815,2.000999969245,-2.5950000762950003,0.03150000050665,0.218499995768,-0.07000000029799999,90.5,98.0,100.5,889.0,1547.0,240.0,259.0,265.5,291.5,1447.0,5.0,-0.6749999523149999,1.4399999678145,1.0399990081749992,-0.007999999448650007,-0.050000004470500015,0.006000000983500009
8,57.996964820500004,5795.5,1521529089.0,78768968.0,,1363408.0,1521529088.0,627062586.5,,0.5849658473735,-0.1385649926375,-0.05023827397105,-0.07875311054379999,0.9838888562325,-0.1603450298465,0.007072936911604999,-0.01666340282045,0.022297396959950002,0.028267713509599994,0.07894840925565,-0.0129836000631,0.02243515385779,1.4069607853900001,2.873540997505,8.03937602043,0.18845548154800001,1.6002782583200001,-0.05220672674475,951494.5,1521529088.0,629582243.5,,,,,,869137.5,1521529089.0,72512880.5,,1.184999930855,1.2559999942795002,0.6100017547609999,-0.08449999988064999,-0.09000000357645,-0.0285000009462,72.5,82.5,93.0,702.0,1466.0,239.0,248.0,250.5,266.0,1374.0,5.0,-0.9900002479599999,-0.7449999749654999,3.2050018310560002,-0.11600000038729999,-0.30849999934445,0.04149999935179999
9,58.0995289231,5807.5,1521529089.0,197742938.5,,1363420.0,1521529088.0,747061129.5,,0.57979498268,-0.13406421335750002,-0.04228054713235,-0.07456240629225,0.9852529632314999,-0.153860862424,0.00660958575839,-0.06701000924035,0.0439118565051,0.0994861687799,0.10148087462335,0.014001949858395,-0.1246975466975,1.26637674868,3.498534679415,7.780975818634999,-0.436706364155,1.7906798720350001,-0.0400801859798,1363773.0,1521529088.0,745162244.0,,,,,,869149.5,1521529089.0,193882223.5,,0.4999999880797501,4.931000006194999,0.6850006103515001,-0.17249999940400002,-0.137499999255,-0.08500000089410001,57.5,65.0,92.5,286.0,1001.5,215.0,229.5,231.5,233.0,1119.0,5.0,-0.68499994277525,3.675000011915499,0.07499885559050012,-0.08799999952335003,-0.04749999567855001,-0.056499999947900004
10,58.20209302560001,5816.5,1521529089.0,288651943.0,,1363429.0,1521529088.0,837066588.0,,0.5751935759260001,-0.131843948863,-0.0321216717889,-0.07546924704539999,0.985278870325,-0.153230358434,0.00709913341819,-0.0519710607799,0.0182368628087,0.129837480989,-0.0198052788354,-0.00907977980164,0.0909505142749,2.91338229179,3.70247483253,6.268997669219999,-0.7947800755500001,2.18759250641,-0.18316759169100005,1363782.0,1521529088.0,835145316.5,,,,,,869158.5,1521529089.0,283931766.5,,2.01000009775,4.03100003004,0.9650012969975,-0.1630000025035,-0.11849999800319999,-0.0799999982119,30.5,51.0,89.0,108.5,787.5,218.0,219.0,244.5,255.0,1034.0,5.0,1.5100001096702498,-0.8999999761549988,0.280000686646,0.009499996900500018,0.019000001251800014,0.005000002682200008
11,58.3046571282,5828.5,1521529089.0,407809495.5,,1363443.5,1521529088.0,982063276.5,,0.5682281198025001,-0.127459889224,-0.01643317883715,-0.07975698300874999,0.984826017269,-0.1538429350455,0.009425255516055001,-0.05589456542965,0.04366983467794999,0.09669551344085,0.0279949329978,-0.010398970564315,0.05873155677545,3.83454668522,2.9085929393799996,6.05454850197,-0.27714526653250005,2.5972920656200005,-0.2069249898195,951519.0,1521529088.0,982076471.5,,,,,,869170.5,1521529089.0,405030120.5,,0.260000038147,4.1409999847400005,0.9899990081775,-0.1605000048875,-0.0195000004023,-0.0444999989122,19.0,26.0,68.5,140.0,326.0,194.0,221.0,247.0,263.0,887.0,5.0,-1.7500000596029999,0.10999995470000012,0.024997711179999937,0.002499997616000005,0.09899999760089999,0.0354999992997
12,58.4072212308,5838.5,1521529089.0,508007406.5,,1363453.5,1521529089.0,82064335.5,,0.566335250918,-0.12436459936750001,-0.008876664340104999,-0.08232953097590001,0.9846299848055,-0.15353546372500002,0.012335891549200001,0.00027019885285999983,0.0344016669885,0.05552849037245,-0.012977540262885,-0.0625022303203,0.1265387758455,7.718050956724999,3.62300133705,0.7190504372100001,-1.28581136465,3.30487656593,-0.5654014050960001,951526.0,1521529089.0,82576916.5,,,,,,869180.5,1521529089.0,503714780.0,,1.090000021458,4.64599997997,1.5999996185299998,-0.23899999260899998,-0.023499999661025,-0.04099999926985,25.0,32.0,39.0,97.0,379.0,218.5,240.0,287.0,304.0,898.0,5.0,0.8299999833109999,0.5049999952299995,0.6100006103524999,-0.07849998772149999,-0.003999999258725,0.003499999642350003
13,58.5097853333,5849.5,1521529089.0,617735504.5,,1363464.5,1521529089.0,192064483.5,,0.5675587230125001,-0.119318009931,-0.005672818209505001,-0.08619719314635,0.9845937845799999,-0.151221992077,0.016630956700799997,-0.0013845140779500005,0.041238175913949994,0.013266981990875,0.06051450200725,-0.04768184886244999,0.07849202695054999,1.37632200122,3.560116410255,5.05192565918,-1.457167327405,1.48422533274,-0.1400147285314,539250.0,1521529089.0,190000128.0,,,,,,869191.5,1521529089.0,613341894.5,,1.004999983313,3.4960000038149994,2.365000915525,-0.152000002563,-0.1314999982715,-0.05849999934435,18.5,29.0,29.0,43.0,347.0,262.5,293.0,340.0,350.0,831.0,5.0,-0.08500003814500001,-1.1499999761550006,0.7650012969950002,0.08699999004599998,-0.10799999861047499,-0.017500000074499998
14,58.6123494359,5859.5,1521529089.0,717962980.0,,1363474.5,1521529089.0,292065148.5,,0.566088211234,-0.11938688186250003,-0.003210809927255,-0.08896542562309999,0.984241895586,-0.1517738830965,0.017808135754150002,-0.0388025972186,-0.0316825407995,0.023275720524749997,-0.0425172752616,0.024189796255950004,0.039429938253550005,2.6477687358849997,1.1497168540950002,7.146334648134999,0.15249498188500005,2.358285188675,-0.08529702574025,539254.0,1521529089.0,289999872.0,,,,,,869201.5,1521529089.0,713946260.5,,0.1000000715255,2.14099998474,2.5250007629400004,-0.159000001848,-0.200499996543,-0.0410000011325,15.0,20.0,32.5,45.0,351.5,277.5,323.0,374.0,378.0,804.5,5.0,-0.9049999117874998,-1.3550000190749993,0.1599998474150004,-0.006999999285000003,-0.0689999982715,0.01749999821185
15,58.71491353850001,5866.5,1521529089.0,788307428.0,,1363480.0,1521529089.0,347698847.0,,0.562450219646,-0.121913191982,-0.00262777197379,-0.0915171846037,0.983811689747,-0.15332708266,0.0151647539498,-0.0642442466456,-0.0589003221789,0.00857655841946,-0.0866589788459,0.116068842343,0.110693119853,4.84984827042,2.30909395218,4.41760349274,-0.422928541899,2.76325345039,-0.267354756594,539256.0,1521529089.0,340000000.0,,,,,,869208.5,1521529089.0,783863745.5,,0.6449999690043,3.2709999948700004,1.6549999237100002,-0.12400000169849999,-0.119000002742,-0.0559999998659,23.0,24.0,37.0,71.0,362.5,290.5,329.0,370.0,374.0,722.0,5.0,0.5449998974788,1.1300000101300003,-0.8700008392300003,0.03500000014950001,0.081499993801,-0.014999998733400001
16,58.817477641,5880.5,1521529089.0,928156017.5,,1363493.0,1521529089.0,477688933.0,,0.5620403327175,-0.12760008442100002,-0.001079287094478,-0.0913246400061,0.983742031906,-0.1539827311165,0.01415981920685,0.007371687289694998,-0.02677705345735,0.014773323932644999,0.00650548562976,-0.00816706496508,0.0215017826133,1.7065525054914998,0.6879873275739998,9.63042974472,0.64564366265945,1.930769503115,0.10669925063855,1363846.0,1521529089.0,475758860.0,,,,,,869222.5,1521529089.0,923665784.0,,-0.1550000429155,2.560999941825,2.965001296995,-0.1650000065565,-0.1570000052455,-0.0384999997914,10.5,13.5,24.0,27.5,277.0,274.0,310.0,357.0,384.0,580.0,5.0,-0.8000000119198001,-0.7100000530450004,1.310001373285,-0.041000004858,-0.03800000250350001,0.017500000074499998
17,58.920041743599995,5888.5,1521529090.0,8061528.0,,1363501.0,1521529089.0,557695192.0,,0.562857615852,-0.130817416462,0.0004387595515340001,-0.0912583936345,0.983757193165,-0.153980896746,0.013548945521,0.0076109359274500014,-0.0535052550167,0.0167466474714,0.00803552561505,0.0283433826302,-0.000884326191221,3.90599584579,-0.330243945122,10.3466510773,1.14842557907,2.80954146385,-0.112650640309,951559.5,1521529089.0,553383753.0,,,,,,869230.5,1521529089.5,504304179.5,,-0.4450000047685001,2.9659999802700003,2.3299991607649995,-0.1744999960065,-0.160499997437,-0.0594999995083,9.5,22.0,31.5,37.0,248.0,287.0,303.0,365.0,365.0,509.0,5.0,-0.2899999618530001,0.4050000384450003,-0.6350021362300007,-0.009499989450000024,-0.00349999219149999,-0.020999999716899996
18,59.0226058462,5897.5,1521529090.0,97789406.5,,1363510.0,1521529089.0,647207613.5,,0.5626151294485,-0.134610111047,0.0020406453218350003,-0.08575612112810001,0.984288772524,-0.15391170284949998,0.0114897268352,-0.00514973629224,-0.048668163516800006,0.02648151799085,-0.04205425254374999,0.0363427090482,-0.06881656207549999,1.2228496670715,3.117270708085,7.5371606349950016,-0.6083618625980001,1.43714308739,0.003155604005000007,951565.5,1521529089.0,644388477.0,,,,,,869239.5,1521529090.0,94518313.0,,-0.825,2.505999986825,-0.079998779297,-0.0910000018777,-0.1385000012815,-0.06550000049175,10.0,11.0,12.5,16.5,92.0,290.5,339.5,376.5,380.5,394.0,5.0,-0.37999999523149985,-0.4599999934450003,-2.4099979400619995,0.0834999941288,0.021999996155499996,-0.006000000983450007
19,59.1251699487,5911.5,1521529090.0,237777471.0,,1363524.0,1521529089.0,787194232.5,,0.5621985748464999,-0.1409794145635,0.00716599248739,-0.08309622077095,0.983216499665,-0.162185113547,0.008709668399040001,0.003189788946445001,-0.009567084475399999,0.04116258920565,-0.1059475348185,0.002483732546499997,-0.0234638915154,2.096462726595,3.73914372921,5.608948946,-0.5112866014245,1.612290918825,-0.02286086604,539273.0,1521529089.0,792999936.0,,,,,,869253.5,1521529090.0,233380630.0,,-0.9249999940415,1.8909999549349998,-1.409998703,-0.01800000015645,-0.06799999810755,-0.0559999998659,5.0,5.5,8.0,14.0,23.0,232.0,245.0,252.0,308.5,319.0,5.0,-0.09999999404150006,-0.6150000318900002,-1.329999923703,0.07300000172125001,0.07050000317395,0.009500000625850005
20,59.227734051300004,5918.5,1521529090.0,308667540.0,,1363532.0,1521529089.0,867693114.0,,0.563597424824,-0.137245067947,0.00908186820552,-0.08171530593245001,0.9833492635085,-0.16206169870200002,0.009076069478879999,0.020046603552250002,0.06808697600075,0.0215477503076,0.0391339296825,-0.014287672554260004,-0.04746172240294999,2.606813669205,3.6769914627099998,6.19125175476,-0.7001126408580001,1.8400381207449998,-0.170010603964,1363885.5,1521529089.0,870774295.5,,,,,,869260.5,1521529090.0,305616537.5,,-0.8399999856935001,2.4909999862299994,-0.1099994659425,-0.041500000283150006,-0.1064999997615,-0.054999999702,-1.0,-0.5,3.0,6.0,13.0,218.0,222.0,243.0,290.5,297.5,5.0,0.08500000834799992,0.6000000312949996,1.2999992370575,-0.023500000126700005,-0.03850000165395,0.0010000001638999986
21,59.3302981538,5932.5,1521529090.0,448987483.5,,1363547.0,1521529090.0,17690415.0,,0.567139517583,-0.126104880142,0.0110509477865,-0.08653720753319999,0.983808901438,-0.156157659432,0.0156889312951,-0.008293863736180001,0.0670870832834,0.0172049679155,0.0804828379613,-0.0415516742691,0.0996260199312,1.85008978844,1.3019299507100002,4.75776863098,-0.144990742207,1.37795543671,0.104660578072,1363900.0,1521529090.0,15740164.0,,,,,,869274.5,1521529090.0,444506231.0,,0.9299999356295,3.040999986975,0.9650012969985,-0.03699999954555,-0.0719999987632,-0.0460000000894,47.5,52.5,56.0,76.5,84.5,173.5,173.5,209.0,214.0,221.5,5.0,1.769999921323,0.5500000007450008,1.075000762941,0.004500000737600006,0.0345000009983,0.0089999996126
22,59.4328622564,5940.5,1521529090.0,528637051.0,,1363555.5,1521529090.0,102689934.5,,0.566149553841,-0.124336329113,0.012341594751799998,-0.0884467591524,0.98371944888,-0.155598342885,0.01619535450345,-0.0195498388511,0.024859559608299997,0.01226394325525,0.0265206852905,0.0200786445123,0.016236682825559998,2.2365950346,-0.0889616310597,4.755740880965,0.651515543461,1.644999146465,0.161083262414,1363908.0,1521529090.0,95270085.0,,,,,,869282.5,1521529090.0,525037393.0,,0.8000000596029999,3.0959999755050003,-1.4549987793,-0.00949999975275,-0.09600000083445,-0.058500001207,78.0,87.5,96.5,103.5,117.0,166.0,191.0,197.5,215.0,221.5,5.0,-0.1299998760265001,0.0549999885300001,-2.4200000762985,0.0274999997928,-0.02400000207125,-0.012500001117600003
23,59.535426359,5952.5,1521529090.0,648271083.0,,1363567.0,1521529090.0,217708815.0,,0.5658457818020001,-0.125194507127,0.0118598380747,-0.08825497568510003,0.983767092448,-0.15543270919000002,0.0159386322294,0.0116131383338,-0.0200597056613,-0.005933074361280001,0.00907755266256,-0.007491680956810002,-0.043842905614200005,2.70885324478,2.05713653564,4.540468215940001,-0.520948946476,1.81850099564,-0.141775891185,1363920.0,1521529090.0,215783503.5,,,,,,869294.5,1521529090.0,646040216.5,,-0.5299999833110001,2.8209999816500004,-1.59999923706,-0.05700000002980001,-0.117000002414,-0.035000000148999996,81.5,101.0,104.5,118.5,124.0,196.0,207.5,226.0,249.5,253.0,5.0,-1.330000042914,-0.27499999385499985,-0.14500045775999992,-0.04750000027705001,-0.02100000157955001,0.023500001058000007
24,59.637990461499996,5960.5,1521529090.0,728488087.0,,1363574.0,1521529090.0,287687356.0,,0.5660294945435,-0.127938634008,0.011855744897749999,-0.08680573557209999,0.983735002558,-0.15650092219349998,0.01540258818955,-0.0115373583130535,-0.016589848011184998,-0.005564219140545001,0.00939893945185,0.019958436293015004,-0.0227396658156,2.38519954681,1.6755554676050002,5.04242825508,-0.14532475359719998,1.6786924004550001,-0.08844339475054999,1363928.0,1521529090.0,295740469.0,,,,,,869302.5,1521529090.0,726164075.0,,-0.16000003814700006,2.445999991895,-0.504999923706,-0.029000001028150004,-0.09699999913585,-0.0559999998659,77.0,92.5,98.5,102.0,110.5,206.5,213.0,232.5,240.0,267.0,5.0,0.36999994516400003,-0.3749999897550005,1.0949993133540001,0.027999999001650008,0.020000003278150005,-0.020999999716900003
25,59.7405545641,5972.5,1521529090.0,848183989.5,,1363584.0,1521529090.0,386884453.0,,0.565368829821,-0.131072316591,0.0116235039661,-0.0848540731167,0.983878030595,-0.156802462324,0.0140283639924,-0.0129710302696,-0.0343665653088,-0.00161017502709,-0.0283871516953,0.022276261711900003,0.00315926661141,3.24184679985,2.09780883789,5.16061067581,-0.244902908802,2.04101133347,-0.177573055029,951617.5,1521529090.0,394503063.5,,,,,,869314.5,1521529090.0,846098003.0,,-1.074999999998,2.28100000024,0.02500076293935,-0.03800000064075,-0.09950000047685001,-0.0420000012964,65.5,72.5,73.5,75.0,79.5,206.0,210.0,227.5,247.0,261.5,5.0,-0.914999961851,-0.1649999916549998,0.53000068664535,-0.008999999612599997,-0.0025000013410000077,0.013999998569500002
26,59.8431186667,5982.5,1521529090.0,947967052.0,,1363594.5,1521529090.0,491881175.0,,0.565889134647,-0.1344935940975,0.011402780341900001,-0.08202344962155,0.9840080706885,-0.1575524767575,0.0133139510607,0.01657742944007,-0.03177726943365,0.00593233420394,-0.008478874607885,-0.018991053708855,-0.05775163546945,2.18425476551,3.417019844055,4.33780026436,-1.115555763247,1.3385813236250002,-0.15534833818695,951624.5,1521529090.0,495474982.0,,,,,,869324.5,1521529090.0,944401516.0,,0.7299998879435,2.7859999805699998,-0.8849990844715001,-0.05150000005960001,-0.10099999979125003,-0.07300000265239999,39.0,42.0,51.5,59.5,63.0,202.0,208.0,215.5,259.0,265.0,5.0,1.8049998879415,0.5049999803299996,-0.9099998474108502,-0.013499999418850009,-0.0014999993144000218,-0.031000001355999993
27,59.9456827692,5993.5,1521529091.0,58400988.5,,1363605.0,1521529090.0,596884850.0,,0.565699917401,-0.135654521626,0.0115627910649,-0.08152670780460003,0.983927990459,-0.158338290078,0.0129650068292,0.000994032878923,-0.00425723179418,0.0023186906895100003,0.00201603560275,-0.0131309664013,-0.033541203747799994,1.85747635365,3.3200480938,4.7211399078400005,-0.736046373844,1.4038224220299995,-0.0737941861153,539306.0,1521529090.0,607000064.0,,,,,,869335.5,1521529091.0,54608471.5,,0.8699999928475,1.9509999871250001,-1.86999969482,-0.0340000018477,-0.09250000119210001,-0.07550000026824999,36.0,39.5,39.5,40.5,51.0,199.5,210.0,225.0,258.0,260.5,5.0,0.14000010490399994,-0.8349999934449996,-0.9850006103484998,0.017499998211900007,0.008499998599150016,-0.00249999761585
28,60.0482468718,6003.5,1521529091.0,157882928.5,,1363615.0,1521529090.0,696886473.5,,0.565589031871,-0.13511795921599998,0.011326831376749998,-0.0821658767689,0.9839198031965,-0.1580537410185,0.0130226855008,-0.004796157639255,0.014101734861365,-0.0026139360723799994,0.005412825171789999,0.004617461014970001,0.022498890515569997,2.1828563213350005,2.4183592796349997,5.038849592209999,-0.4332742542025,1.62060707808,-0.07890865951775,539310.0,1521529090.0,708000000.0,,,,,,869345.0,1521529091.0,150489901.5,,-0.8349999755602502,2.63099999428,-0.6099994659425,-0.038999998942,-0.102499999106,-0.049499999731800005,21.0,23.0,28.0,45.0,85.0,213.0,213.0,226.0,254.0,267.0,5.0,-1.7049999684077501,0.6800000071550001,1.2600002288774999,-0.0049999970942999974,-0.00999999791389998,0.026000000536449984
29,60.150810974399995,6011.5,1521529091.0,237761974.0,,1363623.5,1521529090.0,781885452.0,,0.5661304593255001,-0.13463278102300005,0.0116256303987,-0.08232009928754999,0.9839325045365,-0.15783972756950002,0.0136647094248,0.0139929352304,-6.858006490499842e-05,0.00603497625246,0.013972447894180002,-0.025317996137900003,-0.021503437366724998,2.1589478254300003,2.1232330799100003,5.15490317345,-0.30966548621650003,1.624245882035,-0.07107987254855,951645.0,1521529090.0,793967953.0,,,,,,869353.5,1521529091.0,235100432.0,,0.16999994516400002,3.4009999752050004,-1.1249988555915,-0.0460000000894,-0.109000001103,-0.07000000029805001,16.0,25.0,25.0,40.0,41.5,199.5,201.5,206.5,265.5,278.5,5.0,1.0049999207242502,0.7699999809250002,-0.514999389649,-0.007000001147400001,-0.006500001997000002,-0.020500000566250003
30,60.25337507689999,6023.5,1521529091.0,358056425.5,,1363638.5,1521529090.0,931885020.0,,0.5658083875209999,-0.13496503763950002,0.011400498222100002,-0.08212955391384999,0.983903611232,-0.158145615124,0.013354080771,0.004492697824875,0.0020523054319050004,0.0025649391181250003,0.0011732212262150002,-0.008706547897939999,-0.0025121104898750014,2.30282974243,2.70788669586,4.628339052199999,-0.7168990969654999,1.5132449865350002,-0.1472422257065,1363991.0,1521529090.0,924975810.0,,,,,,869365.5,1521529091.0,355730289.5,,-0.4550000548375001,2.81099997163,-2.4749992370599996,-0.04650000110265,-0.11100000143049997,-0.04000000003725,11.0,16.5,21.0,29.0,40.0,199.0,218.0,250.5,264.0,267.0,-1.0,-0.6250000000015001,-0.5900000035750006,-1.3500003814684995,-0.0005000010132499982,-0.0020000003274999734,0.030000000260800005
31,60.3559391795,6033.5,1521529091.0,458971976.5,,1363648.5,1521529091.0,31884219.0,,0.5655283637485,-0.13465483271,0.011402917193400001,-0.08265679321450001,0.9838440298945,-0.1582577539965,0.013154195118249999,0.0011093138965349997,0.013266969278785,0.00642035772445,0.0010577757566550012,-0.0142181877992347,0.033834284689250003,2.181407094005,2.7773168087,4.451250314715,-0.8042840063569999,1.4107747674000002,-0.13696272671249998,1364001.5,1521529091.0,29949663.5,,,,,,869375.5,1521529091.0,455681838.0,,0.38000010252,4.03100003004,-1.07499961853,-0.058500001207,-0.1125000007455,-0.057000000029800005,14.0,16.0,21.5,27.5,64.5,215.5,219.0,254.5,274.5,277.5,-1.0,0.8350001573575001,1.2200000584100006,1.3999996185299997,-0.012000000104350005,-0.001499999315000028,-0.016999999992550002
32,60.4585032821,6040.5,1521529091.0,530415534.5,,1363656.0,1521529091.0,106883764.0,,0.5651938921865001,-0.1344753396225,0.011249724575799999,-0.08288081070955,0.983828703795,-0.1582579256885,0.0128918047196,-0.001201982055765,0.00315919417626,0.0030191562131500005,-0.013429250812715001,-0.003631864535885,0.008659550204085,2.387423276905,2.642771244045,4.238857507704998,-0.9092509448515,1.4181881547,-0.196593731642,1364007.0,1521529091.0,84935169.0,,,,,,869382.5,1521529091.0,525023336.5,,0.5549999356278,2.540999990705,-0.46499900817900003,-0.05049999989569999,-0.110500000417,-0.03800000064075,6.5,12.5,13.5,20.5,30.0,210.5,222.0,245.5,260.5,270.5,-1.0,0.17499983310780004,-1.4900000393350004,0.6100006103509998,0.008000001311300013,0.002000000328499993,0.018999999389050004
33,60.5610673846,6053.5,1521529091.0,657940983.0,,1363668.5,1521529091.0,231886933.0,,0.5652589896365,-0.1351977381685,0.0114013208887,-0.08255075307750001,0.9837481852155,-0.15893049033099999,0.01287179906065,0.00010939700654000009,-0.0057082109813000005,0.002887637889445,-0.012085444957365,-0.0004979092875000006,0.011130564807265,2.713987350465,2.551595926285,4.255385398865,-0.8300790190695,1.53986954689,-0.230524048209,1364021.5,1521529091.0,229976839.0,,,,,,869395.0,1521529091.0,649195932.0,,-0.0999999761582,3.025999988245,-0.4749992370604,-0.0405000001192,-0.10550000146019999,-0.0420000012964,9.5,12.0,14.0,15.5,23.0,217.5,223.0,229.0,276.0,279.0,-1.0,-0.654999911786,0.4849999975400001,-0.010000228881399953,0.009999999776499992,0.00499999895680002,-0.004000000655649996
34,60.6636314872,6061.5,1521529091.0,737785458.0,,1363676.5,1521529091.0,311893873.0,,0.565187564011,-0.1356592680325,0.0113008171596,-0.08234804358060001,0.983737463681,-0.159124850786,0.01258838808035,-0.005032934157618,0.005511733365388001,0.0015706566116587498,-0.0036628020287,-0.002759573901035,0.002709100171524999,2.20093739033,2.51158952713,4.34745788574,-0.7523850500579999,1.40382862091,-0.15789572149550002,951681.5,1521529091.0,310991032.0,,,,,,869403.0,1521529091.0,730736932.0,,-0.2300000309944646,2.755999979375,-1.0749996185315,-0.044500000774849995,-0.1035000011325,-0.0489999987185,9.5,10.5,26.5,30.0,41.0,215.0,224.0,247.0,258.5,272.0,-1.0,-0.1300000548362646,-0.2700000088700003,-0.6000003814711001,-0.004000000655649996,0.00200000032769998,-0.006999997422100002
35,60.766195589700004,6074.5,1521529091.0,867753028.5,,1363687.0,1521529091.0,416891057.0,,0.56544854543,-0.135659576471,0.011598868556,-0.08213468090010001,0.983725068908,-0.159279200281,0.0130007442974,-0.013410832913600002,0.0034821637069700003,-0.000142495107696,-0.0175192816585,0.017505733729000002,0.0131523624732,2.53854680061,3.02865672112,4.1395592689499985,-1.0268727541,1.45078551769,-0.213867947459,951689.5,1521529091.0,420982320.0,,,,,,869416.5,1521529091.0,865698945.5,,0.4150000691415,2.4159999758,-1.0849979400649998,-0.036000000312949997,-0.09699999913575,-0.0465000011027,19.0,23.0,24.0,30.5,40.0,230.0,236.0,243.0,281.0,285.5,-1.0,0.6450001001359646,-0.3400000035749997,-0.009998321533499777,0.008500000461899998,0.006500001996750007,0.002499997615799998
36,60.868759692299996,6085.5,1521529091.0,977831005.5,,1363698.0,1521529091.0,526885235.0,,0.5651483149669999,-0.135697046929,0.011438046113200002,-0.08248726294405,0.9836650575535,-0.15949740184150002,0.0126240514533,-0.0006177791609999986,0.0041873737386950004,0.0004215236313250001,-0.002327888179700001,-0.000419015242500001,0.01267067333573,2.550904870035,2.95686876774,4.0208568573,-1.039884209633,1.450780332085,-0.2313126847145,951697.0,1521529091.0,526980614.0,,,,,,869427.5,1521529091.0,975753444.0,,-0.6850000143055,2.8959999799699996,-0.814999389648,-0.045000001788099986,-0.109500002116,-0.03800000064075,6.0,17.0,20.5,46.0,54.0,220.0,228.0,237.0,283.5,287.0,-1.0,-1.100000083447,0.48000000416999944,0.2699985504169998,-0.00900000147514999,-0.012500002980250002,0.00850000046195
37,60.971323794899995,6094.5,1521529092.0,67748427.0,,1363706.5,1521529091.0,611883278.0,,0.5650138401185,-0.1348511812375,0.011304868665950001,-0.08310576058489999,0.9836315495155,-0.159371250473,0.012771535241000002,-0.0009603533681749998,-0.004871462353685001,-0.0015564358316399992,-0.01619561019515,0.003180914244700001,-0.005789549763689999,2.520101070405,2.71408700943,4.084100723265,-0.9385715425015,1.4590367078800002,-0.2233439683915,1364060.0,1521529091.0,614949672.0,,,,,,869436.5,1521529092.0,67387272.0,,-2.19499999732,1.7909999906999998,-1.194998550417,-0.02999999932945,-0.10249999910595,-0.0430000014603,21.0,22.5,23.5,24.0,39.0,224.5,230.0,234.0,275.0,301.0,-1.0,-1.5099999830145001,-1.1049999892699998,-0.379999160769,0.015000002458649984,0.007000003010050007,-0.005000000819550002
38,61.0738878974,6104.5,1521529092.0,167961001.0,,1363717.0,1521529091.0,716893636.5,,0.5651793559335,-0.1353078955275,0.01138137595045,-0.08291434010875001,0.983564477722,-0.1598875336575,0.0127303177351,0.002150146457425001,0.000538401967707,-0.0033663987809,0.0013931686048500019,0.00017721620605000082,-0.0060297029644000005,2.70405638218,2.49731266499,4.0895485878,-0.7721761763095001,1.5794422030450002,-0.22299667447800006,1364070.0,1521529091.0,714974059.0,,,,,,869446.0,1521529092.0,161109168.0,,-1.20999999046,2.4309999764,-2.02499847412,-0.032999999821200006,-0.104999996722,-0.0399999991059,10.5,14.0,18.5,30.0,34.5,209.0,222.5,235.0,278.0,283.0,-1.0,0.98500000686,0.6399999857,-0.8299999237029998,-0.0030000004917500045,-0.0024999976160500065,0.003000002354400004
39,61.176452000000005,6116.5,1521529092.0,287826538.0,,1363729.0,1521529091.0,836889195.0,,0.5651070302985,-0.13593027284800002,0.0111384569214,-0.08256606207295,0.983576523352,-0.16001757203,0.012422899040899998,0.0002037360040265,-0.005219497497102,2.1774940604000028e-05,-0.00032468444793499985,-0.003758359009680001,-0.028633049956549996,2.74782419205,2.758592367175,4.0102956295,-0.8838598430160001,1.6008858680699998,-0.22652513533799998,539354.0,1521529091.0,822000128.0,,,,,,869458.0,1521529092.0,281491588.5,,-0.45000000000025,2.8309999823600003,-1.4049995422365005,-0.0410000011325,-0.102000001818,-0.0489999987185,11.0,17.5,19.5,21.5,31.0,213.0,221.0,254.5,275.0,295.0,-1.0,0.7599999904597501,0.4000000059600004,0.6199989318834993,-0.008000001311299992,0.0029999949040000057,-0.0089999996126
