,Unnamed: 0,Unnamed: 0.1,.header.seq,.header.stamp.secs,.header.stamp.nsecs,.header.frame_id,.endpoint_state.header.seq,.endpoint_state.header.stamp.secs,.endpoint_state.header.stamp.nsecs,.endpoint_state.header.frame_id,.endpoint_state.pose.position.x,.endpoint_state.pose.position.y,.endpoint_state.pose.position.z,.endpoint_state.pose.orientation.x,.endpoint_state.pose.orientation.y,.endpoint_state.pose.orientation.z,.endpoint_state.pose.orientation.w,.endpoint_state.twist.linear.x,.endpoint_state.twist.linear.y,.endpoint_state.twist.linear.z,.endpoint_state.twist.angular.x,.endpoint_state.twist.angular.y,.endpoint_state.twist.angular.z,.endpoint_state.wrench.force.x,.endpoint_state.wrench.force.y,.endpoint_state.wrench.force.z,.endpoint_state.wrench.torque.x,.endpoint_state.wrench.torque.y,.endpoint_state.wrench.torque.z,.joint_state.header.seq,.joint_state.header.stamp.secs,.joint_state.header.stamp.nsecs,.joint_state.header.frame_id,.joint_state.name,.joint_state.position,.joint_state.velocity,.joint_state.effort,.wrench_stamped.header.seq,.wrench_stamped.header.stamp.secs,.wrench_stamped.header.stamp.nsecs,.wrench_stamped.header.frame_id,.wrench_stamped.wrench.force.x,.wrench_stamped.wrench.force.y,.wrench_stamped.wrench.force.z,.wrench_stamped.wrench.torque.x,.wrench_stamped.wrench.torque.y,.wrench_stamped.wrench.torque.z,.tactile_values.tactile_values_0,.tactile_values.tactile_values_1,.tactile_values.tactile_values_2,.tactile_values.tactile_values_3,.tactile_values.tactile_values_4,.tactile_values.tactile_values_5,.tactile_values.tactile_values_6,.tactile_values.tactile_values_7,.tactile_values.tactile_values_8,.tactile_values.tactile_values_9,.tag,.delta_wrench.force.x,.delta_wrench.force.y,.delta_wrench.force.z,.delta_wrench.torque.x,.delta_wrench.torque.y,.delta_wrench.torque.z,.wrench_stamped.wrench.force.magnitude,.wrench_stamped.wrench.torque.magnitude,.endpoint_state.wrench.force.magnitude,.endpoint_state.wrench.torque.magnitude,.endpoint_state.twist.linear.magnitude,.endpoint_state.twist.angular.magnitude
0,0,48.986149,4895.5,1521546783.0,421969055.5,,3132791.0,1521546782.0,457447656.0,,0.658466711673,-0.177954308548,0.019041916003499998,0.201750646633,0.978543188318,-0.00990035691429,0.040643426439099996,0.014514464196600001,-0.00324024403573,0.00731829865858,-0.010510511414299999,-0.011242782664,0.0158280712916,-0.9480040073389999,1.20754432678,8.338357925419999,0.334903478622,-0.09947681427,0.274003922939,2186164.0,1521546782.0,453764419.0,,,,,,2636712.0,1521546783.0,416029362.0,,-1.254000002144,-3.238000029325,-0.08799972534164999,-0.024000000208650004,-0.1560000032185,-0.1185000017285,310.5,339.0,408.0,471.0,556.0,92.0,242.0,332.5,392.5,733.5,5.0,0.0,0.0,0.0,0.0,0.0,0.0,3.473457088686437,0.1973683141333525,8.478507403516486,0.4439978900359617,0.016574870967269728,0.022077111519219213
1,1,49.0887131026,4907.5,1521546783.0,541969418.0,,3132801.0,1521546782.0,557447174.0,,0.6579858989455001,-0.1778979156455,0.018641524036650002,0.201858762454,0.978541111492,-0.00992696478488,0.040144416244050005,-0.0017513346391500005,0.000183751097795,0.001188161294615,0.00757484028159,-0.0037956479403,-0.0037627027524165,-0.9162106812,1.1005080342285,8.3463807106,0.394951492548,-0.07435557246204999,0.2854553759095,2186172.0,1521546782.0,564280923.0,,,,,,2636723.5,1521546783.0,533805959.0,,0.3909999489785,-2.34300001115,-0.05299987792977,-0.016999999992550002,-0.16800000518599995,-0.13349999487400002,305.5,343.5,411.0,454.5,564.0,140.0,272.0,365.0,417.5,756.0,5.0,1.6449999511224995,0.8950000181750002,0.03499984741187999,0.007000000216100003,-0.01200000196749998,-0.014999993145500018,2.3759922136679363,0.21525624351827927,8.468331058244134,0.49295050893338777,0.0021243033555141608,0.009270549098157282
2,2,49.1912772051,4920.5,1521546783.0,671972036.0,,3132815.0,1521546782.0,697443793.5,,0.658402888508,-0.177801132781,0.01900311535525,0.20170894789,0.978557463752,-0.0097438829222,0.040543383897050006,0.008003210718539999,-0.0046700948396899995,0.004030266448685,-0.0008346232812150006,-0.01443117148235,-0.008924210295545,-0.8450165390969999,1.05905669928,8.307490825650001,0.4609661996365,-0.030069164000440005,0.3045753538605,3133167.5,1521546782.0,690525380.5,,,,,,2636736.5,1521546783.0,663799565.0,,-0.024000012874600008,-2.2180000148700003,0.6720005035400001,-0.028500000014900002,-0.162000000477,-0.13599999994,304.0,351.0,431.0,468.0,568.0,126.0,237.0,351.0,399.0,729.5,5.0,-0.4149999618531,0.12499999627999968,0.7250003814697701,-0.011500000022349995,0.006000004708999973,-0.002500005065999983,2.3176895269512086,0.21342973115074035,8.417247641711407,0.5533173935547767,0.010104663045567066,0.016988138090257253
3,3,49.293841307700006,4928.5,1521546783.0,751971482.5,,3132822.5,1521546782.0,772446319.0,,0.6580936988149999,-0.17782599133100002,0.018737467694700003,0.2019203314335,0.978524650452,-0.009806967433015,0.04026763369479999,0.002344845380880001,-0.0016613218163549991,0.0010872918572599995,0.0049980413168975,-0.0033739635139000005,-0.00516718332687,-0.799750417471,1.092760384083,8.253248214725001,0.4483287483455,-0.0106455180794,0.3042430579665,3133175.0,1521546782.0,765539384.5,,,,,,2636745.0,1521546783.0,747058655.0,,0.840999877453,-2.4380000174000003,-0.5680011749270001,0.0010000000474999998,-0.184000000358,-0.118000000715,305.0,335.5,425.0,454.0,592.5,107.0,246.5,370.0,421.0,736.0,5.0,0.8649998903275999,-0.22000000253,-1.2400016784670005,0.0295000000624,-0.021999999880999987,0.01799999922500001,2.6407859082926084,0.21858865547090725,8.363601621378656,0.5419186580742802,0.003072538628007018,0.007941273848195027
4,4,49.3964054103,4938.5,1521546783.0,851972937.0,,3132832.0,1521546782.0,867478281.0,,0.658141494453,-0.17754332320799998,0.018779216576400002,0.202045387311,0.978497697753,-0.009620706818299999,0.040340537420199996,-0.011621636807,-0.0161618639346,-0.00996455758752,-0.0012591107703599999,0.0326115108763,-0.0219813245646,-0.780544817448,1.27110016346,8.142134666439999,0.426245391369,-0.0062134992331300005,0.320290982723,3133185.0,1521546782.0,865499734.0,,,,,,2636755.0,1521546783.0,846630571.0,,0.37599996328355,-2.7980000065599997,0.217000579834,-0.01150000002235,-0.169500000775,-0.129000000656,306.0,364.5,401.5,477.5,574.0,94.0,241.5,351.5,389.0,751.0,5.0,-0.46499991416945,-0.3599999891599999,0.7850017547610001,-0.012500000069850001,0.014499999582999997,-0.010999999941000009,2.831478281878087,0.21331549505951752,8.277638719105646,0.5332073282032957,0.02226119259674431,0.03934812106290918
5,5,49.498969512799995,4950.5,1521546783.0,971969961.5,,3132846.5,1521546783.0,12442781.5,,0.6584954126270001,-0.1777506492225,0.018965223401549998,0.202387219018,0.97842107732,-0.009601877715415002,0.0404889310284,0.0023896151513,-0.0008204004245600005,-0.0053864292755225005,0.0014287591561949998,0.003123331424350003,-0.005546209873450003,-0.8035998046395,1.1412203908,8.237768173220001,0.5542478859425,0.014296735636900003,0.35706102848050003,2186203.0,1521546783.0,12265481.0,,,,,,2636767.0,1521546783.0,966482677.0,,0.32099989652600003,-3.7479999899900003,0.43199882507299997,-0.00300000002608,-0.17499999702,-0.128999993205,307.0,348.0,414.0,455.0,565.5,115.0,229.0,350.0,360.5,723.0,5.0,-0.05500006675754998,-0.9499999834299996,0.21499824523900005,0.00849999999627,-0.005499996245,7.451000011426956e-09,3.786445278014618,0.21742814262198565,8.355176904297762,0.6594601532929448,0.005949532567197746,0.006523572324508832
6,6,49.6015336154,4957.5,1521546784.0,42019486.0,,3132853.5,1521546783.0,82448518.0,,0.6581148976715,-0.17787502052100002,0.01871453763095,0.20208881998349998,0.978491231416,-0.009829600501185,0.040228697797199994,0.0002777419111000008,0.011320718752580002,0.0037936107418400002,0.011643230525365,-0.0045925049601500045,0.0024481360496749994,-0.7662562727925,1.17666989565,8.197180747989997,0.5200935602185,0.010755257681,0.34263925254350003,1239209.0,1521546783.0,70000128.0,,,,,,2636773.5,1521546784.0,33525081.0,,-0.3740000367165001,-2.7030000031,0.2020011901855,-0.004500000213739999,-0.1710000038145,-0.1349999979135,293.0,372.5,428.5,467.0,568.0,113.0,242.5,345.0,378.0,737.0,5.0,-0.6949999332425001,1.0449999868899995,-0.2299976348875,-0.0015000001876599991,0.003999993205499985,-0.006000004708500012,2.736218106266184,0.21791340193555714,8.316578198642796,0.6229082150141444,0.01194266704320278,0.01275340303579841
7,7,49.7040977179,4971.5,1521546784.0,181970476.5,,3132867.5,1521546783.0,222448606.5,,0.6583054736330001,-0.1776905595885,0.018836993620150004,0.20200534373149998,0.9785004379119999,-0.009644195957425002,0.040467216680550006,-0.002235082809619999,-0.0019546618267905,0.0012356228044530001,-0.00224600406809,0.0003776296846999989,-0.00356789317383,-0.7641254663465,1.2145545482649998,8.14038658142,0.5059485286475,-0.01619602926074,0.341638997197,1239215.0,1521546783.0,220999936.0,,,,,,2636787.5,1521546784.0,173780834.5,,0.39599994421,-3.42300000191,0.2319999694825,-0.003000000026075,-0.1669999957085,-0.148999996483,333.0,351.0,430.0,453.0,541.0,124.5,270.0,336.0,356.0,756.0,5.0,0.7699999809265001,-0.7199999988099997,0.02999877929699998,0.0015000001876649995,0.004000008106000014,-0.013999998569499987,3.4536312708119357,0.22382805346678392,8.265889194393623,0.6107073189426804,0.0032160630805155395,0.004232847759193113
8,8,49.806661820500004,4978.5,1521546784.0,251990556.0,,3132874.5,1521546783.0,292443996.0,,0.6583150887565,-0.177354194761,0.01904130731095,0.20162274420050005,0.9785768174275,-0.009592799978445,0.04054169404755,-0.0062523254803055,0.00584015216443,-0.0005080145980150006,0.003592865549695,0.013890952165365,-0.00769178188003,-0.835286051035,1.1745153069499998,8.05454921722,0.511198088527,-0.0633361414075,0.328112125397,2186222.5,1521546783.0,283772107.0,,,,,,2636795.0,1521546784.0,246862908.0,,1.74100021124,-1.10800000429,0.881999588013,0.0,-0.17700000107299999,-0.170000001788,289.0,396.0,424.0,459.0,558.0,117.0,271.0,327.5,381.0,755.5,5.0,1.3450002670299999,2.31499999762,0.6499996185305,0.003000000026075,-0.01000000536450002,-0.021000005305000014,2.244252440858529,0.24541597541268986,8.182478358415182,0.6107311350787562,0.008570707674817182,0.016279764845003184
9,9,49.9092259231,4990.5,1521546784.0,371976017.5,,3132886.5,1521546783.0,412447598.5,,0.6585955736325,-0.17757002220100002,0.01902203128625,0.2019440607095,0.9785023595785,-0.009613804976285,0.040733860439699995,0.01058698088518,0.003304139102315,0.00518235539722,0.002652439242124,-0.01913775507125,0.0048274883867805,-0.7795818448065,1.28596276045,8.04532456398,0.4557931423185,-0.0411775726825,0.30432736873599997,3133239.5,1521546783.0,410522181.5,,,,,,2636807.0,1521546784.0,366675668.0,,1.8510001063350001,-2.02800001726,0.4369998931885,0.008499999996275001,-0.195500001311,-0.15300000459000002,314.0,348.0,437.0,450.0,552.0,115.0,251.0,361.5,370.0,744.5,5.0,0.10999989509499987,-0.9200000129699996,-0.4449996948245,0.008499999996275001,-0.01850000023799997,0.016999997197999994,2.7802795489492604,0.24839787019432696,8.184662205234622,0.5495981517785266,0.012241662752000192,0.019914661614619893
10,10,50.01179002560001,4999.5,1521546784.0,461992978.5,,3132893.5,1521546783.0,482586446.0,,0.6585843801960001,-0.17768743307399998,0.0190844267187,0.20205860742,0.978483277215,-0.009604849524825002,0.04062643135265,0.01253675863632,-0.00167862929112,0.004873860188275,0.004060875337879999,-0.018139107216125,-0.00301434361394,-0.7461505234245001,1.2370252013199998,7.8970367908500005,0.4806256741285,-0.047171356156480014,0.32192580401899995,2186236.0,1521546783.0,479321812.5,,,,,,2636815.5,1521546784.0,454020900.0,,1.64100006819,-1.848000021275,0.811999893188,-0.00400000007357,-0.17950000613949998,-0.1585000008345,295.0,375.5,430.0,439.5,599.0,110.0,251.0,365.0,377.5,720.0,5.0,-0.2100000381449998,0.1799999959849996,0.3749999999995,-0.012500000069845002,0.015999995171499998,-0.005499996244499983,2.6014090660581064,0.2394963516824538,8.028085825920517,0.5803984827395711,0.01355516973472491,0.018830936953077533
11,11,50.1143541282,5012.5,1521546784.0,591992020.0,,3132906.0,1521546783.0,607594491.0,,0.658332489379,-0.17792453499299998,0.018786591621400003,0.20203811542300001,0.978494518301,-0.00952415695891,0.0404767588272,0.000522894166429,-0.0027624132522300004,0.000560730840929,-0.00761059064482,-0.000906516172695,0.0016219781305,-0.753658592701,1.19404792786,8.12589454651,0.562324404716,-0.009285219013690001,0.363311439753,2186244.5,1521546783.0,610818313.0,,,,,,2636829.0,1521546784.0,586496392.0,,2.00099996328,-1.2080000281325,0.7119995117190001,0.008000000379979999,-0.17899999767549998,-0.16099999845000001,314.0,346.0,423.0,450.0,579.0,97.5,243.0,345.0,358.0,712.0,5.0,0.35999989508999986,0.6399999931425,-0.10000038146899992,0.012000000453549998,0.0005000084640000013,-0.0024999976154999877,2.4434009547560502,0.24088586233901044,8.247661117515666,0.6695447361354832,0.0028668387400323635,0.007834135216486857
12,12,50.2169182308,5018.5,1521546784.0,651973485.5,,3132912.0,1521546783.0,667589904.0,,0.658052632897,-0.177109734055,0.0186872151609,0.20153901850699998,0.978608410639,-0.0096707952083,0.0401755941619,0.004535041860470001,0.0014556034697000002,-0.00440543422223,0.0032234765760899998,-0.005412323746270001,0.00186109519872,-0.603502571583,1.35018277168,7.90697097778,0.405644446611,-0.0199923738837,0.313927471638,2186249.0,1521546783.0,671320233.5,,,,,,2636834.5,1521546784.0,643363562.0,,1.40599993467,-0.9230000019075,0.8369995117190001,0.004500000039115,-0.19299999624449998,-0.1335000023245,323.5,353.0,445.0,456.5,594.5,108.0,219.0,351.0,352.0,737.0,5.0,-0.5950000286099999,0.2850000262250001,0.125,-0.0035000003408649986,-0.013999998569000027,0.0274999961255,1.87865191092739,0.23471578381389382,8.044090931503945,0.5133201433110505,0.006487930087756274,0.006568692785458738
13,13,50.3194823333,5031.5,1521546784.0,781972527.0,,3132925.5,1521546783.0,802581813.5,,0.65850097873,-0.17763499509350006,0.018876107975500003,0.202037043117,0.978492680177,-0.00959918730706,0.040508512031949995,0.008006696848640001,0.00305705581944,0.0021719661006350003,0.00337001609277,-0.016809087737408003,-0.004013980553799999,-0.6265471875670001,1.34932655096,7.94220256805,0.4389486163855,-0.0060797678307000025,0.31625670194600003,3133278.0,1521546783.0,795639148.0,,,,,,2636847.5,1521546784.0,773309534.5,,1.2809999346735002,-2.2430000059300004,1.0120006561295,0.00600000005215,-0.17350000143049998,-0.128999993205,322.0,355.5,425.0,447.0,578.0,91.5,225.0,317.0,343.5,710.0,5.0,-0.12499999999649992,-1.3200000040225004,0.17500114441049994,0.0015000000130349998,0.019499994814000027,0.004500009119499993,2.7741945114288638,0.21628510985248,8.080335707835024,0.5410463500749091,0.008841392506359012,0.01760722803043379
14,14,50.4220464359,5043.5,1521546784.0,901975989.0,,3132937.5,1521546783.0,922594715.5,,0.6584130866910001,-0.177397255953,0.0193671034548,0.2017955064465,0.9785212521065,-0.00954878625148,0.041030756566349996,-0.011205335874120002,0.015053790910555,0.003558494320755001,0.008661113976105,-0.01843685945425,0.04704647821465,-0.7131981104595,1.19275343418,8.412289619445,0.8668715655804999,0.3613904342055,0.496885240078,2186266.0,1521546783.0,917822282.5,,,,,,2636859.5,1521546784.0,895214131.0,,0.4510000109675,-1.6980000078699995,1.1820007324234998,-0.0154999997467,-0.17050000280150002,-0.16849999874850002,302.5,334.0,416.0,457.5,585.0,100.0,191.0,341.5,351.0,740.0,5.0,-0.8299999237060002,0.5449999980600009,0.1700000762939997,-0.02149999979885,0.0029999986289999674,-0.039500005543500034,2.1174821765646326,0.24021396821522206,8.526308048676947,1.0625273168039486,0.019100760578086795,0.051266985421852006
15,15,50.524610538500006,5050.5,1521546784.0,971968412.0,,3132946.5,1521546784.0,12586274.5,,0.655613343441,-0.1770209779295,0.0199125114899,0.20282054758499998,0.9783496138195,-0.00758556875547,0.0404681018137,-0.059194623568199996,0.0280897031569,0.006908854698385,0.11343391961625,0.046185521056850004,-0.09359846062845,0.15634288825110002,1.0014474689945,12.69385433195,1.37419885397,1.388279378415,0.5459629148240001,3133299.5,1521546784.0,10646161.5,,,,,,2636866.5,1521546784.0,964298906.5,,0.6059999823569999,-2.21800001394,4.641997909545,-0.10149999894225,-0.2370000034575,-0.1435000002385,289.0,337.0,378.0,471.0,577.0,100.0,189.5,307.5,335.0,707.0,5.0,0.15499997138949995,-0.5200000060700007,3.4599971771214997,-0.08599999919554999,-0.06650000065599998,0.02499999851000004,5.180241754269262,0.29506524955097857,12.734256080848539,2.0282548230308532,0.06588449860222853,0.15414612647359682
16,16,50.627174641,5062.5,1521546785.0,91972946.5,,3132958.5,1521546784.0,132584195.0,,0.6425010338605001,-0.17561141186200002,0.0241314303692,0.2113403318515,0.97690695471,-0.0052054355622099995,0.03098885274995,-0.146913486983,0.0042216220581,0.05522259451195,0.05740997909700001,0.22574719749549998,-0.17758189417800002,0.26908814907050005,1.7187960743900002,15.157613277449999,0.6277326345445,1.24910902977,0.5378513932225,2186281.0,1521546784.0,129319679.5,,,,,,2636878.5,1521546785.0,84241165.0,,0.5060000777245,-0.4530000329015,7.231998062135001,-0.296000003815,-0.2660000026225,-0.17499999701949998,241.5,283.5,291.5,475.0,620.0,94.0,242.5,247.0,303.0,522.0,5.0,-0.09999990463249996,1.7649999810385002,2.590000152590001,-0.19450000487275002,-0.028999999165000005,-0.03149999678099999,7.263817252601442,0.4347378550465499,15.25712648718746,1.4978670668375462,0.15700614540500255,0.29290447592489377
17,17,50.729738743599995,5071.5,1521546785.0,181986093.0,,3132967.5,1521546784.0,222584682.0,,0.6277461859525,-0.1772823808295,0.03044617265805,0.210979648495,0.9771860467694999,-0.01162029110565,0.02143018159275,-0.17985171472199998,-0.0416959794294,0.07750425435605,-0.216004678564,0.2516337016115,0.16228160300650002,2.074707627295,1.2620766162875,15.074766159100001,0.5443890988825,1.4449457526199998,0.5181034207345,3133320.5,1521546784.0,220660735.0,,,,,,2636887.5,1521546785.0,173598624.0,,0.27099994421,-0.8380000233634999,5.181998825075,-0.1785000041125,-0.191500000656,-0.109999999404,157.0,159.0,201.0,289.5,432.5,37.0,48.0,193.0,220.0,306.0,5.0,-0.23500013351449994,-0.38499999046199984,-2.049999237060001,0.11749999970249995,0.0745000019665,0.06499999761549997,5.25631019175978,0.2839621481611423,15.269113395206755,1.6286985213886174,0.2002301261856165,0.3692057145042607
18,18,50.8323028462,5082.5,1521546785.0,291970491.0,,3132978.5,1521546784.0,332593767.0,,0.6249395385234999,-0.17581130373750006,0.0456237943836,0.2048830335455,0.9783021677425,-0.014279024491600003,0.02726663926205,0.0529647723305,0.047950946172099995,0.17364662145050005,0.0261280680741,-0.25306080585,0.08293319570619999,3.7363799810400002,2.2161424160000003,7.046480178834997,0.554525837302,1.6905303001399998,0.5062277019025001,2186295.0,1521546784.0,330326201.5,,,,,,2636898.5,1521546785.0,285332463.0,,1.021000063417,-3.353000038865,-0.32300033569349995,-0.06349999830125,-0.1455000042915,-0.1160000003875,143.5,144.0,145.0,147.5,178.0,51.5,53.5,90.0,103.5,137.0,5.0,0.7500001192069999,-2.5150000155015,-5.5049991607685005,0.11500000581125,0.0459999963645,-0.006000000983499995,3.5198550548260252,0.1966176521144154,8.277965056789336,1.8497724417074681,0.18777036371055628,0.26758244028481964
19,19,50.9348669487,5092.5,1521546785.0,392030953.5,,3132988.5,1521546784.0,432588945.0,,0.6337521820040001,-0.168965307267,0.0634950241317,0.203756786795,0.9780626294675,-0.0076847914173299985,0.0426256830737,0.09263388407269996,0.07719284539785,0.185452158818,0.08215479576189999,-0.306626305389,-0.016132731203400003,3.25204920769,1.47201967239,1.645547568795,0.3670927882195,1.63134586811,0.534575983882,2186302.0,1521546784.0,430818923.5,,,,,,2636908.5,1521546785.0,384878582.5,,2.275999820235,-1.7280000165149998,-1.1980003356949998,-0.07200000062584999,-0.15600000321899998,-0.133499998599,133.5,136.0,146.0,156.0,169.0,27.5,29.5,44.0,46.5,99.5,5.0,1.254999756818,1.62500002235,-0.8750000000014998,-0.008500002324599992,-0.010499998927499976,-0.0174999982115,3.0986067906578474,0.21758274453729876,3.93071148347312,1.7555107345458598,0.22120640829159421,0.3178511705803031
20,20,51.037431051300004,5103.5,1521546785.0,502188920.5,,3132997.0,1521546784.0,517612034.0,,0.6414190531889999,-0.164503174129,0.07575403041539999,0.19955150428500001,0.978317038285,-0.00537840257269,0.0551909641653,0.0865145409376,0.041456405839,0.131436666887,-0.0291561838446,-0.26412562339400003,0.09125212541489999,3.16603755951,0.6919378042219999,-1.09526908398,0.687257289886,1.65080976486,0.536712706089,2186308.5,1521546784.0,526322984.5,,,,,,2636919.5,1521546785.0,494995723.0,,0.910999929905,-3.3780000448250003,-2.8530010223400004,-0.08100000023840001,-0.08449999988080001,-0.1370000019665,138.5,143.0,148.5,153.5,158.5,13.5,18.5,30.0,34.0,42.5,5.0,-1.36499989033,-1.6500000283100005,-1.6550006866450009,-0.008999999612550021,0.07150000333819997,-0.0035000033675000037,4.514467854420685,0.18019503477426066,3.4208458193058027,1.8669643786467793,0.16272368229946046,0.280961524736726
21,21,51.1399951538,5115.5,1521546785.0,622037529.5,,3133009.0,1521546784.0,637589979.5,,0.645681217927,-0.1597494909965,0.0839263431941,0.19582263462549998,0.9785836371834999,-0.00257020471529,0.06340912463005001,0.011289058209400002,0.0296607808928,0.0382128147894,-0.003837973125095,-0.07436878958599999,0.05972226075015,2.052079856395,0.564701497555,3.8155977726,0.6372981667515001,1.266293287275,0.5350003689525,2186317.0,1521546784.0,641818963.5,,,,,,2636931.5,1521546785.0,615482720.5,,0.12099996805189998,-1.963000008465,-1.9030002594,-0.08850000053644999,-0.0634999983013,-0.14599999785450002,80.0,81.0,82.0,101.5,114.0,-8.0,-4.5,14.0,18.0,45.0,5.0,-0.7899999618531,1.4150000363600002,0.9500007629400004,-0.007500000298049979,0.021000001579500008,-0.008999995888000017,2.736680473270239,0.182155151595366,4.3690623571463325,1.5152138586753552,0.04967317155723901,0.09545781964461894
22,22,51.24255925640001,5125.5,1521546785.0,722218513.0,,3133018.0,1521546784.0,727597115.0,,0.646656793635,-0.158834447628,0.0872120819056,0.194677650284,0.978649903011,-0.00251397292154,0.0658685035179,0.012224861510100002,0.0024754048870500004,0.0311329201086,-0.015063676693799996,-0.0390635977385,0.0310318306542,2.05142068863,0.43727409839599996,4.0374174118,0.686678886414,1.06835222244,0.516175508499,1239275.0,1521546784.0,739000064.0,,,,,,2636941.5,1521546785.0,715575521.0,,-0.20399996042240004,-2.6179999947550003,-3.5779994964600004,-0.07550000026819999,-0.06399999931455,-0.14650000631799998,77.0,78.0,81.5,89.5,105.0,2.5,7.5,10.5,21.0,45.0,5.0,-0.32499992847430004,-0.6549999862900002,-1.6749992370600004,0.013000000268250005,-0.0005000010132499981,-0.0005000084634999569,4.438200125395151,0.17680074039419244,4.549755469909678,1.3708907760334006,0.03353853876936838,0.052113851686107625
23,23,51.345123359,5135.5,1521546785.0,822091459.5,,3133029.0,1521546784.0,837596498.0,,0.6476237144070001,-0.156998602293,0.08689045907,0.19293759681699998,0.978941199411,-0.00142843596927,0.066687115699,0.000577879739236,-0.00261551423694,0.00257993598497,0.00641011408566,-0.00263328969569,-0.011483902642299999,0.214111164212,0.10740006715099999,4.704207897190001,0.722061932087,0.672933101654,0.528255343437,1239278.5,1521546784.0,825500032.0,,,,,,2636951.5,1521546785.0,815367906.0,,1.54599992037,-3.72300001383,-2.00799980164,-0.07050000131129999,-0.129500005394,-0.11749999970200001,71.5,72.0,74.0,81.5,92.5,5.0,5.0,9.0,16.0,24.0,5.0,1.7499998807924002,-1.1050000190749998,1.5699996948200003,0.004999998956899995,-0.06550000607945,0.029000006615999982,4.503654966818451,0.18853846162496746,4.71030257043526,1.1194936806166558,0.0037189957519736996,0.013412822115812495
24,24,51.447687461499996,5145.5,1521546785.0,922012924.5,,3133039.5,1521546784.0,942582525.5,,0.6449855665155,-0.15906129594149998,0.08554072639330003,0.1945802214455,0.9787956653065,-0.002914927889565,0.06394299686195,-0.012789346249895,-0.0061865912419200005,-0.008791494901414999,-0.00991733819886,0.03386228952845,-0.00214812597113,2.1675195694,0.6882919967175001,6.3843238353750005,0.5031143128875,1.11684066057,0.39992120862,1239282.5,1521546784.0,927500032.0,,,,,,2636961.5,1521546785.0,915056330.5,,0.6810000300404999,-3.048000001905,-3.5180000305200005,-0.06400000117719999,-0.0764999985695,-0.13550000637749998,89.0,94.0,108.0,109.0,168.0,23.5,28.0,32.5,33.0,42.5,5.0,-0.8649998903295002,0.6750000119249999,-1.5100002288800003,0.006500000134100001,0.053000006824500005,-0.018000006675499988,4.7042947683225345,0.16825130507701164,6.777276576281558,1.288562783118765,0.0167072341007095,0.03535000274748201
25,25,51.5502515641,5153.5,1521546785.5,502006530.0,,3133048.5,1521546785.0,32589477.0,,0.6455667633384999,-0.16036283749000002,0.08561090206800001,0.195758064055,0.9785239873405,-0.003033025210385,0.06450064334080001,0.008797903997219999,-0.01014657322368,0.004910696889425001,-0.004157835210045001,-0.018956844341245,-0.014823420968517,1.6199552416799998,1.14171242714,5.3516581058499995,0.3033688813445,0.9696879088895001,0.371853083372,3133402.0,1521546785.0,35644763.5,,,,,,2636969.5,1521546785.5,494879662.0,,-1.753999987245,-2.20300001148,-3.3979991912800003,-0.08799999952314999,-0.07400000095364999,-0.13050000369550002,69.0,73.0,77.0,79.0,126.0,-23.5,-12.0,-6.5,-3.0,-1.5,5.0,-2.4350000172855,0.8449999904250003,0.12000083924000028,-0.02399999834595,0.0024999976158500137,0.00500000268199996,4.413176124944015,0.17392599294452832,5.706838593585982,1.0819436373619322,0.01429933588904072,0.024420961287835337
26,26,51.6528156667,5166.5,1521546786.0,132005452.5,,3133062.0,1521546785.0,167584579.0,,0.646004384048,-0.1596823979745,0.08606615121745001,0.1948920506315,0.9786469986515,-0.0027569572842399996,0.06526405091950001,-0.0038018654135150006,-0.009962840726689001,0.00191484007772,-0.0027890412104299997,0.0118691119932,-0.021772654279150004,1.22810548544,0.893414348364,5.103295326235,0.3841972798110001,0.9119067192075001,0.4102220982315,3133415.5,1521546785.0,170638198.5,,,,,,2636982.5,1521546786.0,125552754.5,,-1.1239999771095,-1.147999995946,-3.24300041199,-0.09600000083460003,-0.0765000022948,-0.127500001341,68.0,71.5,72.0,83.5,182.0,-105.0,-103.0,-102.5,-102.0,-78.0,5.0,0.6300000101355001,1.0550000155339998,0.15499877929000005,-0.008000001311450025,-0.0025000013411500127,0.0030000023545000143,3.6191617277211425,0.17698729008971975,5.324477013566918,1.0711972667195397,0.010834158411759418,0.02495401860903349
27,27,51.7553797692,5174.5,1521546786.0,212012529.0,,3133070.0,1521546785.0,247580980.0,,0.645406396452,-0.15915804715600002,0.0857761175635,0.19476764265299998,0.978710625743,-0.00255365457746,0.0646881386448,-0.020677528083900002,-0.010755744274299999,-0.015373989144700001,-0.00869887915311,0.04151550889669999,-0.011460275817799999,1.67878592014,1.0149278640700001,5.49413919449,0.300020217896,1.0038092136399999,0.36442303657499997,2186359.5,1521546785.0,250819323.0,,,,,,2636990.5,1521546786.0,204280830.5,,-0.5340000033365,-1.75300000757,-2.648001098635,-0.08650000020859999,-0.06949999928475001,-0.14849999547,63.0,65.5,71.0,73.5,81.0,-109.0,-106.5,-103.0,-102.0,-99.0,5.0,0.5899999737730001,-0.605000011624,0.5949993133550002,0.009500000626000024,0.007000003010049993,-0.020999994129,3.2202600591374555,0.18537731412246233,5.833863747411078,1.109256155322774,0.027921420894645818,0.043937977869861505
28,28,51.8579438718,5184.5,1521546786.0,312054991.0,,3133079.5,1521546785.0,342586084.5,,0.6452231088705,-0.1596126910265,0.08526464337010001,0.19476294147849998,0.9787366506535,-0.00300208682754,0.06428736324484999,0.005695470200199999,-0.0009651881991685,0.002094184121049999,0.00834342205155,-0.012047341291549999,-0.019522276346765,1.974478542805,1.180270910265,4.895539045335001,0.2480211779475,1.068441450595,0.35500085353849997,3133433.5,1521546785.0,350639175.5,,,,,,2637000.5,1521546786.0,303939935.0,,-0.5090000271799999,-2.02800001353,-2.23800125122,-0.0650000013411,-0.12900000065599998,-0.123000003397,62.5,67.0,73.5,75.0,102.0,-99.0,-95.0,-87.5,-82.0,-78.5,5.0,0.02499997615650007,-0.2750000059599997,0.409999847415,0.021499998867499998,-0.05950000137124997,0.025499992073000008,3.0627625900499056,0.1897234861034685,5.409057910765483,1.1528691357101537,0.006144556631201174,0.024410456724216295
29,29,51.960507974399995,5195.5,1521546786.0,422237515.0,,3133089.0,1521546785.0,437600156.0,,0.645686823592,-0.159318786092,0.0853220849343,0.19498237817800002,0.978675096623,-0.0024779890088600003,0.0645816306809,0.00344738305199,0.00787141404112,0.0032988974027399996,0.0132923325202,-0.0029086174498299997,-0.00321657263379,1.5793331861500002,1.05991542339,4.402254581449999,0.17443487048099998,0.902549684048,0.319687187672,2186373.0,1521546785.0,445961521.5,,,,,,2637011.5,1521546786.0,415398423.0,,1.2909999251389999,-2.44300000146,-1.563000106815,-0.0784999988973,-0.125000003725,-0.127500001341,64.5,67.5,73.5,89.5,93.0,-98.0,-98.0,-97.0,-97.0,-95.0,5.0,1.799999952319,-0.4149999879300004,0.6750011444050001,-0.013499997556200002,0.003999996930999977,-0.00449999794400001,3.1745707029055383,0.19504743294922167,4.79557706824864,0.9732540029080283,0.009204690814345351,0.013981863209367656
30,30,52.0630720769,5205.5,1521546786.0,522013067.5,,3133099.0,1521546785.0,536827676.0,,0.645215669992,-0.159934205424,0.0855116170683,0.194977131761,0.9786976781319999,-0.0030994420082899998,0.0642274580559,-0.00559683243421,0.015182901189999999,-0.01020917998,0.0197798423853,0.022141984774700002,0.0159095251124,2.8757109642,1.3809658288999995,3.95713472366,0.109136208892,1.37622201443,0.299720108509,2186379.5,1521546785.0,541461314.0,,,,,,2637021.5,1521546786.0,517032195.0,,0.2159999966624,-2.25300001595,-3.407999420165,-0.09049999713895003,-0.06650000065565001,-0.1330000013115,67.5,72.0,73.0,77.0,82.5,-78.0,-73.0,-69.5,-66.5,-42.0,5.0,-1.0749999284765999,0.18999998551000008,-1.84499931335,-0.011999998241650031,0.058500003069349986,-0.0054999999704999905,4.09110316641781,0.17407326020446223,5.082882586820717,1.412703043295983,0.019133017997847626,0.033684160132804904
31,31,52.1656361795,5216.5,1521546786.0,631983041.0,,3133109.5,1521546785.0,641831032.5,,0.6446128114505,-0.1593380949255,0.08379044168439999,0.19492121319150002,0.978801997986,-0.0026010356037250004,0.062812664638,-0.00619948804818,0.0184542910404,-0.015166741027,0.01805160422305,0.0246792914658,0.0140298880226,2.95149731636,1.47383648157,3.37440931797,-0.03440278768539999,1.376788794995,0.25600242614700003,3133463.0,1521546785.0,644910132.0,,,,,,2637032.5,1521546786.0,626763495.5,,1.086000001432,-1.5930000334999999,-2.782999420165,-0.07799999788405,-0.06450000032785,-0.1290000043805,70.0,71.5,75.0,85.0,117.0,5.5,10.5,14.5,15.5,25.0,0.0,0.8700000047695999,0.65999998245,0.625,0.01249999925490003,0.002000000327800011,0.003999996931000005,3.38557689064656,0.1639672249029466,4.719127952078613,1.4008098300688288,0.024678422624701917,0.033641724096815255
32,32,52.2682002821,5225.5,1521546786.0,722082495.0,,3133119.0,1521546785.0,736833043.0,,0.6431454853090001,-0.159250089088,0.0821586152762,0.195034360326,0.978909877373,-0.00282685261153,0.060737625717900014,-0.0192805582176,0.00802250698119,-0.0131450674401,0.011206860629200002,0.044958536019199996,-0.00920269158337,2.92552304268,1.32015430927,3.69488096237,0.13699658215,1.3467746972999999,0.329366058111,2186393.0,1521546785.0,738445998.0,,,,,,2637041.5,1521546786.0,716291465.0,,1.290999925135,-0.5980000138285,-2.137998962405,-0.0840000025928,-0.0614999998361,-0.11950000002999997,70.5,77.0,85.5,120.0,144.0,-114.5,-113.0,-108.5,-105.0,-98.5,-1.0,0.204999923703,0.9950000196715,0.6450004577599997,-0.006000004708749993,0.0030000004917500045,0.009500004350500009,2.56813636446399,0.15848817123874165,4.894245375910372,1.3932164760165113,0.02467576425260791,0.04723931856547728
33,33,52.3707643846,5237.5,1521546786.0,841974496.0,,3133131.0,1521546785.0,856829486.0,,0.642683660652,-0.15959736230399998,0.0802209096969,0.19532565519,0.978933145609,-0.00284571284016,0.0594111670585,0.0029623312892,0.00520843514984,-0.009128507930209999,0.011824668839499999,0.0073878584103999985,-0.00464094223409,3.7169747352599996,1.7096133232100001,3.6381006240800007,-0.0781209245324,1.7139464616799998,0.265378296375,2186401.5,1521546785.0,853452316.5,,,,,,2637053.5,1521546786.0,836189192.0,,-0.19899996519075008,-2.8280000031,-2.907999420165,-0.08399999886750001,-0.0614999998361,-0.11850000172900002,50.5,55.0,57.5,66.0,81.5,-139.0,-136.0,-133.5,-126.5,-122.0,-1.0,-1.48999989032575,-2.2299999892715,-0.7700004577599997,3.725299985157804e-09,0.0,0.000999998300999963,4.061236958287401,0.15773553879628177,5.474893154061509,1.7361281613239516,0.010919380037757134,0.014694951169572512
34,34,52.4733284872,5248.5,1521546786.0,951977967.5,,3133144.5,1521546785.0,991841493.0,,0.6421142442109999,-0.160352304326,0.0794221804538,0.19593795949850001,0.9788612843819999,-0.0032471986407900002,0.05855204462305001,0.005396844784284999,-0.015032714425272,-0.00017681533200000028,-0.014369128307489997,-0.005638758516185001,-0.0182136620822545,3.77615046501,1.4853258728999998,3.7766457796099995,-0.0508777908983,1.6462019085900002,0.248320169747,3133497.0,1521546785.0,984910984.5,,,,,,2637064.5,1521546786.0,945943466.0,,0.975999987124,-2.243000009655,-3.0180000305200005,-0.08500000089404999,-0.06950000301005001,-0.129999995232,57.0,59.0,62.0,73.0,106.0,-140.5,-136.0,-134.0,-132.0,-118.0,-1.0,1.1749999523147499,0.5849999934450003,-0.11000061035500064,-0.0010000020265499843,-0.008000003173950013,-0.011499993502999987,3.8848358012143964,0.17016242044207494,5.543334612644938,1.6656026477390184,0.015973093009153717,0.023874776069473712
35,35,52.575892589700004,5256.5,1521546787.0,31976937.5,,3133152.5,1521546786.0,71834165.0,,0.642740766932,-0.16111384523849998,0.07976662166389999,0.196677805757,0.978680305641,-0.00341952945213,0.0590842459727,0.005180089015755,0.0029643470322645,-0.0015283331618850006,0.0037753821881049993,-0.01101865499575,-0.0016051723397449997,3.753596663475,1.52100306749,2.96324765682,0.0145932920276,1.658157229425,0.277757391334,2186416.5,1521546786.0,69459763.5,,,,,,2637072.5,1521546787.0,27239528.5,,0.431000030041,-2.9130000114450003,-3.313000106810002,-0.0819999985397,-0.05199999921025,-0.11649999767550001,72.5,78.5,81.5,86.0,132.5,-134.5,-130.5,-129.0,-125.5,-121.5,-1.0,-0.544999957083,-0.6700000017900005,-0.2950000762900005,0.0030000023543499954,0.01750000379980001,0.013499997556500012,4.432527473157611,0.15165833025840786,5.01834384224655,1.681323148626481,0.0061608828744392115,0.011757586777137109
36,36,52.678456692299996,5265.5,1521546787.0,122032403.5,,3133161.5,1521546786.0,161831079.5,,0.6431295697339999,-0.162488871631,0.07954526691125,0.197677734639,0.978466953972,-0.0040273405877500005,0.05924200086665,-0.0023348695470549997,-0.00547280210109,-0.008325002705190002,-0.010872471265264999,0.017126129391945,0.005327690724225001,3.37095463276,1.461923718455,3.0201808214200003,0.020035821944495,1.5644697546950002,0.275614947081,3133514.5,1521546786.0,159921103.5,,,,,,2637081.5,1521546787.0,116757483.5,,-0.3889999032020001,-2.30800001472,-2.927999877925,-0.1019999980928,-0.07100000232455,-0.12350000441099998,71.0,79.0,81.0,87.5,100.0,-134.0,-127.0,-124.0,-117.0,-111.0,-1.0,-0.8199999332430001,0.6049999967250002,0.38500022888500096,-0.01999999955310001,-0.01900000311430001,-0.0070000067354999826,3.748515476527675,0.1752063099050212,4.756264110494769,1.5886883415481112,0.010232734174250828,0.02097377476318101
37,37,52.781020794899995,5279.5,1521546787.0,261991500.0,,3133175.5,1521546786.0,301829150.5,,0.6424693011879999,-0.162656086106,0.07886893575029999,0.1979869872505,0.9784635877744999,-0.00407633298649,0.05825382548950001,-0.00374719564156,-0.008030381607175001,-0.013155108553760002,0.0012069034570975,0.016366991847755002,-0.00674840316505,4.47115254402,1.706428468225,2.81159591675,0.04045348241925,1.94686049223,0.296986326575,2186432.5,1521546786.0,301461953.0,,,,,,2637095.5,1521546787.0,257102748.0,,0.196000015736,-1.77800001167,-2.92799987793,-0.08300000056625,-0.058999998495,-0.1524999961255,64.5,72.5,77.0,109.0,131.5,-126.5,-122.5,-120.0,-113.5,-95.0,-1.0,0.5849999189380002,0.5300000030500003,-5.000000413701856e-12,0.018999997526550017,0.012000003829550007,-0.028999991714500017,3.4311635537853813,0.18337461311393413,5.550511218631173,1.969797740535407,0.015861443345237862,0.017744745232808765
38,38,52.8835848974,5289.5,1521546787.0,361970543.0,,3133185.5,1521546786.0,401832898.5,,0.6422853360785,-0.1625726467055,0.07814750176175,0.197888562826,0.978514659208,-0.00411849253994,0.05772224414105,0.0008997055539100002,0.00757816808464,0.0011829538626849999,0.011266629420055,0.002587900550500002,0.0006402639743499985,3.8886847496,1.422337710855,2.75555682182,0.003264375030995001,1.7142403125749999,0.2587127536535,2186439.5,1521546786.0,402442864.0,,,,,,2637105.5,1521546787.0,356630336.5,,0.201000010967,-2.5530000269400004,-2.6530002594,-0.06400000117719999,-0.09250000119215,-0.12849999964249995,64.5,67.0,89.0,95.0,185.0,-118.0,-111.0,-104.0,-103.0,-83.0,-1.0,0.004999995231000004,-0.7750000152700005,0.2749996185299999,0.018999999389050004,-0.033500002697149985,0.023999996483000045,3.6873595591345367,0.1707761701155985,4.973731702029231,1.7336559042395214,0.007722530766791036,0.011577741822349361
39,39,52.986149,5299.5,1521546787.0,461971044.0,,3133195.5,1521546786.0,502117819.0,,0.6422498456685,-0.16345804802000002,0.07754909831685003,0.1987742721145,0.9783591728475,-0.004327694391930001,0.0572996213071,0.00741283992342,-0.01298850642197,-0.003753069274267,-0.00026842834368500084,-0.004763657086005,-0.030307124271350006,4.742681264874999,1.933796048165,2.54303443432,-0.14109382033345,1.994527876375,0.241017118096,3133548.5,1521546786.0,500258247.5,,,,,,2637115.5,1521546787.0,456218186.5,,-1.324000024795,-1.8130000174050005,-3.563000106810002,-0.08550000190734999,-0.05199999921025,-0.15349999815249998,66.5,74.0,77.5,83.0,97.5,-88.0,-85.5,-83.0,-66.0,-60.0,-1.0,-1.5250000357620002,0.7400000095349999,-0.9099998474100008,-0.02150000073015,0.040500001981899986,-0.02499999851000004,4.211284232855315,0.18323891419903238,5.7183578823148284,2.013985642200201,0.015418723156644727,0.030680388918783146
