,Unnamed: 0,Unnamed: 0.1,.header.seq,.header.stamp.secs,.header.stamp.nsecs,.header.frame_id,.endpoint_state.header.seq,.endpoint_state.header.stamp.secs,.endpoint_state.header.stamp.nsecs,.endpoint_state.header.frame_id,.endpoint_state.pose.position.x,.endpoint_state.pose.position.y,.endpoint_state.pose.position.z,.endpoint_state.pose.orientation.x,.endpoint_state.pose.orientation.y,.endpoint_state.pose.orientation.z,.endpoint_state.pose.orientation.w,.endpoint_state.twist.linear.x,.endpoint_state.twist.linear.y,.endpoint_state.twist.linear.z,.endpoint_state.twist.angular.x,.endpoint_state.twist.angular.y,.endpoint_state.twist.angular.z,.endpoint_state.wrench.force.x,.endpoint_state.wrench.force.y,.endpoint_state.wrench.force.z,.endpoint_state.wrench.torque.x,.endpoint_state.wrench.torque.y,.endpoint_state.wrench.torque.z,.joint_state.header.seq,.joint_state.header.stamp.secs,.joint_state.header.stamp.nsecs,.joint_state.header.frame_id,.joint_state.name,.joint_state.position,.joint_state.velocity,.joint_state.effort,.wrench_stamped.header.seq,.wrench_stamped.header.stamp.secs,.wrench_stamped.header.stamp.nsecs,.wrench_stamped.header.frame_id,.wrench_stamped.wrench.force.x,.wrench_stamped.wrench.force.y,.wrench_stamped.wrench.force.z,.wrench_stamped.wrench.torque.x,.wrench_stamped.wrench.torque.y,.wrench_stamped.wrench.torque.z,.tactile_values.tactile_values_0,.tactile_values.tactile_values_1,.tactile_values.tactile_values_2,.tactile_values.tactile_values_3,.tactile_values.tactile_values_4,.tactile_values.tactile_values_5,.tactile_values.tactile_values_6,.tactile_values.tactile_values_7,.tactile_values.tactile_values_8,.tactile_values.tactile_values_9,.tag,.delta_wrench.force.x,.delta_wrench.force.y,.delta_wrench.force.z,.delta_wrench.torque.x,.delta_wrench.torque.y,.delta_wrench.torque.z,.wrench_stamped.wrench.force.magnitude,.wrench_stamped.wrench.torque.magnitude,.endpoint_state.wrench.force.magnitude,.endpoint_state.wrench.torque.magnitude,.endpoint_state.twist.linear.magnitude,.endpoint_state.twist.angular.magnitude
0,0,55.08629000000001,5509.5,1521529578.0,432880997.0,,1412344.5,1521529577.0,992146571.5,,0.6842430734195,-0.12862721735750002,-0.07288643719704999,0.1467235641775,0.989020440794,-0.016892367732099997,-0.0050327543607100005,0.005176133996739999,-0.0045101942548190005,0.00805189843378,-0.004704578513175,-0.01022846533302,-6.955330584999982e-05,0.8188585937025,0.6420031785965,6.895590066910001,0.1405327022075,0.39876338839500003,0.1330822184685,1412696.5,1521529577.0,980245597.5,,,,,,918020.5,1521529578.0,426945393.0,,2.2469999764099997,0.9239999920145,1.5309986114499998,-0.08200000226500001,-0.02900000009685,-0.0265000006184,194.0,212.0,333.0,364.0,522.5,608.5,650.0,675.0,752.0,860.0,5.0,0.0,0.0,0.0,0.0,0.0,0.0,2.871714057403899,0.09092442141609978,6.9736546981246725,0.4432522500636642,0.010581459434138503,0.011258747697580512
1,1,55.188854102600004,5519.5,1521529578.0,532767534.0,,1412354.0,1521529578.0,87148942.0,,0.6841004959710001,-0.128303670404,-0.0729335753732,0.146823579776,0.989008916375,-0.0166909214977,-0.00506091813895,-0.0026705164861899997,-0.00286821483351,-0.0006953639377080001,-0.00933466881151,0.00247288011997,0.011640583311100001,1.24384605885,0.675018906593,6.9474697113,0.118526056409,0.621225059032,0.15810585022,1412705.0,1521529578.0,65215822.0,,,,,,918030.5,1521529578.0,527870956.0,,1.816999969255,1.0740000426755,0.8310016632080001,-0.0815000012517,-0.037000000476849995,-0.028500000014900002,193.5,212.0,330.0,367.0,532.0,600.0,669.5,693.0,751.0,845.0,5.0,-0.4300000071550001,0.15000005066100008,-0.6999969482419998,0.0005000010133000138,-0.008000000380000004,-0.0019999993964999983,2.2683757943061615,0.0939334883849381,7.090143787808932,0.6518945159233742,0.003980181608927431,0.015124627523710467
2,2,55.2914182051,5531.5,1521529578.0,652776002.5,,1412364.5,1521529578.0,192148891.5,,0.6837427154719999,-0.12835297940850002,-0.07312606305089997,0.146186700858,0.9890955351625,-0.017057681195500003,-0.005333015844325,0.0070185148612550005,-0.008560546600994999,0.004952094978690001,-0.004045650388079999,-0.011525646086334999,-0.021566461424985,1.161030590535,0.7478666901589999,6.920052051539999,0.0755658298733,0.5518811643125,0.13329526036949998,558592.5,1521529578.0,180499968.0,,,,,,918042.5,1521529578.0,646607927.0,,2.057000038405,0.20400003790874,0.6910003662109999,-0.08200000226500001,-0.0379999987781,-0.0559999998659,203.0,224.5,334.0,359.0,531.5,611.5,672.0,678.5,718.0,843.0,5.0,0.24000006914999994,-0.8700000047667601,-0.14000129699700015,-0.0005000010133000138,-0.0009999983012499991,-0.027499999851,2.1795290040668593,0.10632027211955587,7.056515926038173,0.5727570519900509,0.01212706698437141,0.024785480894374174
3,3,55.39398230770001,5538.5,1521529578.0,722850918.5,,1412371.0,1521529578.0,257146376.5,,0.6844668098794999,-0.1286079594085,-0.07259904367554999,0.14675691441400002,0.9890169046865,-0.016883224244449997,-0.004784160075785001,-0.0001144491984549998,-0.004700627725499999,-0.0006679581293700001,-0.003098917554665,0.0004411062125649996,-0.001404105031850001,1.002525538207,0.7089205980305,6.969516515735,0.1004098802804,0.525476962328,0.1531598940495,1412723.5,1521529578.0,250224028.0,,,,,,918049.5,1521529578.0,717100519.0,,2.3719999764099997,0.359000009298,0.520998382568,-0.08449999988080001,-0.0379999987781,-0.05550000071524999,193.0,212.0,347.0,363.0,518.5,625.5,688.0,693.0,728.0,849.0,5.0,0.3149999380050001,0.15499997138925994,-0.1700019836429999,-0.002499997615799998,0.0,0.0004999991506500144,2.454934664996907,0.10800231463437972,7.076848615886318,0.5564765360198403,0.004749228115742363,0.0034306523638866176
4,4,55.4965464103,5551.5,1521529578.0,852729916.0,,1412384.0,1521529578.0,387159666.0,,0.683535976844,-0.127986818546,-0.073177994114,0.145944052399,0.989133893642,-0.0168611724496,-0.00549316677963,-0.0103506781768,-0.0319553544153,-0.0124206866361,-0.020764625432099997,0.030053145831499997,-0.0272262155609,1.14278662205,1.01922380924,6.86615419388,-0.135669365525,0.533300280571,0.106622457504,985668.5,1521529578.0,390628348.0,,,,,,918062.5,1521529578.0,847122313.5,,1.181999978795,1.30400001705,0.05099906921385,-0.0854999981821,-0.0384999997914,-0.0540000014007,191.0,201.5,345.0,355.5,530.0,615.5,669.5,676.0,741.0,874.5,5.0,-1.1899999976150002,0.945000007752,-0.4699993133541501,-0.000999998301299987,-0.0005000010132999999,0.0014999993145499851,1.760721698451649,0.10820582158254011,7.034831330671266,0.5605209313159104,0.03581277245675501,0.04555906120052753
5,5,55.599110512799996,5558.5,1521529578.0,922725439.0,,1412391.5,1521529578.0,462160305.5,,0.6839603269679999,-0.1275335113135,-0.072673083542,0.1461430764365,0.989114026288,-0.016416976352950002,-0.005099475670704999,0.010396634650555,0.004500267101360001,0.0108671889813,0.013449125798249998,-0.030108466872900003,0.002235571256450001,0.1413165628909,0.7091791927815001,7.345986366275,0.10827317833885003,0.2263448126615001,0.145205795765,985674.0,1521529578.0,457123048.0,,,,,,918069.5,1521529578.0,917716025.0,,1.222000000255,0.619000029564,1.24100151062,-0.09049999713895003,-0.038500001654,-0.02700000070035,190.0,213.0,357.0,363.0,531.0,621.0,682.0,691.5,747.0,861.0,5.0,0.040000021460000035,-0.6849999874859999,1.1900024414061499,-0.004999998956850035,-1.8625999978483245e-09,0.02700000070035,1.8483857245133049,0.1019877426327638,7.381491799895174,0.28989615121645357,0.015698350626610177,0.03305142267764485
6,6,55.7016746154,5567.5,1521529579.0,27609467.0,,1412401.0,1521529578.0,557163240.0,,0.6833891848579999,-0.128521121667,-0.0709511645708,0.146645671384,0.989037006724,-0.0170028324877,-0.00342783919481,-0.00935998561041,-0.0019467806579200001,0.036792027598900004,-0.012869254833799998,-0.05341967459,0.00596745462938,-0.0338751077652,0.844848155975,9.30497932434,0.051887229085,0.559535503387,0.11312662065,985681.0,1521529578.0,557626034.5,,,,,,918080.0,1521529579.0,24319027.0,,0.396999997273,0.593999963999,1.7710002899200001,-0.16400000453,-0.10800000280099999,-0.0710000023246,193.0,219.0,330.0,385.0,505.5,619.0,676.0,697.0,726.0,879.0,5.0,-0.8250000029819999,-0.02500006556500001,0.5299987792999998,-0.07350000739104996,-0.069500001147,-0.04400000162425001,1.9096824296103003,0.20880853052724935,9.343316122018742,0.5732101677328759,0.03801384721907733,0.05527105814106046
7,7,55.8042387179,5581.5,1521529579.0,152826070.5,,1412416.5,1521529578.0,712160588.0,,0.6751306141515001,-0.133065769633,-0.0588556143965,0.14952142738399998,0.988515296934,-0.0217635492155,-0.0026714690144050003,-0.05783157420785,-0.0366918091411,0.1150076442015,-0.06724061845315,-0.0263500828073,0.014730294194135,3.23893845081,1.4204194545750002,7.269775867460001,0.8417131602765,1.7701025605200005,0.321337997913,985691.5,1521529578.0,711629670.0,,,,,,918092.0,1521529579.0,142613196.0,,1.847000000255,0.769000005722,1.4859985351570002,-0.06900000013414999,-0.02049999963495,-0.0515000000596,143.0,164.5,263.0,283.0,327.0,680.5,739.0,755.0,777.0,883.0,5.0,1.4500000029820002,0.175000041723,-0.2850017547629997,0.09500000439585,0.08750000316605,0.01950000226500001,2.4921801010824147,0.08850706191985162,8.08442668828003,1.9862029674343078,0.1338564083568052,0.07370623583496468
8,8,55.90680282050001,5589.5,1521529579.0,232754587.5,,1412424.5,1521529578.0,792165141.0,,0.6713103232615001,-0.1342472232495,-0.04993287934375,0.14904394728849998,0.9885668255535,-0.022833774462650003,-0.000337551175527,-0.02978124595545,0.003292042442134999,0.131468849379,-0.005499427748689999,-0.10078344747089997,0.00420254072275,2.5150359869,2.02932775021,6.67325997353,0.2545082569125,1.3855082392700002,0.2306187599895,1412776.5,1521529578.0,780247213.0,,,,,,918100.5,1521529579.0,229238662.0,,1.717000005025,-0.225999969244,1.650999450685,-0.08050000295045,-0.047000000253300006,-0.04000000096855,159.0,161.0,166.0,176.0,192.0,754.0,767.0,785.0,790.0,832.0,5.0,-0.12999999522999994,-0.994999974966,0.1650009155279999,-0.011500002816300007,-0.02650000061835001,0.011499999091049998,2.392689739501616,0.10143594321697147,7.414578599454729,1.4274426595771859,0.13483997371379902,0.10102083120925648
9,9,56.0093669231,5602.5,1521529579.0,362745046.0,,1412437.5,1521529578.0,922166713.5,,0.6666075374880001,-0.13434396445250002,-0.03478509379585,0.1480269962845,0.988692171063,-0.0235396671006,0.0046323773465500005,-0.0484452057398,0.0130042371281,0.10616573297155,0.005577531915170001,-0.05201189773875002,-0.01426952227582,2.1687111258500003,1.7069696784000001,6.153614282605,0.703789204359,1.5679204463949998,0.354048267007,1412790.0,1521529578.0,915268258.0,,,,,,918113.5,1521529579.0,359454183.0,,0.996999976409,0.034000021219200004,0.4909996032715,-0.09800000116225001,-0.049499999731750004,-0.04549999907615,162.5,178.0,184.5,236.0,366.0,672.5,676.5,684.0,745.0,839.5,5.0,-0.7200000286160001,0.25999999046320005,-1.1599998474135,-0.017499998211799997,-0.002499999478449991,-0.005499998107600004,1.1118658034201891,0.1188465401985851,6.744184322024631,1.7547204751089074,0.1174189550278909,0.054221449949545364
10,10,56.11193102560001,5610.5,1521529579.0,442762612.5,,1412445.5,1521529578.5,502160764.0,,0.6638772917005,-0.13243981480550002,-0.02639695313675,0.14525157804549998,0.9890985886945001,-0.023042828524700004,0.007401438502484999,-0.018342025904935003,0.027357714974400003,0.10735264036350001,0.00617677059295,-0.0979058708661,0.07951650117205,3.704584240915002,1.647740900515,5.3093483448,0.4502494782205,2.072542667385,0.2554046064615,985711.5,1521529578.5,503622971.5,,,,,,918121.5,1521529579.0,439217734.0,,1.4869999859455,0.963999998567,0.5110000610350001,-0.09899999946344999,-0.0934999994934,-0.0460000000894,183.5,218.0,302.0,328.5,506.5,592.0,604.0,644.0,695.0,786.0,5.0,0.4900000095365002,0.9299999773477999,0.020000457763500068,-0.0009999983012000113,-0.043999999761649984,-0.0005000010132499981,1.8443389107799215,0.14373325922434826,6.68043219557659,2.136209075388202,0.1122918691443543,0.12627979253883817
11,11,56.2144951282,5621.5,1521529579.0,552783488.5,,1412455.0,1521529579.0,97160074.0,,0.660696614226,-0.13003694719,-0.01926055119,0.144183535761,0.989267143895,-0.022566131503400002,0.00723848974799,-0.0181435422407,0.0178960648457,0.0771783895828,-0.015736422449,0.0156751992922,0.006878385594939999,5.87370157242,2.28779149055,1.84907639027,0.05653314292430001,2.62353348732,0.261916309595,1412807.5,1521529579.0,90259964.0,,,,,,918132.0,1521529579.0,543389689.0,,1.457000014559,1.2990000069135,1.6660007476794998,-0.08899999782455001,-0.0899999998508,-0.0654999986291,188.0,193.0,263.5,353.0,375.0,521.0,525.0,557.0,570.0,696.0,5.0,-0.029999971386500013,0.3350000083464999,1.1550006866444995,0.010000001638899995,0.003499999642599991,-0.0194999985397,2.5662830225161937,0.1425175406970174,6.5691280671894425,2.6371810913492846,0.08127706368094272,0.023252076310219198
12,12,56.3170592308,5629.5,1521529579.0,632829904.0,,1412462.0,1521529579.0,167162282.5,,0.660484499114,-0.127769869593,-0.0166514089445,0.142253938921,0.989552030462,-0.0218055050648,0.008528435204215,0.022557246706990004,0.05718670178475,0.018237132022925,0.0710407867708,-0.13839773568105002,0.11000055240025,1.8932600766425003,0.6553069427605,3.068989396095,0.8170355260375001,0.818633958698,0.296710431576,985723.5,1521529579.0,166611253.5,,,,,,918140.5,1521529579.0,628298993.0,,3.03699999787,1.519000015035,1.935999298095,-0.05700000189245,-0.012500000069845,-0.051000000909,163.5,206.0,235.5,263.5,367.0,461.5,475.0,507.0,519.0,533.5,5.0,1.579999983311,0.2200000081215001,0.26999855041550025,0.03199999593210001,0.077499999780955,0.014499997720099994,3.9088135431308366,0.07750000200131242,3.6650452685310766,1.1940459326788688,0.06412286038878441,0.19052781464924276
13,13,56.4196233333,5643.5,1521529579.0,776226997.0,,1412476.0,1521529579.0,307261536.0,,0.660985913466,-0.120294274072,-0.0167958693123,0.139316574181,0.990043984978,-0.01388191426,0.014529020037700001,-0.056537473678,0.0290847791535,0.00311635272916,0.0104348734425,0.031360480268299996,0.0076954523838,-0.251463383436,0.5540574193,9.14959144592,0.177069395781,0.802483439445,0.194874152541,558637.5,1521529579.0,317000064.0,,,,,,918155.0,1521529579.0,772057192.0,,-0.04300000034274999,2.979000014065,1.8259986877400003,-0.168499998748,-0.1420000009238,-0.05049999989569999,170.5,185.0,208.0,220.5,382.5,402.5,449.0,466.5,497.0,498.5,5.0,-3.07999999821275,1.45999999903,-0.11000061035499976,-0.11149999685555,-0.129500000853955,0.0005000010133000068,3.4943613567370146,0.22606746742930728,9.169800275051955,0.8445763297857087,0.06365627983656408,0.03393503048194827
14,14,56.5221874359,5652.5,1521529579.0,862935066.0,,1412485.0,1521529579.0,397268681.0,,0.655505377091,-0.12138572646500001,-0.0167423993406,0.138344850194,0.9901801141159999,-0.0165998370379,0.0113353184289,-0.0582252820201,-0.020615035661799997,0.00157527725458,-0.054779607383699996,0.0580100086388,0.0489848033311,2.41456985474,1.1981490850399998,7.16559553146,0.545126855373,1.5726234912900001,0.302094489336,985739.0,1521529579.0,400180476.5,,,,,,918163.5,1521529579.0,859268830.0,,0.7370000008494999,0.4139999866487,1.4060005187979998,-0.104499999434,-0.121499996632,-0.0475000012666,145.0,146.0,201.0,211.0,316.0,328.0,384.5,416.0,429.0,471.0,5.0,0.7800000011922499,-2.5650000274163,-0.4199981689420005,0.06399999931400001,0.02050000429179999,0.002999998629099998,1.6405494351154224,0.16714888328555777,7.655812702377251,1.6916172777236533,0.0617870913709835,0.09362412853945566
15,15,56.62475153850001,5663.5,1521529579.0,974074005.5,,1412496.0,1521529579.0,507255209.5,,0.6490363825450001,-0.1226439750775,-0.01654342097075,0.1381032711815,0.990206487332,-0.0197701476463,0.005261440268045,-0.03569197704035,-0.01461881611675,0.007236852984585,-0.03519466454175,0.0935845484062,-0.02100113312014,2.634964585305,1.1510081589215,7.256402969360001,0.5036203116175,1.4778007268900002,0.297500550747,1412848.0,1521529579.0,495346672.5,,,,,,918174.5,1521529579.0,968520625.5,,1.36699998118,-0.460999983549,0.9860004425045,-0.08149999938909999,-0.10999999940415,-0.0340000018477,120.0,126.0,143.5,188.5,241.0,310.0,378.0,387.0,400.0,408.0,5.0,0.6299999803305001,-0.8749999701976999,-0.4200000762934998,0.02300000004490001,0.011499997227850016,0.013499999418899995,1.7474000131616596,0.14106115657749269,7.805334214590176,1.5893504913533356,0.039242821647082385,0.10216545259983213
16,16,56.727315641000004,5673.5,1521529580.0,75160979.5,,1412506.5,1521529579.0,612256818.5,,0.6483784746950001,-0.123338830405,-0.01552595635815,0.138370726612,0.9901479576105,-0.0211364607219,0.00369613958431,0.009929256737725,-0.00101255167285,0.0174074183393,0.006982008917139999,0.000974767811225,-0.03035452932775,2.8140593767150004,0.8068097084750001,8.127334356305,0.8257688283919999,1.54374694824,0.370008394122,1412860.5,1521529579.0,620333807.0,,,,,,918185.0,1521529580.0,72841632.0,,1.7020000193249998,0.114000064134615,0.296001815796,-0.08249999955295001,-0.0440000016242,-0.04050000105055,86.5,93.5,128.0,187.0,199.5,299.5,358.0,362.0,393.5,398.0,5.0,0.3350000381449998,0.575000047683615,-0.6899986267085001,-0.0010000001638500178,0.06599999777995,-0.00649999920285,1.7313050439941324,0.10189455409520622,8.63848573654797,1.7894007404337773,0.020065732318887506,0.03116241440444013
17,17,56.829879743599996,5684.5,1521529580.0,182837962.5,,1412519.5,1521529579.0,742267160.0,,0.6510390421765,-0.121214123778,-0.01251574408275,0.14174829499250002,0.9897349164264999,-0.017627782107849998,0.0046073449181600005,0.0116684053349,0.011233152974915,0.0476443893396,0.02215207712725,0.0433426046711,-0.09346551740355,-1.007007479669,-0.8135496079940001,11.21191358565,1.1769082546249998,0.2686666995285,0.428585186601,1412872.5,1521529579.0,740357297.5,,,,,,918195.5,1521529580.0,179107645.5,,0.8969999972730001,1.76900001317,1.37599983215,-0.185000002384,-0.15450000017850002,-0.04000000096855,76.0,86.0,93.0,115.0,156.0,300.0,321.0,354.5,388.5,393.5,5.0,-0.8050000220519997,1.654999949035385,1.079998016354,-0.10250000283105,-0.1104999985543,0.0005000000820000045,2.4139895566841316,0.24432611611270807,11.286404798732834,1.2810074540820653,0.05032219435160548,0.1053807327941887
18,18,56.9324438462,5694.5,1521529580.0,282724499.0,,1412529.5,1521529579.0,842260779.5,,0.6519421499345001,-0.122335201212,-0.007865973868225,0.140191181228,0.989928604465,-0.0192915192781,0.003936167186655,0.00032487992827749993,0.0015767018531999985,0.052314190832199986,-0.03622778379324999,0.054592730627950004,0.06227091820770001,1.1775055378675,-0.20651758462205,8.190239191055,1.271510362625,1.0461770296095,0.535632133484,1412882.5,1521529579.0,840348453.0,,,,,,918205.5,1521529580.0,279479860.0,,0.6520000074055,0.9590000331405,-0.4439998626705001,-0.0870000012218,-0.05250000022355,-0.04000000096855,61.5,63.0,66.5,83.5,97.5,273.5,277.0,281.0,341.5,379.0,5.0,-0.24499998986750005,-0.8099999800295,-1.8199996948205,0.09800000116220002,0.10199999995495003,0.0,1.2417410967152835,0.10920279444020631,8.2770276555754,1.731509965886982,0.05233895392658817,0.090390739627555
19,19,57.0350079487,5703.5,1521529580.0,372732042.5,,1412538.5,1521529579.0,932255427.5,,0.6544616351005,-0.12357776548149994,-0.00339108496085,0.139584016651,0.989978981718,-0.021078678981349998,0.003654678533170001,0.0335931104513,-0.0329632638344,0.04212261765745,-0.04885641489365,0.02543946282615001,0.05581475349255,2.944306492805,0.12931539118275498,4.949473381045,0.9672843217865,1.565478920935,0.471062451601,985777.0,1521529579.0,931176181.0,,,,,,918214.5,1521529580.0,369027264.5,,0.8019999984669999,1.1990000128765,-1.45899925232,-0.07099999859930001,-0.04849999956789999,-0.04549999907615,59.5,61.0,66.0,72.5,92.0,269.5,271.0,299.0,341.5,365.0,5.0,0.14999999106149986,0.23999997973599985,-1.0149993896494998,0.016000002622499995,0.004000000655650017,-0.005499998107600004,2.0517026701472205,0.09728052053271792,5.760464386110156,1.8995428514182369,0.06316160820249293,0.07841812451581368
20,20,57.1375720513,5711.5,1521529580.0,453040480.5,,1412546.5,1521529580.0,12259380.0,,0.6609191672665,-0.1234460964855,-0.001017472173262,0.141132759471,0.9897800014075001,-0.0191311888886,0.007097145514745002,0.0898657295611,0.017838152476549997,0.02250242934735,0.06682721115965001,-0.1092264253651,-0.07969447884845,3.527099490165,0.8147507309909999,5.961309432985,0.7783800363545001,1.9336534142500001,0.475357249379,985781.5,1521529579.5,508690653.0,,,,,,918222.5,1521529580.0,449561114.5,,-0.20800000689929998,1.1940000250945,-2.33399925232,-0.08550000190735,-0.053999999538050014,-0.0700000021607,61.0,63.5,67.5,79.5,111.0,268.5,272.0,279.5,331.5,367.0,5.0,-1.0100000053663,-0.0049999877819999474,-0.875,-0.01450000330805,-0.005499999970150021,-0.02450000308455,2.6299149363859837,0.12298882298308354,6.974342959947446,2.1379559214289436,0.09434197559865856,0.15082273737185733
21,21,57.2401361538,5724.5,1521529580.0,582827448.5,,1412556.0,1521529580.0,107699865.0,,0.670283235703,-0.121088820314,0.00119823527,0.142357452803,0.9896011949200001,-0.0123149058423,0.0164976888641,0.0742084732546,0.0234682146595,0.017886184656900003,0.10940250954000001,-0.20605548532,0.0241157667918,4.30622911453,1.36351954937,7.4191975593600015,0.137684315443,3.34516239166,0.44086784124399997,558669.0,1521529580.0,121999872.0,,,,,,918235.5,1521529580.0,578796947.0,,0.8470000002535001,-0.09599997401250003,-0.5239997863752,-0.09700000286105,-0.13049999997025,-0.04849999956785,74.5,76.0,79.5,84.0,156.0,266.5,274.0,299.0,339.0,381.0,5.0,1.0550000071528,-1.289999999107,1.8099994659448,-0.01150000095369999,-0.07650000043219997,0.02150000259285,1.000600205657127,0.16968058376066605,8.686039786528346,3.3768969262828565,0.07985969073108022,0.23454070506431718
22,22,57.3427002564,5734.5,1521529580.0,682796597.0,,1412567.0,1521529580.0,217695559.0,,0.667929280487,-0.12434243701,0.00438194189979,0.144669473496,0.98927165779,-0.015360286875200004,0.0132812694652,-0.040007673794800004,-0.05423989713769999,0.027913142318500003,-0.107070145636,0.122146390503,-0.0430496382806,3.76805591583,2.7982199192,3.26660180092,-0.6227036714549999,1.7208411693599999,0.242014423013,558673.0,1521529580.0,204500096.0,,,,,,918245.5,1521529580.0,679411658.0,,2.37199997641,0.6239999949935,-0.009000396728500004,-0.0944999977945,-0.06200000084935,-0.019000000786025,121.5,130.0,134.0,141.0,175.0,273.5,277.5,280.5,332.0,364.0,5.0,1.5249999761564996,0.719999969006,0.5149993896467,0.002500005066550001,0.06849999912089999,0.029499998781825,2.45272111928409,0.11460911708214515,5.718301096200069,1.8459753989569154,0.07295014679952494,0.1680387697988655
23,23,57.445264359,5746.5,1521529580.0,802995919.5,,1412578.0,1521529580.0,327690819.0,,0.664043453975,-0.127796047457,0.00627693573449,0.145532067919,0.989094295138,-0.0207858268722,0.00899121425448,-0.0309454447165,-0.0193314521924,0.008480993096010001,-0.031675661187299996,0.098085117311,-0.0586950419872,2.2423560619400003,2.05443668365,3.70885658264,-0.162552535534,1.17228710651,0.22025646269299998,985805.0,1521529580.0,333372915.5,,,,,,918257.5,1521529580.0,800209433.5,,0.821999994293,-0.08599998354905,-1.8439994812,-0.09100000187755,-0.043500000610949996,-0.0230000000447,119.0,135.0,138.0,160.0,171.0,249.0,250.5,282.5,315.0,371.0,5.0,-1.549999982117,-0.70999997854255,-1.8349990844714998,0.0034999959169499943,0.0185000002384,-0.0039999992586749996,2.0207459203111107,0.10345168146010462,4.796299401229862,1.2038244457794307,0.03746001650378139,0.1186134296926129
24,24,57.547828461499996,5753.5,1521529580.0,873339056.5,,1412585.5,1521529580.0,402698619.0,,0.6642385375865,-0.12774124980450002,0.005987549527455,0.14530138891650002,0.9891316942765,-0.020327318738650003,0.00961139518765,0.0023270992245149995,0.03614417001285,-0.0142696923561,0.0670492834979,-0.04219296510895,0.023070485766005,4.407806396485,2.40067386627,4.21307992935,-0.2216453179715,1.9207339286800005,0.2205090373755,985809.5,1521529580.0,409388966.5,,,,,,918264.5,1521529580.0,870884904.0,,1.746999976415,0.9540000081065001,-0.183999633789,-0.06100000068545,-0.142499998212,-0.07349999994039999,96.5,105.0,108.0,122.0,127.0,248.0,251.5,264.0,310.0,370.5,5.0,0.924999982122,1.03999999165555,1.659999847411,0.030000001192100008,-0.09899999760105001,-0.05049999989569999,1.9989949470410622,0.17155028290645194,6.553017223552646,1.9460137993666609,0.038928659579495956,0.08251121157604145
25,25,57.650392564099995,5764.5,1521529580.0,983553051.0,,1412596.5,1521529580.0,512690000.0,,0.6675707468929999,-0.124704552715,0.005138462308314999,0.145406810843,0.989146248463,-0.016352768019500002,0.01336060804365,0.04610757682705,0.028804835132499998,0.0011778782288300006,0.06028800882540001,-0.113475773204,0.02271307626995,2.31287240982,1.4714830517750002,5.22525858879,0.11553268320855001,1.2703834176099995,0.29702618718150003,558685.0,1521529580.0,524999936.0,,,,,,918275.5,1521529580.0,980864878.5,,0.8919999871404999,0.0589999973774,-1.814000701905,-0.0604999996722,-0.037000000476849995,-0.060999998822800015,82.5,87.5,92.5,100.5,117.0,257.5,261.0,268.0,346.0,372.0,5.0,-0.8549999892745,-0.8950000107291,-1.630001068116,0.0005000010132499913,0.10549999773514998,0.012500001117599977,2.0223114308288466,0.09354277017495635,5.900675255891592,1.3097505046761422,0.05437843841997282,0.1304886161549034
26,26,57.7529566667,5776.5,1521529581.0,104362487.5,,1412611.5,1521529580.0,662206368.5,,0.66862529115,-0.1239904703405,0.006037665002239999,0.1449988551945,0.9891930374235,-0.015790963869499998,0.014931403129200002,-0.020594040522,0.004573819758579001,-0.01012523709061,-0.009772514735165001,0.027349871648085004,0.01699143582893,3.0159629583350003,1.962666511535,3.78641009331,-0.07506727799785001,1.611042022705,0.288196131587,1412964.0,1521529580.0,654784937.0,,,,,,918288.0,1521529581.0,104024919.0,,1.3569999907199999,0.33399997353599997,-1.75899848938,-0.0790000036359,-0.0340000018477,-0.0480000004172,76.0,78.0,80.0,80.0,135.0,261.0,275.0,286.0,320.0,341.0,5.0,0.4650000035795002,0.2749999761586001,0.05500221252500004,-0.0185000039637,0.00299999862915,0.01299999840560002,2.246570863066031,0.09849365837538483,5.223503976859749,1.6383371159224636,0.023399887998595423,0.033648572257146174
27,27,57.8555207692,5784.5,1521529581.0,183563470.0,,1412619.5,1521529580.0,742694703.5,,0.6669569531725,-0.123550084091,0.00551161226158,0.144134409876,0.9893324474135,-0.01630388315395,0.01343965109985,-0.02464636487535,0.0010583982541850015,-0.01251817166408,-0.016822807998250002,0.0376772494726,0.028469410719945,3.0748270750050004,2.23413395882,4.2958333492300005,-0.3186831623315,1.503201127055,0.255614757538,1412972.5,1521529580.0,740757711.5,,,,,,918295.5,1521529581.0,179625633.0,,1.9169999931000001,1.86900001466,-0.7790008544920001,-0.08550000190735,-0.0489999987185,-0.05150000005965,74.0,77.5,83.0,93.5,134.0,244.0,253.0,257.5,307.0,358.0,5.0,0.5600000023799998,1.535000041124,0.9799976348879998,-0.006499998271450008,-0.014999996870799996,-0.00349999964245,2.7883493969809,0.11119127756579564,5.735860898896798,1.55772638502538,0.027663480081955048,0.050130722551220426
28,28,57.958084871800004,5796.5,1521529581.0,302942990.5,,1412631.0,1521529580.0,857206890.5,,0.6675404913525,-0.123616568206,0.005336405877825,0.143850074784,0.989364749939,-0.0163342300485,0.014054274700249999,0.0055398208258,0.015264182479950001,0.0023600487745605004,0.01832789638961,-0.0234373102182,0.007980866951695,2.653492927555,1.868945598605,4.94206881523,-0.11828821524980004,1.4140470624,0.2772016078235,1412984.0,1521529580.0,855246928.5,,,,,,918307.5,1521529581.0,299798446.5,,2.58700000979,0.674000006913,-1.22899971008,-0.07550000026824999,-0.044999999925499995,-0.05650000087915,58.0,58.5,63.0,70.0,98.0,247.5,249.0,273.0,308.0,364.0,5.0,0.6700000166900002,-1.1950000077469998,-0.4499988555879998,0.010000001639100016,0.003999998792999997,-0.005000000819500007,2.9423265194993076,0.10448684191392091,5.91253131421714,1.4458083994530486,0.016408982655286234,0.03080444016100729
29,29,58.060648974399996,5807.5,1521529581.0,412868022.5,,1412642.5,1521529580.0,972691478.0,,0.667510568433,-0.1226980160835,0.00571461843037,0.1437074033105,0.9893924083665,-0.015836868743599998,0.01414231783795,0.0064143171482499975,-0.0038116613183899997,-0.0027227082641649997,0.00013510863217499995,-0.011669517454299998,-5.403556320000011e-05,2.21706843376,1.5135158896449998,4.1950404644,0.08271718025210001,1.297382712365,0.3240079581735,985848.5,1521529580.0,967881244.5,,,,,,918318.5,1521529581.0,411035164.0,,0.8869999919089999,-0.4559999883175,-1.94899902344,-0.07349999994039999,-0.03800000064075,-0.0400000009686,58.5,58.5,60.5,67.0,118.0,248.0,251.5,266.5,319.0,351.0,5.0,-1.7000000178810002,-1.1299999952305,-0.7199993133600002,0.002000000327849999,0.006999999284750001,0.016499999910550005,2.1893611324681457,0.09190348261858089,4.980410353187404,1.3397855019413305,0.007942629714156197,0.011670424662401572
30,30,58.16321307689999,5818.5,1521529581.0,522807001.5,,1412652.0,1521529581.0,66809831.0,,0.667561773119,-0.122903869111,0.00542324064996,0.143858763352,0.989370386287,-0.0158495764742,0.014131025107,0.00790546383774,-0.010221722596299998,0.009563778759629998,-0.0141282518634,-0.0215492051837,-0.020355677768700002,2.46996092796,1.8564490079900002,4.31119537354,-0.106494694948,1.35278761387,0.291432470083,1413004.0,1521529581.0,55754569.0,,,,,,918329.5,1521529581.0,520435450.0,,0.28699999786915004,-0.23100002408000003,-1.714000320435,-0.08300000056625,-0.047499999403949986,-0.028500000014900002,56.0,58.0,62.0,70.0,127.0,260.0,270.0,279.0,312.0,356.5,-1.0,-0.5999999940398499,0.2249999642375,0.23499870300500006,-0.009500000625850005,-0.009499998763199992,0.0115000009537,1.7531477713966772,0.09978727392920426,5.304103642817397,1.3879151029190635,0.01607625066639217,0.03283792566816631
31,31,58.2657771795,5825.5,1521529581.0,592813014.5,,1412657.5,1521529581.0,121809847.0,,0.6660322968435,-0.1227078876165,0.00500627486254,0.143212218268,0.9894711004905,-0.0165537274763,0.0127681671147,-0.0243637365342,0.007682567030696998,-0.010878396998100002,-0.008493893383405,0.04393626091205,0.0219793760706,2.944241523745,2.43841612339,4.2691097259549995,-0.401482850313,1.4409731030500001,0.23103591054650002,985860.0,1521529581.0,127952241.5,,,,,,918336.5,1521529581.0,590277141.5,,0.6769999984649999,-0.7310000836849999,-0.6539989471435,-0.0819999985397,-0.0530000012368,-0.030000000260800005,56.0,58.0,60.0,60.0,126.0,248.0,253.5,281.5,315.5,363.5,-1.0,0.3900000005958499,-0.5000000596049999,1.0600013732915,0.0010000020265499981,-0.0055000018328500095,-0.0015000002459000066,1.1918073431280298,0.10214205748495378,5.7305958846525,1.5135949110548197,0.027766040685292807,0.04985613523121551
32,32,58.3683412821,5835.5,1521529581.0,692774414.5,,1412668.0,1521529581.0,226808258.0,,0.6658537369049999,-0.122027330718,0.0052488287673799995,0.142943906979,0.9895148379709999,-0.016456872685799998,0.0125138416869,0.0168799653032,0.0198581589283,0.0133075036613,-0.0016608727620699999,-0.0394600953967,0.034776948775,3.03435611725,2.1727492809299997,4.14551019669,-0.249110236764,1.50067090988,0.25919175148,1413021.0,1521529581.0,224909167.0,,,,,,918346.5,1521529581.0,690231422.5,,2.07700001933,1.354000014065,-2.0440002441400003,-0.08499999716880001,-0.052000001072899996,-0.043500000610949996,52.0,54.5,57.0,94.5,147.0,234.0,253.0,270.0,314.5,353.5,-1.0,1.400000020865,2.08500009775,-1.3900012969964999,-0.002999998629100012,0.0010000001638999986,-0.013500000350149996,3.2132821408070003,0.10872557051324339,5.57793969803682,1.5431297592412483,0.02926378920021072,0.05262407997435608
33,33,58.4709053846,5846.5,1521529581.0,802768587.5,,1412679.0,1521529581.0,336815988.0,,0.6665292911030001,-0.1207271704675,0.005351583249925001,0.1423283856895,0.989600102637,-0.01579638369015,0.013589729685899998,0.0038123559548150004,0.004607422578444999,0.00594720285023,-0.01218870030891,-0.012604965584025,0.019174964191009995,2.8326536417000003,1.365556001665,4.007068634035,0.175128415227,1.6177085042,0.346830666065,1413032.0,1521529581.0,334888852.5,,,,,,918357.5,1521529581.0,800512214.0,,2.347000000255,1.57900001835,-2.138999557495,-0.07849999889735,-0.051500000059599996,-0.0604999996722,53.0,58.0,71.0,73.0,126.0,241.0,253.0,278.0,308.0,358.0,-1.0,0.2699999809250002,0.225000004285,-0.09499931335499978,0.006499998271450008,0.0005000010132999999,-0.01699999906125,3.546402284867028,0.11169041943407211,5.093649858930892,1.6637133999893172,0.008433956514256045,0.025983241220475035
34,34,58.5734694872,5856.5,1521529581.0,902746080.5,,1412689.5,1521529581.0,441811409.0,,0.665717370219,-0.1208208564165,0.0046813707795699995,0.1419322144875,0.989661562994,-0.01624487055675,0.012695631308600002,-0.00224206557791,1.3445295249997144e-06,0.003335306167785,-0.004441454770970001,0.0046081843242799965,0.001344265838584999,3.494894742965,2.2067795991900003,3.90150284767,-0.26605762541300004,1.7096117138849998,0.2606680840255,985881.5,1521529581.0,434452407.5,,,,,,918367.5,1521529581.0,900457850.0,,0.6219999969005,1.179000009597,-1.654000854495,-0.08150000125170001,-0.04650000110265,-0.038500001654,59.0,61.0,63.0,65.0,120.5,253.0,258.5,264.5,317.0,347.0,-1.0,-1.7250000033545,-0.40000000875299996,0.484998703,-0.003000002354350009,0.004999998956950004,0.021999998018200004,2.1242984360593353,0.10142361871838117,5.683827049988651,1.7497161833631005,0.004018846488269141,0.006539796166081837
35,35,58.67603358970001,5869.5,1521529582.0,33300518.5,,1412702.0,1521529581.0,566824454.0,,0.665398623288,-0.120861911405,0.00451040169741,0.142013558923,0.9896486116329999,-0.016529316989200002,0.012432065617200002,-0.0088229376517,0.009451253115950001,-0.0109905207831,0.0102213893312,0.009959223486639999,0.004214253449840001,3.56430840492,2.1332242488900004,3.24370241165,-0.187177449465,1.7786951065099998,0.29023289680500003,985890.5,1521529581.0,570452184.0,,,,,,918380.5,1521529582.0,30861069.0,,1.586999950185,1.83900001347,-2.31899986267,-0.07550000026824999,-0.04750000126659999,-0.066499998793,52.0,59.0,63.0,67.0,73.0,261.0,268.5,287.0,313.5,341.0,-1.0,0.9649999532845,0.6600000038729998,-0.6649990081750001,0.006000000983450021,-0.0010000001639499864,-0.027999997139000005,3.3583106250752524,0.11125983102765236,5.270345855518372,1.811912474127452,0.016969441987033432,0.014880284421216528
36,36,58.778597692299996,5876.5,1521529582.0,102747440.0,,1412711.5,1521529581.0,661814730.0,,0.6652210909495,-0.1197451652005,0.00422870801667,0.141149028221,0.9897797791195,-0.01613953114105,0.01234445140175,-0.0181794996818,0.008898266631479999,-0.009329614673095,-0.004162094566750001,0.0328899248809,0.01509625391989,3.4161781072600004,1.6210135817550002,3.6439900398300002,0.167767249048,1.88617563248,0.3758935332295,985897.5,1521529581.0,655451389.5,,,,,,918387.0,1521529582.0,96250478.0,,1.2770000074099999,-0.255999940634,-2.26900062561,-0.0799999982119,-0.04500000178809999,-0.035000000148999996,54.5,57.5,62.0,89.0,109.0,251.0,268.0,285.0,326.5,346.0,-1.0,-0.309999942775,-2.094999954104,0.0499992370600002,-0.004499997943650011,0.0024999994784999998,0.031499998644,2.6162241546832954,0.09823441293794657,5.251344713798261,1.9305699455700172,0.022287105412635042,0.0364275592411516
37,37,58.881161794899995,5888.5,1521529582.0,222739458.0,,1412723.5,1521529581.0,781810358.5,,0.664430975211,-0.120214848407,0.003508228721205,0.1414701456765,0.989740684825,-0.0165065867387,0.0112657791258,-0.001292667620124999,-0.008726571253815001,0.00378652360751,-0.008469070814005001,0.009267542124300004,-0.019974898011955,4.043737888335,1.946613967415,3.53909087181,0.09148143976925,1.993588507175,0.3651149868965,985905.5,1521529581.0,782437815.5,,,,,,918399.5,1521529582.0,220529536.0,,1.806999978795,0.30900005698199995,-1.788999176025,-0.07899999991060001,-0.048499999567850005,-0.04500000178809999,52.5,53.0,55.5,71.0,107.0,246.0,249.0,266.0,326.0,358.0,-1.0,0.5299999713849999,0.5649999976160001,0.48000144958499996,0.000999998301299987,-0.0034999977797500192,-0.010000001639099984,2.561493316485159,0.10304489363808989,5.715442786575687,2.0288107214372983,0.00960009356487011,0.023592563406003814
38,38,58.9837258974,5899.5,1521529582.0,332750439.0,,1412734.5,1521529581.0,891813337.5,,0.6640147768135001,-0.120048334355,0.00283708654257,0.14138991623699998,0.9897568379195,-0.016489574638149998,0.010876227930500002,-0.00985925926899,0.011275056914075,-0.0037039188059800015,0.0034617967849785,0.00940464635375,0.015978798620039997,3.495621442795,1.7373573780050002,3.687906622885,0.09181162714945,1.902709424495,0.362212046981,558739.5,1521529581.0,895000064.0,,,,,,918410.5,1521529582.0,331005613.5,,-1.388000014055,0.6540000557900001,-2.499000167845,-0.07249999791385,-0.03800000064075,-0.057499999180449984,52.5,56.0,63.0,70.0,98.5,242.5,261.5,276.5,320.0,360.0,-1.0,-3.19499999285,0.3449999988080001,-0.7100009918200003,0.006500001996750007,0.010499998927100004,-0.012499997392350005,2.9324498206924767,0.10003249298081601,5.370142939378398,1.9390539177444472,0.01542889873808523,0.018861426652281178
39,39,59.08629000000001,5907.5,1521529582.0,412768006.0,,1412742.5,1521529581.0,971816152.5,,0.6635166700585,-0.120163029972,0.002468044420155,0.141199237144,0.9897846741985,-0.016820282259050003,0.01029886650135,-0.019959010968,-0.001482861751306,-0.013083001574050002,-0.0108595971015,0.037357003725050006,0.0023026344895000013,4.557725429535001,2.04238784313,2.95171558857,0.056398630142199986,2.220088124275,0.361253932118,1413095.5,1521529581.0,969905198.5,,,,,,918418.0,1521529582.0,406382577.0,,1.1470000121700001,3.3239999830699998,-2.2789989471400003,-0.07199999690060001,-0.0370000004768,-0.09399999678130001,51.0,53.5,56.0,101.0,113.0,258.0,262.0,280.0,314.0,358.0,-1.0,2.535000026225,2.6699999272799997,0.22000122070499994,0.0005000010132499981,0.0010000001639500003,-0.036499997600850015,4.190276973713381,0.12405240418409481,5.801451034750045,2.2499947752160496,0.02391079103628371,0.03897151141683553
