,Unnamed: 0,Unnamed: 0.1,.header.seq,.header.stamp.secs,.header.stamp.nsecs,.header.frame_id,.endpoint_state.header.seq,.endpoint_state.header.stamp.secs,.endpoint_state.header.stamp.nsecs,.endpoint_state.header.frame_id,.endpoint_state.pose.position.x,.endpoint_state.pose.position.y,.endpoint_state.pose.position.z,.endpoint_state.pose.orientation.x,.endpoint_state.pose.orientation.y,.endpoint_state.pose.orientation.z,.endpoint_state.pose.orientation.w,.endpoint_state.twist.linear.x,.endpoint_state.twist.linear.y,.endpoint_state.twist.linear.z,.endpoint_state.twist.angular.x,.endpoint_state.twist.angular.y,.endpoint_state.twist.angular.z,.endpoint_state.wrench.force.x,.endpoint_state.wrench.force.y,.endpoint_state.wrench.force.z,.endpoint_state.wrench.torque.x,.endpoint_state.wrench.torque.y,.endpoint_state.wrench.torque.z,.joint_state.header.seq,.joint_state.header.stamp.secs,.joint_state.header.stamp.nsecs,.joint_state.header.frame_id,.joint_state.name,.joint_state.position,.joint_state.velocity,.joint_state.effort,.wrench_stamped.header.seq,.wrench_stamped.header.stamp.secs,.wrench_stamped.header.stamp.nsecs,.wrench_stamped.header.frame_id,.wrench_stamped.wrench.force.x,.wrench_stamped.wrench.force.y,.wrench_stamped.wrench.force.z,.wrench_stamped.wrench.torque.x,.wrench_stamped.wrench.torque.y,.wrench_stamped.wrench.torque.z,.tactile_values.tactile_values_0,.tactile_values.tactile_values_1,.tactile_values.tactile_values_2,.tactile_values.tactile_values_3,.tactile_values.tactile_values_4,.tactile_values.tactile_values_5,.tactile_values.tactile_values_6,.tactile_values.tactile_values_7,.tactile_values.tactile_values_8,.tactile_values.tactile_values_9,.tag,.delta_wrench.force.x,.delta_wrench.force.y,.delta_wrench.force.z,.delta_wrench.torque.x,.delta_wrench.torque.y,.delta_wrench.torque.z,.wrench_stamped.wrench.force.magnitude,.wrench_stamped.wrench.torque.magnitude,.endpoint_state.wrench.force.magnitude,.endpoint_state.wrench.torque.magnitude,.endpoint_state.twist.linear.magnitude,.endpoint_state.twist.angular.magnitude
0,0,45.00935,4500.5,1521546945.0,69067954.5,,3148955.5,1521546944.0,101778775.5,,0.7147824191034999,-0.164500695972,0.023081734090500003,-0.371635444891,0.9270827948064999,-0.00695260151248,0.048540595687850005,0.012234246607959999,0.002113893707715,0.007834253282299999,0.00965740740672,-0.02391278175600001,-0.01373185389945,-0.5205128192899999,0.924023568629,6.254077672955001,0.7332505583760001,0.4286558777095,0.6049453914165,2197443.5,1521546944.0,102933906.5,,,,,,2652860.0,1521546945.0,61963557.0,,1.15799994469,-1.44900004715,-1.93899993896,0.231000006199,-0.06599999964240001,-0.0759999975562,8.0,14.5,42.0,573.5,628.0,-105.0,-96.0,-28.0,183.0,481.0,5.0,0.0,0.0,0.0,0.0,0.0,0.0,2.683334822907799,0.25197817851011867,6.343361939049461,1.0427661144521718,0.014680628772744243,0.029217297285089483
1,1,45.111914102600004,4511.5,1521546945.0,179063081.0,,3148966.5,1521546944.0,211773343.0,,0.714882402825,-0.16416731537149998,0.023110773591950004,-0.371304214974,0.927208599542,-0.006896327053925001,0.0486784098434,-0.003769091710795,-0.0096549090889,-0.004788879037974999,-0.0136003696212,0.010081207444483,0.0098096867665,-0.3877020627260001,1.101719856265,6.1202917098950005,0.6018816828725,0.450180351734,0.552159398794,2197451.5,1521546944.0,213433872.0,,,,,,2652871.0,1521546945.0,173745986.0,,0.6179999828335,-1.289000020925,-2.838999557495,0.234499998391,-0.08700000122189999,-0.06399999931455,28.0,36.0,47.5,586.0,642.5,-117.0,-90.5,-46.5,181.0,474.0,5.0,-0.5399999618565,0.16000002622499987,-0.8999996185349999,0.0034999921920000066,-0.02100000157949998,0.011999998241650005,3.178578852283464,0.25817677930102856,6.230735923254977,0.9326327846163956,0.011417385176986181,0.019566061224191356
2,2,45.2144782051,4521.5,1521546945.0,279078006.5,,3148976.5,1521546944.0,311775916.0,,0.7148766812025,-0.16548340306099998,0.0230577226284,-0.3709963364985001,0.9273358015225,-0.00745973601565,0.048520193420900005,0.0047839997608,-0.012226310817244998,0.0030092353826050005,-0.005751877608125,-0.011517694181515,-0.0032924384239600003,-0.4367220848795,1.095636695625,6.23668408394,0.650038391352,0.45902159810050003,0.5670250058174999,3149329.5,1521546944.0,309857069.5,,,,,,2652881.0,1521546945.0,273271054.0,,0.228000116348,-1.35900001377,-1.77900009155,0.222000002861,-0.0460000000894,-0.0640000030398,10.5,26.0,43.0,573.0,651.0,-134.0,-98.0,-48.0,151.0,474.0,5.0,-0.38999986648549995,-0.06999999284499991,1.0599994659449998,-0.012499995530000002,0.041000001132499984,-3.7252499973661206e-09,2.250268076522544,0.23557589364704362,6.347233595125681,0.9771223541484294,0.013469403383191787,0.013288398174848708
3,3,45.31704230770001,4528.5,1521546945.0,349057435.5,,3148983.5,1521546944.0,381773453.0,,0.714974690037,-0.1648384016735,0.02301425277125,-0.37100471639,0.9273238657335,-0.0070594789925699985,0.04874414337975,0.005462375140345002,-0.005110601499634999,0.0013356295896150006,0.006086712613869998,-0.01036190722535,-0.0031062075219500003,-0.241659685969,1.1375172734299999,6.023164987565,0.6182729899880001,0.496103540063,0.5664409697055,2197462.5,1521546944.0,377935222.5,,,,,,2652888.0,1521546945.0,342340077.0,,1.05800004005,-1.58900003284,-1.75899963379,0.231000006199,-0.0710000023246,-0.07000000029799999,9.0,14.0,38.0,545.0,654.5,-118.5,-117.0,-40.0,188.0,469.0,5.0,0.8299999237019999,-0.23000001906999998,0.020000457759999923,0.009000003337999996,-0.02500000223520001,-0.005999997258199996,2.5958360697056118,0.2515988935503319,6.13439984176147,0.974287218828539,0.0075986641103937295,0.012412321175349251
4,4,45.4196064103,4541.5,1521546945.0,479053973.5,,3148994.0,1521546944.0,486777241.0,,0.7149691456545,-0.16442294855099998,0.0233563435953,-0.3714123714965,0.927152060939,-0.0070742533729199995,0.04890631653515,-0.00042143005485549984,0.00877743954113,-0.004677996647015001,0.008653293043955,0.0031495351918915003,0.020723909080975,-0.5525063574315,1.230456352235,6.15966963768,0.581705108285,0.386969819665,0.5585684776305,2197471.5,1521546944.0,498938477.0,,,,,,2652901.0,1521546945.0,472303914.0,,-0.352000045776,-1.91899995655,-1.80899887085,0.219999998808,-0.0729999989271,-0.0489999987185,28.5,39.0,54.5,577.0,653.0,-128.5,-114.5,-27.0,169.0,467.0,5.0,-1.410000085826,-0.32999992371,-0.04999923705999998,-0.011000007390999987,-0.0019999966024999982,0.021000001579499997,2.6606280800220428,0.23691770552934538,6.305617825012435,0.8944971875522474,0.00995513439481414,0.022677730486669982
5,5,45.522170512799995,4551.5,1521546945.0,579054474.5,,3149005.0,1521546944.0,596795256.0,,0.714255588468,-0.1640280226635,0.02259857097465,-0.371695498195,0.9270751062155,-0.006526359248915,0.04828247042165,-0.004159284672319999,-0.006313841802334999,-0.0007166926757550002,-0.01503584769988,0.0069225665451999995,-0.006537600336945,-0.3618529140945,1.253408908845,6.022207975384999,0.5477340221405,0.4488228112455,0.5530947446819999,3149358.0,1521546944.0,594863583.0,,,,,,2652911.0,1521546945.0,573831153.0,,1.2380001068100002,-0.9090000256899999,-1.75899963379,0.229000002146,-0.0790000036359,-0.0619999989867,23.0,43.5,57.0,554.5,635.0,-133.0,-116.0,-53.0,144.0,482.0,5.0,1.590000152586,1.0099999308599998,0.04999923705999998,0.009000003337999996,-0.006000004708799994,-0.013000000268200002,2.3351670224717007,0.25005199745591117,6.161895838376481,0.8985367390927153,0.0075945964791942575,0.017797158812359132
6,6,45.6247346154,4562.5,1521546945.0,689058065.0,,3149015.5,1521546944.0,701775254.0,,0.7144995478485,-0.16471720402249998,0.0227808553788,-0.3712002746495,0.9272701095045,-0.006918150902565,0.0482953896851,0.0057250094033705,-0.003668049453815,0.0016832177375300016,-0.0031382204642550005,-0.009454622030894998,-0.004418933208280001,-0.47455509007,1.30354565382,6.104705095290001,0.584556221962,0.432526707649,0.5639481544495,3149369.0,1521546944.0,704831053.5,,,,,,2652922.0,1521546945.0,683573101.0,,1.4579998969999999,-2.28899996132,-1.79900054932,0.23899999260899998,-0.07000000029799999,-0.07199999690060001,19.5,26.0,38.0,570.0,629.0,-118.5,-112.0,-67.0,176.0,484.5,5.0,0.21999979018999996,-1.37999993563,-0.04000091553000007,0.009999990463000014,0.009000003337900006,-0.009999997913900008,3.2560232645097353,0.25923926412198534,6.260340095039889,0.9202297812889819,0.0070045372021461045,0.010897948253161864
7,7,45.7272987179,4572.5,1521546945.0,789050936.0,,3149026.0,1521546944.0,806771227.5,,0.7147231231990001,-0.1644621453245,0.023031251402199998,-0.3712612164045,0.9272265200335,-0.00696949261254,0.04865338334824999,-0.0030588758925450005,-0.0024896042642425,0.002447290861307,-0.00406785247517,-0.001178764762650001,0.01804819170355,-0.7800145447255,1.2292845249199995,6.246450424195,0.6568400859835001,0.35475517809400003,0.592928469181,3149378.0,1521546944.0,794847729.0,,,,,,2652932.0,1521546945.0,785102312.5,,0.41299993991845,-1.0990000233034998,-1.7839992523199997,0.227499999106,-0.062499998137350014,-0.0625,5.5,10.0,22.5,590.0,648.0,-139.0,-108.5,-40.0,167.0,476.0,5.0,-1.04499995708155,1.1899999380165005,0.015001297000000413,-0.011499993503000015,0.007500002160649978,0.009499996900600008,2.135655246961001,0.24406710011879673,6.413868258322509,0.9533385046795506,0.004641560478800656,0.018538450148097685
8,8,45.829862820500004,4584.5,1521546945.0,909078478.5,,3149039.5,1521546944.0,941781730.0,,0.7147158835799999,-0.1640467864705,0.0231005236507,-0.3716593193265,0.9270626963195,-0.006846217763499999,0.04875400415515,-0.0018610894697650001,0.0148417548651265,0.003495789262979,0.004151130291125,-0.0004246691908250007,0.004673075545449996,-0.7868729829790001,1.0898954868350001,6.341152667999999,0.812004864216,0.402305856347,0.6387389600275,2197502.0,1521546944.0,941416562.0,,,,,,2652943.5,1521546945.0,900884876.0,,-0.16699998378765002,-2.2589999899299995,-1.94399909973,0.2280000001195,-0.06500000134110001,-0.0430000014603,16.5,24.5,37.5,555.0,640.5,-124.0,-118.0,-74.0,155.0,484.0,5.0,-0.5799999237061,-1.1599999666264995,-0.15999984741000015,0.0005000010135000067,-0.0025000032037499967,0.0194999985397,2.9849794720968963,0.2409522781681485,6.482072077850499,1.1086881259482082,0.015361050877532291,0.006264971003046564
9,9,45.9324269231,4594.5,1521546946.0,9059429.0,,3149049.5,1521546945.0,41770949.0,,0.7144701352710001,-0.16407410789750002,0.02279134758325,-0.3716574884875,0.927074151364,-0.00682372954092,0.04854494945565,0.002381640388165,-0.007843252495015,-0.0005339817070099998,-0.004451643467699999,-0.006652675032829999,-0.0027263570697,-0.7065908610825,1.19348204136,6.417365312579999,0.7683167159559999,0.4422781318425,0.6398308873174999,2197509.0,1521546945.0,42427992.0,,,,,,2652953.5,1521546945.5,500406655.0,,-0.182000029087,-2.2290000185350003,-1.1390007019050001,0.2400000020865,-0.07349999994039999,-0.05400000140069999,13.0,20.0,24.5,536.0,636.0,-122.0,-87.5,-33.0,191.0,468.0,5.0,-0.01500004529934998,0.029999971394999214,0.8049983978249999,0.01200000196699999,-0.00849999859929998,-0.010999999940399985,2.5097584927950303,0.25674549878047404,6.565534828414143,1.0932996324379716,0.008214253289406106,0.008456254343824982
10,10,46.03499102560001,4600.5,1521546946.0,69053530.0,,3149055.5,1521546945.0,101778591.0,,0.7148022814149999,-0.163815962254,0.0231161878919,-0.371582905929,0.927082928895,-0.00660591685223,0.04898557344335,0.00642239759633,-0.012234368896625002,0.004597290532354999,-0.010369695350965,-0.00817279252447,-0.004427201462794999,-0.816293865442,1.216989040375,6.375780820845,0.74569362402,0.3983087837695,0.6296456754205,2197513.5,1521546945.0,102934229.0,,,,,,2652960.0,1521546946.0,65389214.0,,0.7980000495890001,-2.0039999648945,-1.6190002441400002,0.263499997556,-0.07099999859930001,-0.0599999986589,9.0,18.0,36.0,539.0,655.0,-125.0,-100.0,-35.0,151.0,486.0,5.0,0.9800000786759999,0.22500005364050013,-0.4799995422350003,0.023499995469500014,0.0025000013410999837,-0.005999997258200017,2.6970320222360327,0.2794159056893158,6.5420164379651355,1.0541169502041776,0.014562350545943178,0.01392570400777038
11,11,46.1375551282,4612.5,1521546946.0,189061045.5,,3149067.5,1521546945.0,221770667.5,,0.7145339171705001,-0.16396431026750002,0.022972976769650003,-0.3718300799245,0.92700333944,-0.006944238128985,0.048567337957849996,0.010780657909085,-0.0077535868068110015,0.0064308289369719995,-0.0028815666573500003,-0.016071643686544998,-0.01369436457435,-0.692900568247,1.272538065915,6.2126929760000005,0.6419211924079999,0.400534912944,0.5775623917580001,2197521.0,1521546945.0,215433021.5,,,,,,2652971.5,1521546946.0,181238224.5,,1.1879999160799999,-1.5089999899250002,-1.3839996337850002,0.2519999966025,-0.0744999982417,-0.07700000330805,31.5,45.5,48.5,564.0,636.0,-130.5,-104.0,-71.0,184.0,478.0,5.0,0.3899998664910001,0.4949999749695,0.235000610355,-0.011500000953500013,-0.003499999642399998,-0.017000004649149997,2.367251519487685,0.2738306931940118,6.379421473826561,0.9518767515402337,0.014754533341995843,0.0213104851724034
12,12,46.2401192308,4622.5,1521546946.0,289081573.0,,3149077.5,1521546945.0,321777897.0,,0.7147361247125,-0.16419306271099998,0.0229421082257,-0.371650642108,0.927066377693,-0.0068223351385800005,0.048755735019650005,0.0014796385334999995,0.009620127740236,0.004512179550752,0.00843207952086,-0.004554258728599997,0.0025417762219000013,-0.952261030673,1.32431387901,6.6571164131200025,0.8612288236615001,0.406604796648,0.682073920965,2197528.0,1521546945.0,315914809.0,,,,,,2652981.5,1521546946.0,280885519.0,,1.97800011635,-1.599000023305,-0.734000015259,0.24849999696,-0.06650000065565,-0.0785000026226,29.5,36.0,43.0,589.0,678.0,-134.0,-114.0,-60.0,148.5,456.0,5.0,0.7900002002699997,-0.09000003337999997,0.6499996185260002,-0.0034999996425000013,0.007999997586050009,-0.001499999314549999,2.647270586322867,0.26895491999230964,6.8540358372646875,1.1714381678189856,0.010728278157584318,0.009914729647113537
13,13,46.3426833333,4633.5,1521546946.0,399062514.0,,3149087.0,1521546945.0,417003471.0,,0.715088481291,-0.163950338567,0.0234436653288,-0.372000526727,0.926894374199,-0.006875471347010001,0.0493472905713,0.0122265385552,-0.017410960284099997,0.00496895433843,-0.0017746488250799995,-0.010636653886700001,-0.046170395678400006,-1.2141481638,1.0994808673899998,7.02610111237,1.1209709644299999,0.396952390671,0.768311619759,2197535.0,1521546945.0,417046513.5,,,,,,2652992.5,1521546946.0,390682506.5,,0.6129999876025001,-1.2339999839665001,-0.5439994812014999,0.28149999678149995,-0.0525000002235,-0.09400000050665,12.0,19.5,27.0,576.0,655.0,-137.0,-99.5,-67.0,144.0,448.0,5.0,-1.3650001287474998,0.3650000393385002,0.19000053405750014,0.032999999821499953,0.014000000432149995,-0.015499997884049987,1.4813711151421474,0.3013876213561237,7.214506967399958,1.4157859473138037,0.02184766097946647,0.04741300688057894
14,14,46.4452474359,4644.5,1521546946.0,509072065.0,,3149097.5,1521546945.0,522000447.0,,0.7143272979889999,-0.163912303518,0.02276947854440001,-0.372037217439,0.9269246505855,-0.00656800118505,0.04853553187065,0.0007700942084700006,-0.017244929438059997,0.0032086444673140005,-0.016320336651,-0.003914236320649999,-0.010559200723245002,-0.8865174651144999,1.3419343829150001,6.975311756135,1.0024076700220002,0.527557015419,0.7295030653479999,1245635.0,1521546945.0,529999872.0,,,,,,2653003.5,1521546946.0,500434103.0,,0.5930000066754999,-2.88899998516,-0.313999938965,0.28949999809250004,-0.056499999016550013,-0.07050000131129999,14.0,27.0,38.5,584.5,652.0,-131.5,-120.0,-73.5,156.5,437.5,5.0,-0.019999980927000168,-1.6550000011934998,0.2299995422364999,0.008000001311000093,-0.003999998793050004,0.023499999195349997,2.9659005181970692,0.30327009244124453,7.158329078722048,1.3473352455082834,0.017557791311301432,0.019828548970856324
15,15,46.54781153850001,4655.5,1521546946.0,619064092.0,,3149108.5,1521546945.0,632001531.0,,0.7143123550315,-0.164243935808,0.023992487239300003,-0.3726832082335,0.926613500256,-0.006021877661915,0.04958083752855,-0.018451964871049997,0.005175187528961,0.0132700870828,0.053060438179050005,0.00473599157047,0.05243870272275,-2.136787474155,0.446273326874,9.8632850647,1.730275630955,0.6905832588674999,0.963170558214,3149462.0,1521546945.0,635097203.0,,,,,,2653015.0,1521546946.0,614215853.0,,-0.251999902725,-3.0289999708499997,1.70099945068,0.321000009775,-0.180999994278,-0.0790000036359,38.0,46.5,57.5,576.0,640.0,-139.0,-132.0,-94.0,106.0,396.0,5.0,-0.8449999094004998,-0.13999998569000027,2.0149993896450002,0.03150001168249994,-0.12449999526145,-0.008500002324600006,3.4830653030909957,0.37688593072527704,10.101950943234627,2.0972497516307036,0.02330992888765369,0.074750633837803
16,16,46.650375641000004,4662.5,1521546946.0,689061998.5,,3149115.0,1521546945.0,697003919.0,,0.71155750529,-0.163003557804,0.025086686899099996,-0.374224884784,0.9259901006229999,-0.0026490304503000005,0.04991043771840002,-0.050294202473300006,0.0392213300705,0.0206427509522,0.15122215342700002,0.0464774016669,0.050760700951699995,-1.8761973381000001,-0.283703505993,11.4718122482,2.28858995438,1.03408229351,1.22439789772,2197555.5,1521546945.0,707053657.0,,,,,,2653021.5,1521546946.0,681243087.5,,0.34300000667595,-2.239000009,3.35600013733,0.2170000001785,-0.217000000179,-0.10049999877795,28.0,55.0,77.0,402.0,554.0,-139.0,-136.0,-126.5,-25.0,345.0,5.0,0.5949999094009499,0.78999996185,1.6550006866499998,-0.1040000095965,-0.036000005901,-0.021499995142050005,4.048889596746333,0.3229214299323025,11.62768594298787,2.7939435178580663,0.06703687568643811,0.16614733616255606
17,17,46.752939743599995,4672.5,1521546946.0,789084076.5,,3149126.0,1521546945.0,807002628.0,,0.7019667047750001,-0.164824117619,0.0314691108865,-0.372994581255,0.9267328570899999,0.003536384556280001,0.0450416243935,-0.10696169586000001,-0.044121769182199996,0.11018696470999999,-0.000288396787339,0.13903626730799998,0.014971398275799996,-1.40223324299,-0.7831332683560001,10.9580078125,1.4653626680399998,0.758462548256,0.947189986706,1245646.0,1521546945.0,808999936.0,,,,,,2653031.5,1521546946.0,780812892.0,,0.33300001621235,-2.039000020925,1.28099937439,-0.02050000056625,-0.16950000077475,-0.1015000008047,50.0,66.5,78.5,137.0,265.0,-108.0,-108.0,-104.0,-99.0,60.0,5.0,-0.009999990463600006,0.19999998807500008,-2.0750007629400002,-0.23750000074475003,0.04749999940425001,-0.001000002026749991,2.430919474873067,0.1986271644292658,11.075084243587641,1.9025567158191117,0.15977703867895807,0.13984030022129243
18,18,46.8555038462,4686.5,1521546946.0,929060577.5,,3149141.5,1521546945.0,962018178.5,,0.686208713019,-0.17340135203200002,0.05103608375775,-0.3751911710465,0.926282797343,0.00140108280176,0.0350627740715,-0.021375415665315003,-0.045443838876649996,0.145382903487,-0.0475057050886,-0.07814780293085001,0.0551489049127,5.08944892883,1.0181289613225002,4.729427814485,0.982210457325,1.8714144229900005,0.9172961711884999,2197573.5,1521546945.0,963049534.0,,,,,,2653045.5,1521546946.0,921188344.0,,0.1229999780657,-0.8090000018475001,0.7009994506835,-0.0654999986291,-0.1239999979735,-0.1085000000895,18.5,20.0,23.0,29.5,34.0,-178.0,-161.5,-155.0,-152.0,-137.5,5.0,-0.21000003814665,1.2300000190775,-0.5799999237064999,-0.044999998062849995,0.04550000280125,-0.00699999928480001,1.077501845683796,0.17730905035350453,7.021863316348221,2.3039881924026138,0.15381235162698176,0.10679547196372152
19,19,46.9580679487,4696.5,1521546947.0,29060006.0,,3149151.5,1521546946.0,61999586.0,,0.6904058786945,-0.176393231789,0.064177703037,-0.375432084777,0.9257719655275001,-0.0029144585908800003,0.044589717882900004,0.04695085466309999,-0.015488753794149997,0.1223754426965,-0.02400165978405,-0.2106367853785,0.03180763302865,2.60944712162,-0.1073285937307,4.97078704834,1.474675834175,1.67053127289,1.029176712035,3149504.5,1521546946.0,60095335.5,,,,,,2653055.5,1521546947.0,20710682.0,,0.3129999160765,0.02599998973310001,-1.5089996337899998,-0.1015000008048,-0.0604999996722,-0.1000000014903,23.5,24.5,26.0,43.0,48.0,-162.0,-160.0,-156.0,-155.0,-136.0,5.0,0.1899999380108,0.8349999915806001,-2.2099990844735,-0.0360000021757,0.0634999983013,0.008499998599200006,1.5413386525057922,0.15479825716645068,5.615109757387455,2.45449551928668,0.13198497347370908,0.21437271408895028
20,20,47.060632051300004,4703.5,1521546947.0,99076032.0,,3149158.5,1521546946.0,131997796.5,,0.6932731268165,-0.1765175463845,0.07202243384530001,-0.3759239677975,0.925311355901,-0.00534974800607,0.049511352119000006,0.047741979244099994,0.006953004512195,0.109362615044,-0.0198278139659,-0.1657724039665,0.0278344504411,5.888229370115,1.342369139195,0.5066581219435,0.7898217439649999,2.306397914885,0.950399398804,2197584.5,1521546946.0,125546497.5,,,,,,2653063.0,1521546947.0,93782296.0,,0.187999916077,1.22100002915,-1.15900115967,-0.08500000089410001,-0.0920000001788,-0.11299999803300001,29.0,31.5,34.0,45.5,74.0,-169.0,-165.0,-161.0,-148.5,-146.5,5.0,-0.1249999999995,1.1950000394168998,0.3499984741199997,0.01649999991069999,-0.0315000005066,-0.012999996542699996,1.693950627304605,0.16869499026454285,6.060519983753814,2.616591054458605,0.11953167957973658,0.16925834914371835
21,21,47.1631961538,4714.5,1521546947.0,209314465.0,,3149169.5,1521546946.0,241994548.5,,0.697754381346,-0.17503503648049998,0.07882561567480001,-0.37692665434600003,0.924487805108,-0.008343149140294999,0.05637723982165,0.019661558117650003,0.020211737473,0.0477321253438,0.017049472578815,-0.06773806005365,-0.002478340584235,0.9160175323495,-0.410135939717,3.929181694985,1.484413981435,1.12549161911,1.0700867772099998,1245663.0,1521546946.0,236999936.0,,,,,,2653074.0,1521546947.0,204055686.0,,0.97799999714,-0.8040000066159999,-0.553999710083,-0.05000000074505,-0.1015000008048,-0.09550000354665,24.0,25.0,33.0,36.5,61.0,-135.0,-128.0,-123.0,-119.5,-115.5,5.0,0.7900000810629999,-2.025000035766,0.6050014495870001,0.035000000149050005,-0.009500000625999995,0.01749999448634999,1.381960811244811,0.14806248989966894,4.055338259729318,2.1483253859055527,0.05543867773610257,0.06989471701852097
22,22,47.2657602564,4726.5,1521546947.0,329082012.0,,3149181.5,1521546946.0,361999456.0,,0.695459896228,-0.172829629449,0.08054995321564999,-0.3786585649905001,0.923808866746,-0.007598967691684998,0.05600906506304999,-0.029496241185650002,0.0305138050508,0.0013122448996800006,0.046807726160199986,0.0389148897389,0.011175279663619999,1.641424298285,-0.2262448221445,3.995809674265,1.2853484749800002,0.949286550285,0.9449903666975,2197600.5,1521546946.0,356059457.0,,,,,,2653086.0,1521546947.0,325936503.0,,0.8080000400540001,-0.2989999815819999,-1.299000549315,-0.06049999967215,-0.07199999876325,-0.1150000020865,26.0,29.0,29.0,33.5,49.0,-104.0,-101.0,-98.5,-94.5,-90.5,5.0,-0.1699999570859999,0.505000025034,-0.7450008392320001,-0.01049999892709999,0.02950000204155,-0.019499998539850003,1.558739067590844,0.14855722891240655,4.325731776185085,1.8564138681437616,0.04245989318682984,0.061888761073712995
23,23,47.368324359,4735.5,1521546947.0,419245481.0,,3149188.0,1521546946.0,427190881.0,,0.69382171867,-0.171502149241,0.07988247823969999,-0.3794089097640001,0.9235651967090001,-0.00668879915137,0.0550587557537,-0.0351642564075,0.0361070871768,-0.0110813860079,0.0011953048517999998,0.0804001163335,0.06333075839409999,1.8721036911000002,-0.251711606979,4.50024318695,1.31312966347,1.13060486317,0.939252972603,3149541.0,1521546946.0,425276598.5,,,,,,2653094.5,1521546947.0,411429968.5,,-0.16699998378755,-0.1640000097452,-1.3489997863749998,-0.07400000095364999,-0.06100000068545,-0.11400000006,15.5,18.0,30.5,32.0,69.0,-117.0,-112.5,-108.5,-100.0,-97.5,5.0,-0.97500002384155,0.1349999718367999,-0.049999237059999764,-0.013500001281499995,0.010999998077800006,0.0010000020265000104,1.369155002701032,0.14897315274385883,4.880606489465022,1.970982753920506,0.051604687664412056,0.10235424963772113
24,24,47.470888461499996,4748.5,1521546947.0,549080490.5,,3149200.5,1521546946.0,552191066.5,,0.6916518908475,-0.17143047210150006,0.07855521543145,-0.37943076336,0.923664706551,-0.005812657782649999,0.053307833510600006,-0.015337321499650003,-0.0019717471512000016,-0.007047173736215002,-0.01958959008878,0.02701072677295,0.014644793005345,2.78503859043,0.033853322267700006,5.940537929535,1.08733409643,1.4294770956050002,0.9116406440735,1245675.5,1521546946.0,554000000.0,,,,,,2653107.5,1521546947.0,542414502.5,,0.4380000352858,0.245999990404,-1.478998947145,-0.07449999824165,-0.06549999862910001,-0.1059999987485,10.0,18.0,21.0,28.5,52.0,-131.5,-123.0,-118.0,-115.5,-114.0,5.0,0.60500001907335,0.4100000001492,-0.12999916077000018,-0.0004999972880000149,-0.004499997943650018,0.008000001311499999,1.5619852469998392,0.14517747515747736,6.561065225240248,2.0141471813264533,0.016993642201726212,0.03643900880675526
25,25,47.5734525641,4758.5,1521546947.0,649112462.5,,3149210.0,1521546946.0,647208982.0,,0.6911287426989999,-0.171123503952,0.077905015158,-0.380308625115,0.923323973544,-0.0057224554615299995,0.0529664332001,0.00105481965578,-0.00830290935296,0.0013890160501099998,-0.0155854321667,-0.009701306712520001,0.0108132267164,3.15734124184,0.37366890907300004,5.52069997787,0.919476270676,1.60231220722,0.863394021988,1245679.0,1521546946.0,640999936.0,,,,,,2653117.5,1521546947.0,641126987.0,,1.0329999446885,-0.8289999827719999,-2.1439998626700003,-0.0760000012815,-0.0625,-0.10150000080475001,11.5,15.5,24.5,40.5,78.0,-158.5,-152.0,-149.0,-142.0,-139.0,5.0,0.5949999094027001,-1.0749999731759998,-0.6650009155250003,-0.001500003039849998,0.002999998629100012,0.00449999794375,2.520131994220025,0.14136654610675134,6.37075822933859,2.039188627603412,0.00848412127548597,0.021306030127019426
26,26,47.6760166667,4765.5,1521546947.0,719060897.0,,3149217.5,1521546946.0,722190847.5,,0.6914691871275,-0.17125219059949998,0.07825085251894999,-0.379555933965,0.9236114575395,-0.005640164229829999,0.053359443720199996,0.010809441873254999,0.013034379035049998,0.006459345032614999,0.01247722259945,-0.02793376772825,0.009502528352355,1.931552767755,0.103420943021705,5.49152135849,1.0365263819675,1.233426749705,0.8938962817195,3149571.0,1521546946.0,725272272.0,,,,,,2653124.5,1521546947.0,712292201.0,,1.7280001163499998,-1.2239999935044998,-0.6789997100830001,-0.07799999788405,-0.09850000217535,-0.08449999988080001,5.0,12.0,18.0,42.5,56.0,-187.5,-180.5,-172.5,-166.0,-163.0,5.0,0.6950001716614997,-0.3950000107324999,1.4650001525870002,-0.00199999660255,-0.03600000217535,0.017000000923949987,2.223780787869485,0.15141499291124033,5.822233146897276,1.842492618675696,0.018123526386743763,0.03203551948040421
27,27,47.7785807692,4777.5,1521546947.0,839869022.0,,3149230.0,1521546946.0,847191708.0,,0.6911973035529999,-0.17146960421100002,0.078364110798,-0.380070401081,0.9234225127949999,-0.00586296353946,0.052943165214300016,-0.0105918940619,-0.00724537193631,-0.0028173460017,-0.0149201379505,0.016683514418799998,0.016364305505999998,2.945997715,0.322798490524,5.450615882869999,0.962898015976,1.54474616051,0.897087752819,3149583.0,1521546946.0,845292229.0,,,,,,2653137.0,1521546947.0,836815865.0,,-0.09199993610385,-1.1640000209195,-1.654000091555,-0.07550000026824999,-0.06900000199675001,-0.07299999892714999,30.0,41.5,45.5,52.5,79.0,-187.0,-179.0,-162.5,-155.5,-146.0,5.0,-1.8200000524538495,0.059999972584999776,-0.975000381472,0.002499997615800012,0.029500000178599994,0.011500000953650016,2.0246175786571787,0.12565926213145273,6.204217509474059,2.0293298711246397,0.013138533891088305,0.027726172915098823
28,28,47.881144871800004,4789.5,1521546947.0,959086537.0,,3149244.5,1521546946.0,992190240.5,,0.691745997095,-0.171801201085,0.0783086033095,-0.3798519321815,0.923485536068,-0.006030856434095001,0.05338844560435002,0.005998966444405,0.014247294259850003,0.0037952792389499995,0.018357481898885,-0.011825377577905,0.0146598649698535,2.4446256160699997,0.2124131917955,5.3037641048449995,0.912724643946,1.3690109848949998,0.8491892814640001,3149597.5,1521546946.0,990275896.5,,,,,,2653148.5,1521546947.0,951877258.5,,0.4530000209819999,0.5410000219965001,-1.084000396725,-0.06200000084935,-0.07750000059605,-0.109999999404,11.0,13.5,16.5,26.0,59.0,-165.0,-162.0,-157.0,-152.5,-145.5,5.0,0.5449999570858499,1.7050000429160002,0.5699996948299999,0.013499999418899991,-0.008499998599299993,-0.03700000047685001,1.2934244867443416,0.1481561678317415,5.843905153802263,1.851588450002558,0.01591782449424094,0.02630110905384498
29,29,47.983708974399995,4796.5,1521546948.0,29094576.5,,3149251.0,1521546947.0,57189879.0,,0.691762672964,-0.171738585557,0.0785770193206,-0.379618939675,0.923576346556,-0.005995155548970001,0.0534813129239,-0.00308899749542,-0.0022332452188499998,0.0032334240541100003,-0.00145701373349,0.00774392725307,-0.019350697420700003,2.94968914986,0.245997130871,4.94438886642,0.8950920104979999,1.56271111965,0.863323569298,2197650.0,1521546947.0,64136657.5,,,,,,2653155.5,1521546948.0,21589696.0,,1.247999978065,-0.669000016153,0.0959999084471,-0.047499999403949986,-0.1539999991655,-0.09850000217575,17.0,20.5,24.5,35.0,47.5,-155.0,-150.5,-144.0,-141.0,-137.0,5.0,0.7949999570830001,-1.2100000381495,1.1800003051721,0.014500001445400009,-0.07649999856945,0.01149999722825,1.4192536592465796,0.18887694437112224,5.762652334782711,1.997143794532719,0.004998431838879527,0.020893558552527725
30,30,48.08627307689999,4809.5,1521546948.0,159237027.0,,3149264.0,1521546947.0,187206215.0,,0.692319240069,-0.17221711360800002,0.07851721985610001,-0.378842727887,0.923883319042,-0.00605295058293,0.053676457713,0.0035261256138699997,0.017298911243200002,-0.00316304343447,0.00923439363604,-0.0161358364058,0.0341993274777,3.5973174572000004,0.532170176506,4.8258848190300005,0.7608752250669999,1.7997181415599999,0.8142372369769999,2197659.5,1521546947.0,195144643.0,,,,,,2653168.5,1521546948.0,152913435.5,,0.393000078201,0.250999993086,-1.589001464845,-0.08300000056625,-0.08200000226499997,-0.08799999952314999,7.0,9.5,11.0,16.0,27.0,-153.5,-151.5,-141.0,-136.5,-128.0,2.5,-0.8549998998639999,0.920000009239,-1.6850013732921,-0.0355000011623,0.07199999690050002,0.01050000265260001,1.6560119906796327,0.14614034481118449,6.042603931351328,2.1168133539027187,0.01793573906515272,0.03892599699772689
31,31,48.1888371795,4818.5,1521546948.0,249127506.5,,3149272.5,1521546947.0,272209808.0,,0.692117906531,-0.17136792474450002,0.0778725430845,-0.378974985496,0.923846235628,-0.005169692333179999,0.053471702007649995,0.01465706247822,0.015907020010799997,0.008172422468734999,0.02255485561155,-0.03328486031475,0.0051332222430500035,3.7551411390300005,0.385044068098,4.092138767244999,0.7827365398405001,1.8365303874,0.8213748633860001,3149626.0,1521546947.0,275309871.0,,,,,,2653177.5,1521546948.0,242318387.0,,0.9229999303815,0.4159999903293,-1.899000930785,-0.07400000095369999,-0.05350000038745,-0.104499999434,15.0,22.0,25.5,31.0,36.0,-179.0,-176.0,-174.0,-169.0,-144.0,-1.0,0.5299998521804999,0.1649999972433,-0.30999946594000005,0.008999999612550005,0.028500001877549967,-0.016499999910850008,2.152019841581515,0.13877499797986217,5.567310266080238,2.1587443157649413,0.023122527005539874,0.04053336167192195
32,32,48.2914012821,4827.5,1521546948.0,339148998.0,,3149282.0,1521546947.0,367248629.5,,0.6918508754849999,-0.17176353590149998,0.07727907983575,-0.3789730950995,0.923888641634,-0.005018535799205,0.05276294906805,0.009162601140005,0.0005011515745784999,-0.00313095349147,0.0173271284965,-0.007735732237199999,-0.018827733740599997,4.728269815445,0.4744127690795,4.6137151718150005,0.8151655793189999,2.133016467095,0.8302598893645,3149634.5,1521546947.0,360331686.5,,,,,,2653186.5,1521546948.0,331702753.5,,0.3480000019075,-0.6389999851585,-1.1190002441384999,-0.06900000013410001,-0.06799999997020001,-0.09999999776465003,10.5,13.0,24.0,26.5,32.0,-157.5,-152.0,-145.0,-143.0,-131.5,-1.0,-0.5749999284739999,-1.0549999754878001,0.7800006866464999,0.005000000819599976,-0.01449999958275001,0.004500001669349968,1.3347608507677342,0.1392300239437709,6.62329001401493,2.4297295434867783,0.009695735264397003,0.026731152107359782
33,33,48.3939653846,4838.5,1521546948.0,449104905.0,,3149290.0,1521546947.0,447266909.0,,0.692637357397,-0.170015984459,0.07737714250260001,-0.37964012387199997,0.9235797329809999,-0.004708558234310001,0.053401148426599994,0.006520167195479999,0.0033456424345599998,-0.0053618490195600004,0.00716216817469,-0.000761577885206,-0.00958122851039,4.05275821686,0.302784383297,3.94625663757,0.723902106285,1.8854367733000001,0.7683184742929999,3149645.0,1521546947.0,465342904.5,,,,,,2653197.5,1521546948.0,441461817.0,,0.5780000209799999,-0.2190000094475,-1.0540016174320002,-0.09599999710915,-0.1009999997915,-0.07849999889735,5.0,6.0,12.0,22.0,24.0,-168.0,-163.5,-160.0,-155.0,-153.5,-1.0,0.2300000190724999,0.41999997571099995,0.06499862670649993,-0.026999996975049984,-0.03299999982129999,0.02149999886730003,1.2218692392969708,0.159935140696858,5.6647567464684725,2.1608376532112956,0.009080491642278992,0.011986517159128723
34,34,48.4965294872,4848.5,1521546948.0,549057483.5,,3149301.0,1521546947.0,557266411.0,,0.69327925066,-0.173119806012,0.0768810571476,-0.377484944805,0.924472702087,-0.00494449526056,0.053206122850599995,0.0110351136827,-0.0371996005891,-0.0007353550806950001,-0.013676371292600001,-0.0113550125004,-0.0344881484321,4.8487200737,0.622013449669,3.65066957474,0.647111415863,2.16944646835,0.7893553972239999,3149654.0,1521546947.0,555355935.0,,,,,,2653207.5,1521546948.0,543057092.5,,-0.3469999909400001,-0.473999993503,-1.923998641965,-0.06799999997020001,-0.0579999983311,-0.07950000092389999,4.5,14.0,18.5,36.0,61.0,-174.0,-172.0,-163.5,-154.5,-151.0,-1.0,-0.92500001192,-0.25499998405549995,-0.8699970245329998,0.02799999713894999,0.0430000014604,-0.0010000020265499843,2.0116798358179087,0.11961709722800877,6.101178200036678,2.397568165183873,0.038808823288955636,0.03879963689123721
35,35,48.599093589700004,4858.5,1521546948.0,649076461.0,,3149312.0,1521546947.0,667273509.0,,0.6940917936290001,-0.17304279358,0.0769901643111,-0.377067633864,0.924623664723,-0.0052766332693700005,0.05350920732080002,0.0075718922511400005,0.000820882537921,-0.00028307234783599996,0.017317243844299997,-0.000323384988141,-0.0228036308975,5.25604486465,0.742170870304,3.14650964737,0.479267001152,2.23556256294,0.731432914734,3149664.5,1521546947.0,660344621.0,,,,,,2653217.5,1521546948.0,642586174.5,,0.198000025749,-0.49900000877663503,-1.6690013885500004,-0.08049999922515,-0.07050000131129999,-0.09750000014905,1.5,5.0,24.5,25.5,33.5,-154.0,-150.5,-149.0,-138.0,-135.0,-1.0,0.5450000166890001,-0.02500001527363499,0.2549972534149996,-0.012499999254949991,-0.012500002980199994,-0.017999999225150012,1.7532172295347532,0.14476446417960176,6.170684579601676,2.4005063924031464,0.007621517588908852,0.028635591391185163
36,36,48.701657692299996,4869.5,1521546948.0,759063005.0,,3149323.0,1521546947.0,777269870.0,,0.6940360491590001,-0.173156986928,0.0767269101918,-0.376806055218,0.92474511323,-0.00497205079454,0.053281807578300006,0.010703513530700004,-0.0164080091289,-0.000785493835992,-0.0134921626507,-0.00396484058686,-0.031535099638799996,5.10922765732,0.707862079144,3.2166781425499997,0.5463044643399999,2.2120428085299997,0.730602383614,3149675.0,1521546947.0,765356155.0,,,,,,2653228.5,1521546948.0,752259702.5,,0.352999997139,-0.5090000048278001,-1.889000701905,-0.07700000330805,-0.06749999895695,-0.0785000026226,6.5,10.5,13.0,46.0,65.0,-115.0,-114.5,-107.5,-97.0,-94.0,-1.0,0.15499997138999996,-0.009999996051165085,-0.2199993133549996,0.003499995917099999,0.0030000023543499954,0.018999997526450003,1.987967216704646,0.1290251943628692,6.078839876997304,2.3927728261307135,0.019606248137834154,0.0345285522879428
37,37,48.804221794899995,4878.5,1521546948.0,849062442.5,,3149331.0,1521546947.0,857281262.5,,0.6938473258735001,-0.173401562045,0.07636511610319999,-0.3767823862345001,0.9247675667599999,-0.005009981118685,0.0530553247394,0.011296433051020002,-0.007863997892535002,0.0005978233062550005,0.010397298897805,-0.009269282904959998,-0.044556298043649994,6.04988574982,0.8280763626100001,3.2079020738599997,0.6253392398359999,2.5617544651,0.804718285799,3149684.0,1521546947.0,855336573.5,,,,,,2653237.5,1521546948.0,841599573.0,,-1.366999971865,-1.0440000161535,-1.64399986267,-0.07200000062584999,-0.0689999982715,-0.0465000011027,6.0,13.5,26.0,29.0,34.0,-116.0,-114.0,-114.0,-101.0,-93.0,-1.0,-1.7199999690040002,-0.5350000113256999,0.24500083923499985,0.005000002682200008,-0.001499999314549999,0.0320000015199,2.379361365002466,0.11003294940217,6.897641898769738,2.7570285859667347,0.013777127974852876,0.046682835446200666
38,38,48.9067858974,4889.5,1521546948.0,959110021.5,,3149344.5,1521546947.0,992273081.0,,0.694262029957,-0.173599611087,0.0759055355048,-0.3764869319585,0.9248992935495,-0.004935390587625,0.05286201321140001,0.000232576208,-0.004956628642185001,-0.0020204653692799997,-0.0110869825390585,0.016214863054460002,4.91559564400005e-05,5.748835563659999,0.5857837498189999,2.62557077408,0.8514156639575,2.43289577961,0.8668211102485,2197715.0,1521546947.5,494660929.5,,,,,,2653248.5,1521546948.0,953274204.5,,-0.756999957561,-0.4090000107885,-1.62900047302,-0.058500001206999996,-0.07750000059605,-0.0625,13.5,35.0,38.0,44.5,60.0,-77.5,-75.5,-73.5,-67.5,-58.0,-1.0,0.6100000143040001,0.6350000053649999,0.014999389650000028,0.013499999418849988,-0.008500002324550004,-0.0159999988973,1.8422737271295309,0.11547618903309353,6.347115473130849,2.7194244509544263,0.005357661756542321,0.01964294738587704
39,39,49.00935,4901.5,1521546949.0,79056024.0,,3149356.5,1521546948.0,112272264.0,,0.6947455208910001,-0.17300095424000006,0.075839803815,-0.3761196199525,0.925020104688,-0.004271679907,0.0534184072743,0.0027818461272215,0.001851282863885,-0.00224569050239,0.00120028596871,-0.0023382664084120003,0.00993244884878,5.723427534104999,0.5632321536545,2.599561452865,0.6635646224025,2.466147780415,0.795362919569,3149709.0,1521546948.0,105363463.0,,,,,,2653260.5,1521546949.0,73108635.5,,2.04299993515,-0.2940000012515,-1.824000167845,-0.049499999731800005,-0.10550000145999999,-0.07849999889735,3.0,10.5,36.0,47.0,66.5,-114.0,-108.5,-101.5,-99.5,-86.0,-1.0,2.799999892711,0.115000009537,-0.1949996948249999,0.009000001475199998,-0.02800000086395001,-0.01599999889735,2.7544983841086883,0.14050889690120036,6.311305169636714,2.6748467351935,0.0040260454481011705,0.010274323157124328
