,Unnamed: 0,.header.seq,.header.stamp.secs,.header.stamp.nsecs,.header.frame_id,.endpoint_state.header.seq,.endpoint_state.header.stamp.secs,.endpoint_state.header.stamp.nsecs,.endpoint_state.header.frame_id,.endpoint_state.pose.position.x,.endpoint_state.pose.position.y,.endpoint_state.pose.position.z,.endpoint_state.pose.orientation.x,.endpoint_state.pose.orientation.y,.endpoint_state.pose.orientation.z,.endpoint_state.pose.orientation.w,.endpoint_state.twist.linear.x,.endpoint_state.twist.linear.y,.endpoint_state.twist.linear.z,.endpoint_state.twist.angular.x,.endpoint_state.twist.angular.y,.endpoint_state.twist.angular.z,.endpoint_state.wrench.force.x,.endpoint_state.wrench.force.y,.endpoint_state.wrench.force.z,.endpoint_state.wrench.torque.x,.endpoint_state.wrench.torque.y,.endpoint_state.wrench.torque.z,.joint_state.header.seq,.joint_state.header.stamp.secs,.joint_state.header.stamp.nsecs,.joint_state.header.frame_id,.joint_state.name,.joint_state.position,.joint_state.velocity,.joint_state.effort,.wrench_stamped.header.seq,.wrench_stamped.header.stamp.secs,.wrench_stamped.header.stamp.nsecs,.wrench_stamped.header.frame_id,.wrench_stamped.wrench.force.x,.wrench_stamped.wrench.force.y,.wrench_stamped.wrench.force.z,.wrench_stamped.wrench.torque.x,.wrench_stamped.wrench.torque.y,.wrench_stamped.wrench.torque.z,.tactile_values.tactile_values_0,.tactile_values.tactile_values_1,.tactile_values.tactile_values_2,.tactile_values.tactile_values_3,.tactile_values.tactile_values_4,.tactile_values.tactile_values_5,.tactile_values.tactile_values_6,.tactile_values.tactile_values_7,.tactile_values.tactile_values_8,.tactile_values.tactile_values_9,.tag,.delta_wrench.force.x,.delta_wrench.force.y,.delta_wrench.force.z,.delta_wrench.torque.x,.delta_wrench.torque.y,.delta_wrench.torque.z
0,43.828163,4380.5,1521534424.0,624486923.0,,1896948.5,1521534424.0,32375585.5,,0.7619622794515001,-0.07422023891364997,0.09441309859875,0.7682732165135001,0.63947602474,-0.024387175606299997,-0.0152255315652,-0.0029681289260650003,-0.0015994369162900001,0.0031608634665040002,0.0007935513776799997,0.002729180243636,-0.001759841003016,0.453591451049,0.509304642677,6.149391889575,-0.040999919176150014,0.4087940752505,0.1666043922305,750298.5,1521534424.0,33500032.0,,,,,,1402127.5,1521534424.0,616553253.5,,-0.042999982834,-0.807999998329,-2.5099994659450005,-0.0835000015795,-0.05450000055134999,-0.051999999210249996,34.5,37.0,37.5,52.0,124.0,207.0,211.0,220.0,252.5,270.0,4.0,0.0,0.0,0.0,0.0,0.0,0.0
1,43.9307271026,4392.5,1521534424.0,744210958.0,,1896960.5,1521534424.0,152376382.5,,0.762019117799,-0.07462455408549999,0.09427407579330001,0.768287180254,0.6394566730855,-0.02456702932095,-0.015047141251049998,0.0072787997784099995,-0.0025666732681060003,0.00729064848471,0.012309062848450002,-0.01391173897635,-0.007933765921475001,0.336108997464,0.4891543239355,6.0948758125300015,-0.04205225035545,0.387893438339,0.174389988184,1897313.5,1521534424.0,150476581.0,,,,,,1402139.5,1521534424.0,735295073.5,,0.426999926567,-0.9130000025045,-0.42500038147,-0.0944999977946,-0.06900000199675001,-0.0610000006855,29.0,34.0,41.0,45.5,55.0,221.0,226.5,240.0,259.0,275.5,4.0,0.469999909401,-0.10500000417549993,2.0849990844750006,-0.010999996215100005,-0.014500001445400014,-0.009000001475250007
2,44.0332912051,4400.5,1521534424.0,824797510.5,,1896968.5,1521534424.0,232371570.0,,0.7620279789150001,-0.07440521887669999,0.09421446819,0.7682238770855001,0.6395377081464999,-0.0244723244729,-0.014983354697200002,0.00013105253933505,0.01167598898045,0.006184843682175001,0.016462514940156,-0.006727436312048501,-0.0005350061745000006,0.4912624657155,0.572551548481,6.135786771775,-0.03989742603155,0.44104295969,0.17725504189750002,750306.0,1521534424.0,228999936.0,,,,,,1402147.5,1521534424.0,818287014.5,,1.862000107765,0.0020000040531,-1.240000915528,-0.08150000125170001,-0.055000001564600005,-0.03800000064075,40.0,40.0,48.5,74.0,93.0,208.0,212.0,232.5,241.0,260.0,4.0,1.435000181198,0.9150000065575999,-0.815000534058,0.012999996542899989,0.014000000432150002,0.023000000044750002
3,44.135855307700005,4413.5,1521534424.0,954053521.0,,1896981.5,1521534424.0,362378625.0,,0.7618373438805001,-0.07443087603199999,0.09415855394974999,0.7683217416704999,0.6394084442769999,-0.02451525896175,-0.0154110799215,0.0038793345336649997,0.003837791192605,-0.00198068029213,0.010912535477065001,-0.0058269407681400005,-0.0012865735218,0.498650878668,0.604394108057,6.101167440415,-0.076315483078535,0.4224603325125,0.16441960632799998,1897334.5,1521534424.0,360468969.0,,,,,,1402160.5,1521534424.0,945918424.5,,1.5570000410049998,-0.4030000269415,-2.5050003051750003,-0.07349999994039999,-0.048000000417250006,-0.0360000003129,45.0,46.0,52.0,72.5,84.0,208.5,217.0,218.0,246.0,278.0,4.0,-0.30500006676000013,-0.4050000309946,-1.2649993896470002,0.00800000131130002,0.007000001147349999,0.002000000327849999
4,44.2384194103,4420.5,1521534425.0,24348020.5,,1896988.5,1521534424.0,432369818.5,,0.7618839568305,-0.07434389217699999,0.09403894698785,0.7684178275389999,0.6392917116200001,-0.02447211135665,-0.0155268342518,-0.011487019941655002,0.010667115371834998,-0.005315124638659999,0.0025730652336550005,0.01860304498395,0.008533779911525,0.5102173238995,0.5804916024210001,6.092617273330001,-0.09028821438535,0.4541269391775,0.1594584211705,750314.0,1521534424.0,431000064.0,,,,,,1402168.0,1521534425.0,19333673.0,,0.93699991703,0.491999953985,-2.78500099182,-0.0860000029206,-0.0579999983311,-0.0309999994934,39.5,42.0,55.0,73.0,111.0,215.0,220.5,224.0,241.5,256.0,4.0,-0.6200001239749998,0.8949999809265,-0.2800006866449998,-0.012500002980200015,-0.009999997913849992,0.0050000008195
5,44.340983512799994,4433.5,1521534425.0,158493518.0,,1896999.0,1521534424.0,537386768.0,,0.7617220598534999,-0.07438413951989999,0.09397943289315,0.7682797745469999,0.6394492332995001,-0.0246460555378,-0.01560107499755,-0.0037252540482349992,0.010647458834085,0.00013405614771799996,0.01265171957229,0.0062861360653549995,0.01443200077113,0.6713314056399999,0.6771055459975001,6.088525533674999,-0.1210112273695,0.49605236947549997,0.1646282449365,1323835.5,1521534424.0,538717604.5,,,,,,1402181.0,1521534425.0,152812441.5,,1.5870000124,-0.95300000906,-0.245000076294,-0.101999998093,-0.06799999997020001,-0.032999998889849995,30.5,36.5,41.5,48.0,85.0,217.0,223.5,227.5,244.0,261.0,4.0,0.6500000953700001,-1.4449999630450001,2.540000915526,-0.0159999951724,-0.01000000163910001,-0.001999999396449993
6,44.4435476154,4441.5,1521534425.0,234091996.5,,1897007.0,1521534424.0,617381322.0,,0.7621756600380001,-0.0736363531743,0.0944454121856,0.767921436786,0.639914173768,-0.0240729822086,-0.0150668066584,-0.008230158950960001,-0.00196082222421,-0.00502925657819,-0.0156553647463,0.0140723877969,0.0250420228301,0.242610484362,-0.6653272509570001,6.155005931849999,0.450992405415,0.35675239563,0.168422207236,1323840.5,1521534424.0,618734713.5,,,,,,1402188.5,1521534425.0,225783464.0,,1.5170000791549998,-1.3079999964700002,-2.529999923705,-0.07550000026824999,-0.057000000029800005,-0.0405000001192,35.0,39.0,41.5,57.0,103.0,219.0,223.0,231.0,248.0,284.5,4.0,-0.06999993324500031,-0.35499998741000016,-2.284999847411,0.026499997824750016,0.010999999940400004,-0.0075000012293500035
7,44.5461117179,4453.5,1521534425.0,354118466.0,,1897019.0,1521534424.0,737383421.5,,0.7609239358435,-0.07491959715315,0.09585464533770001,0.7684537819224999,0.6391385806584999,-0.026987576799150002,-0.015860124564400002,-0.03717382471319999,-0.016294044102049998,0.0324744835881,-0.05164701100765,0.13749000572099998,0.005760736497844999,2.8988707065600003,1.550913631915,7.791236877445001,-0.7032796144485,1.6752759218200002,0.151576012373,1323849.5,1521534424.0,741230415.5,,,,,,1402200.5,1521534425.0,347112402.0,,0.46200001239775,0.11700001359,-1.52000160217,-0.154500000179,-0.02000000094994,-0.037000000476849995,26.0,38.5,43.0,57.0,80.0,223.0,228.5,233.0,254.5,288.5,4.0,-1.0550000667572497,1.4250000100600002,1.0099983215350001,-0.07899999991075002,0.036999999079860006,0.003499999642350003
8,44.6486758205,4464.5,1521534425.0,464074492.0,,1897030.0,1521534424.0,847377804.0,,0.754099211925,-0.0771537457197,0.102099985281,0.77018130072,0.636346048201,-0.038820033326,-0.0194287408761,-0.042325994818400006,-0.0200669418192,0.0796006800303,-0.0684919076662,0.17035091605099995,-0.0527087135265,7.04771566391,3.84666180611,7.727234840389999,-1.41766154766,2.72246408463,0.0705450549722,750331.0,1521534424.0,848999936.0,,,,,,1402211.5,1521534425.0,456186026.0,,-0.3880000114441,-0.48800003528589503,-2.790000152585,-0.082499999553,-0.03649999946355,-0.0295000001788,36.0,42.5,45.5,52.0,101.5,252.0,270.0,278.5,311.0,329.5,4.0,-0.85000002384185,-0.605000048875895,-1.2699985504149998,0.07200000062600001,-0.016499998513610004,0.007500000298049994
9,44.7512399231,4472.5,1521534425.0,544192552.0,,1897038.0,1521534424.0,927378151.5,,0.7552213882969999,-0.07660138948964999,0.1096494625415,0.7706965050085001,0.635637042849,-0.040145162885500005,-0.019512457509000002,0.032750609293,0.02707016005435,0.1012784174834,-0.0009224324409029999,-0.03056446707625,-0.011301770854209999,8.00776195526,4.81410574913,7.41802978516,-1.80614459515,3.1944994926450003,0.07361716777085,750334.0,1521534424.0,936000000.0,,,,,,1402219.5,1521534425.0,536415504.5,,-0.473000049591,-0.1130000054834,-2.7299987793,-0.07750000059605,-0.0539999995381,-0.04350000061095,32.5,33.5,35.5,51.0,74.0,289.5,301.0,308.5,354.0,391.0,4.0,-0.08500003814689999,0.375000029802495,0.06000137328499999,0.004999998956949997,-0.01750000007455,-0.014000000432150002
10,44.853804025600006,4486.5,1521534425.0,684188007.5,,1897054.5,1521534425.0,92381915.0,,0.7651777958374999,-0.0690278811353,0.1280221065415,0.7728311182735,0.633640300714,-0.031800640835800004,-0.014846681384349997,0.0720966020988,0.0460326043663,0.12887038238999998,0.02082260049015,-0.148539769587,-0.05130669617125,3.11144351959,3.2838050127,6.5322079658500005,-1.158108770845,1.6760058999099998,0.08229988813400001,750340.5,1521534425.0,96000000.0,,,,,,1402233.5,1521534425.0,677560081.0,,-1.0830000042925,0.2619999945164,-2.6850006103500004,-0.07999999821185,-0.06499999947845,-0.049499999731800005,34.0,41.0,48.0,53.0,65.5,335.0,341.0,343.0,407.0,447.5,4.0,-0.6099999547015,0.3749999999998,0.04499816894999942,-0.002499997615799998,-0.010999999940350003,-0.0059999991208500025
11,44.9563681282,4492.5,1521534425.0,744057416.5,,1897060.5,1521534425.0,152377295.0,,0.7680887897535,-0.06544215163639999,0.134722508033,0.772733240868,0.6339466879394999,-0.028508413779500003,-0.0134856456939,0.0453146387437,0.05161660708945,0.1022785567449,0.0154928354214,-0.1024450608489,0.030253229065865004,3.86409282684,3.731683254245,6.307593584060001,-1.36321425438,1.9894349575,0.0695632323623,1323878.0,1521534425.0,147713881.0,,,,,,1402239.5,1521534425.0,738794162.0,,-0.44300007820299997,-1.3930000141249999,-2.5149986267099997,-0.07349999994039999,-0.05849999934435,-0.0195000004023,35.0,36.0,39.0,51.0,61.0,330.5,333.0,337.5,406.0,455.5,4.0,0.6399999260895002,-1.6550000086413998,0.17000198364000063,0.006499998271450008,0.006500000134100008,0.029999999329500007
12,45.058932230799996,4504.5,1521534425.0,864090919.0,,1897072.5,1521534425.0,272376219.0,,0.7733481258304999,-0.0582820791426,0.1424128323745,0.771017394839,0.6363600725615,-0.021587653701950003,-0.01057490736465,0.038568220703450014,0.07188330131805,0.0388422360015,0.04954962229625,-0.1290893797435,0.06645267883480001,-1.200701028106,0.1917117107661,4.173078417775,0.06773310527200001,0.1081042438745,0.112181402743,1897425.5,1521534425.0,270447972.5,,,,,,1402251.5,1521534425.0,858015194.0,,0.31700003147100003,0.03699997067450006,-2.18999977112,-0.07049999944865,-0.07499999925495003,-0.0414999984205,38.0,41.0,44.5,46.5,75.5,331.0,345.0,348.5,412.0,445.5,4.0,0.760000109674,1.4299999847995,0.32499885558999964,0.0030000004917499906,-0.016499999910600034,-0.0219999980182
13,45.1614963333,4517.5,1521534425.5,498949527.5,,1897086.0,1521534425.0,407380560.0,,0.773537177151,-0.0516711967137,0.14292047861399998,0.7689050651695,0.63898016057,-0.019494859604650003,-0.010451825049,-0.009092385761010001,0.03810878698595,-0.005883289722579999,0.012065223534875,0.005285537462999998,0.052260424585450015,5.047585248945,1.3115017265095,4.946575641630001,-0.25549882650364997,2.441421508785,0.165340974927,1323896.0,1521534425.0,404237395.5,,,,,,1402265.0,1521534425.5,491375235.0,,-0.5880000591275001,-1.0930000096569998,-2.170001220705,-0.07649999856950003,-0.06450000032785,-0.01049999985845,39.0,40.5,43.0,44.0,70.5,316.5,324.5,336.5,403.0,420.0,4.0,-0.9050000905985001,-1.1299999803315,0.019998550414999983,-0.00599999912085003,0.010499998927100032,0.030999998562049998
14,45.2640604359,4526.5,1521534426.0,84550976.5,,1897092.5,1521534425.0,472375470.0,,0.7721986990595,-0.0497790515698,0.141956284032,0.76798101296,0.6400563671275,-0.02023870708665,-0.011104831487099998,-0.02586873107675,0.014599046509750002,-0.0167179351109,0.004858651144475,0.0608478163641,0.025668967297034998,6.5563602447500005,4.9680814743,6.400973320005001,-1.589714467525,2.90230834484,0.1365353390575,1897445.0,1521534425.0,465457780.5,,,,,,1402273.5,1521534426.0,77203613.5,,-0.6579999923705,0.10199996829055,-2.329999160765,-0.0859999991953,-0.07349999807775001,-0.0324999997392,36.0,37.0,39.5,51.5,60.0,299.5,314.5,318.5,342.5,373.5,4.0,-0.06999993324299991,1.1949999779475498,-0.1599979400599998,-0.009500000625799976,-0.008999997749900013,-0.02199999988075
15,45.366624538500005,4537.5,1521534426.0,194989561.5,,1897103.0,1521534425.0,577380270.0,,0.771638507353,-0.049194907177800014,0.141958776987,0.7678657530349999,0.640161351841,-0.01944732575,-0.0140509945096,0.0177236537233,-0.007376025652899998,0.004073876826420001,0.0666496824789,-0.0164155633784,0.00099707408014,4.91225147247,-3.34702801704,6.173468589780001,1.56314766407,2.27661418915,0.331005990505,1323907.5,1521534425.0,580728202.5,,,,,,1402284.5,1521534426.0,186544694.0,,-0.05299997329999995,-3.688000068065,-1.040000152589,0.055999998003199984,-0.036500001791870004,-0.07349999994035,46.0,51.5,58.5,69.0,167.0,216.5,223.5,252.0,311.0,322.0,4.0,0.6050000190705,-3.79000003635555,1.289999008176,0.14199999719849998,0.03699999628588001,-0.04100000020115
16,45.469188641,4544.5,1521534426.0,264210462.0,,1897110.0,1521534425.0,647377889.5,,0.7580421075624999,-0.055185602636300006,0.1430931384,0.7643817405695,0.6433465155505,-0.036130430617,-0.022676488438049997,-0.3374512456065,-0.1245864383805,0.007690097378850001,-0.1814834934539,0.8840426297094999,0.19461172935875,4.966050148020001,-1.248654842375,0.7916595935799997,1.395300835371,-0.7408812046049995,0.14753607357863996,1323913.0,1521534425.0,653239531.5,,,,,,1402291.5,1521534426.0,257936675.5,,-7.10799998045,-12.493000179500001,-3.2550003051750003,1.1995000243199998,-0.43000000715250003,-0.17499999702000002,106.5,112.0,118.0,123.5,132.5,389.0,392.0,397.0,433.0,541.0,4.0,-7.055000007149999,-8.805000111435001,-2.2150001525860006,1.1435000263167998,-0.39350000536063,-0.10149999707965002
17,45.571752743599994,4556.5,1521534426.0,384179949.0,,1897123.0,1521534425.0,777374320.0,,0.748234082316,-0.0583526456028,0.138227745887,0.7659672004979999,0.640331390955,-0.0508654538404,-0.0261278228076,0.131833193997,0.0151344480056,-0.047122235282,-0.045906638579,-0.28764317341400003,0.0280660665464,11.056956291199999,6.46076154709,1.957503438,-1.54378294945,1.78462100029,0.310543477535,1897475.0,1521534425.0,765468706.0,,,,,,1402303.5,1521534426.0,376809456.5,,-4.41800004244,-10.77800002695,-1.02500076294,0.8664999902249999,-0.596500009298,0.010000000474989999,85.5,93.0,100.0,110.5,121.0,256.0,273.5,289.5,295.0,304.0,4.0,2.6899999380099997,1.715000152550001,2.2299995422350003,-0.3330000340949999,-0.16650000214549993,0.18499999749499002
18,45.6743168462,4567.5,1521534426.0,495041012.5,,1897133.5,1521534425.0,882378350.0,,0.7617146902680001,-0.04870976409705,0.12910671614,0.7660199266765001,0.641625879244,-0.03376216333335,-0.0197248165991,0.150115755882,0.10363108564604999,-0.10466998018,0.152303249041,-0.3647057286675,-0.07174910935025,7.1997506618500005,4.73773276806,6.23841071129,-1.4965389370950002,1.989358067515,0.19477904588,1897486.0,1521534425.0,875464157.5,,,,,,1402314.5,1521534426.0,487494949.0,,-0.567999958991,-5.062999874355,-0.08000106811550001,0.26550000160950005,-0.340499997139,0.01100000040607,62.0,63.5,71.0,72.5,105.0,328.0,336.0,341.0,428.5,447.0,4.0,3.8500000834490002,5.715000152595,0.9449996948245,-0.6009999886154999,0.256000012159,0.000999999931080001
19,45.7768809487,4576.5,1521534426.0,584268569.5,,1897142.0,1521534425.0,967376864.5,,0.7722909733565,-0.045165820070350006,0.123600657849,0.767219047877,0.6408514634510001,-0.021780504902150003,-0.014419318601200002,0.11165973843350001,0.04016068249075,-0.0517631556424,0.06575017764494999,-0.26230751721150003,0.015741169776424997,1.550841599702,2.134933531285,5.175536870959999,-0.516447305679,0.4866265482267,0.18123093992449998,1897496.0,1521534425.0,975477134.0,,,,,,1402323.5,1521534426.0,578431774.5,,-0.613000035286,-3.8179999887949996,0.5350006103515,0.11549999937449999,-0.2555000036955,0.020500000566250003,40.0,41.0,42.5,45.5,53.0,279.5,291.5,299.5,344.0,387.0,4.0,-0.045000076295000024,1.2449998855600009,0.615001678467,-0.15000000223500004,0.08499999344349995,0.009500000160180003
20,45.8794450513,4587.5,1521534426.0,694283485.0,,1897155.5,1521534426.0,102375796.5,,0.7765095115459999,-0.04624891245905,0.11879650741900001,0.7676234307534999,0.640535209287,-0.018223370123,-0.01169255742525,0.0074742141130750015,-0.02094381796755,-0.04051211987390001,-0.03042954294335,-0.023718397629400003,0.00901765879072,12.21146297453,3.458533644675,5.6864852905299985,-0.9440017044554999,5.0366585254650005,0.24952372908599998,1323944.5,1521534426.0,106212339.5,,,,,,1402334.0,1521534426.0,693919624.0,,-0.558000087738,-1.87300001085,-1.23499984741,-0.06599999964235001,-0.08600000292075001,-0.010999999823995,21.5,24.0,24.5,36.0,59.5,306.5,313.5,322.5,344.0,389.0,4.0,0.05499994754799997,1.9449999779449996,-1.7700004577614998,-0.18149999901685,0.16950000077475003,-0.031500000390245
21,45.9820091538,4597.5,1521534426.0,794960498.0,,1897165.5,1521534426.0,202379065.0,,0.7773816430489999,-0.04734340200355,0.1179563026085,0.7683100494410001,0.639713313742,-0.017972272304849997,-0.01197406482655,0.0264637045245,-0.011655223147790002,0.007326212310385002,0.0252867991218,-0.04914861654019999,-0.044947929589,6.410390138625001,3.472650170325,6.548911809924999,-1.3359109163299998,2.827370643615,0.1576973125335,1897519.0,1521534426.0,205472221.0,,,,,,1402344.0,1521534426.0,793921746.0,,0.307000041008,-1.01800003648,-2.23500175476,-0.0909999981523,-0.0640000030398,-0.0340000018477,25.0,32.0,32.0,50.0,90.0,298.0,313.0,315.0,355.0,395.5,4.0,0.8650001287460001,0.8549999743700001,-1.00000190735,-0.024999998509949994,0.021999999880950014,-0.023000002023705002
22,46.084573256400006,4609.5,1521534426.0,914162992.5,,1897177.5,1521534426.0,322376839.5,,0.7781978559625,-0.05006335547375,0.11843732319150001,0.7679300118335001,0.6401795867860001,-0.01935164880805,-0.00888303063832,0.0032763053151,-0.013154600422405,0.007302360010784999,-0.0394626744042,-0.008032043570710001,-0.0017924422145400003,4.179243803025,2.610292196275,5.270164728165,-0.7527413368224999,1.74814933538,0.1472219601275,750389.0,1521534426.0,320000000.0,,,,,,1402355.5,1521534426.0,908989315.0,,-0.348000049591,-0.5980000197890001,-1.0999996185295,-0.08749999850989999,-0.1015000008047,-0.0135000003502,13.5,15.5,40.0,63.0,121.0,298.5,299.5,319.0,375.0,388.5,4.0,-0.655000090599,0.42000001669099984,1.1350021362304998,0.003499999642400012,-0.0374999977649,0.020500001497500003
23,46.187137359,4619.5,1521534427.0,14117478.5,,1897186.5,1521534426.0,412380392.0,,0.7788219451164999,-0.04941324242275,0.118177720137,0.7675927497745001,0.640616238337,-0.01873849342325,-0.007810804795144999,0.0009336742691065,0.00814832023106,-0.01459190128765,0.022813470961549998,-0.001831905506845,-0.003002957732144999,4.59979772568,2.27072888613,5.984705448150001,-0.578006029129,2.274840533735,0.14123709499849998,1323966.5,1521534426.0,418230875.5,,,,,,1402365.5,1521534427.0,8814103.0,,0.09700000286099997,-1.45800000988,-2.215001296995,-0.0819999985397,-0.08650000020859999,-0.02050000010055,-3.0,8.0,16.5,46.5,76.0,308.0,315.5,331.0,364.0,401.0,4.0,0.445000052452,-0.8599999900909998,-1.1150016784655001,0.005499999970199995,0.015000000596100002,-0.006999999750349999
24,46.289701461499995,4629.5,1521534427.0,114111542.0,,1897194.0,1521534426.0,487393455.0,,0.778168657984,-0.0481934417772,0.118450307001,0.768017764714,0.640092127382,-0.018215413885700003,-0.00994888151294,-0.00467891844291,0.00104763739774,0.00695320168301,0.028060920018700003,0.0117482072355,-0.019134477684,6.43742036819,2.87608957291,6.218479156490001,-0.936767816544,2.7301838398,0.160804122686,750396.0,1521534426.0,508000000.0,,,,,,1402375.5,1521534427.0,110068857.0,,0.167000055313,-1.32299999893,-1.5299999237050002,-0.08500000089404999,-0.07800000160929997,-0.011499999789540001,0.0,1.0,11.0,59.0,118.0,292.0,303.5,307.0,359.0,392.5,4.0,0.07000005245200003,0.1350000109499998,0.68500137329,-0.0030000023543499954,0.008499998599300021,0.009000000311009998
25,46.3922655641,4636.5,1521534427.0,185734033.0,,1897201.5,1521534426.0,562385596.5,,0.7783092857105001,-0.04778872540705,0.1187078446845,0.768129880269,0.639964870834,-0.01789982486855,-0.010047113459299999,0.010543811732015,0.00370953485746,0.0005556709583149997,0.0082433421082755,-0.02321862058242285,-0.0009615873285650002,4.5921261310600014,2.12595355511,5.92220401764,-0.5780146420005,2.12476617098,0.1494700610635,1897555.0,1521534426.0,565468244.0,,,,,,1402383.0,1521534427.0,182128246.5,,-0.6380000114439999,-0.31800001859645,-1.65000076294,-0.095000002533,-0.08300000056625001,-0.030499999411400008,2.0,4.5,7.0,18.0,51.0,311.0,315.0,323.0,347.0,400.0,4.0,-0.8050000667569999,1.00499998033355,-0.12000083923499982,-0.010000001638950012,-0.004999998956950039,-0.018999999621860005
26,46.4948296667,4648.5,1521534427.0,304238080.5,,1897213.5,1521534426.0,682378100.0,,0.7781678025015,-0.047711921275949996,0.118367871245,0.767841166573,0.6403055220039999,-0.01813054972295,-0.00999279551996,-0.004633909587385,-0.006469041868982999,-0.00630758423099,-0.00598749388008,0.015350572805250004,0.0041708422217050034,3.81968688965,1.995274186135,5.610512256625,-0.5268839001655,1.80405598879,0.1554345712065,1897567.0,1521534426.0,685464857.0,,,,,,1402394.5,1521534427.0,299647549.5,,-1.24800002575,-0.638000011444,-2.7400009155299996,-0.08350000157955001,-0.060999998822800015,-0.02950000111015,0.0,10.5,17.5,25.0,46.5,300.5,301.5,322.0,344.0,391.5,4.0,-0.610000014306,-0.31999999284755,-1.0900001525899996,0.011500000953449996,0.022000001743449994,0.000999998301250006
27,46.5973937692,4660.5,1521534427.0,426612019.0,,1897226.5,1521534426.0,812378356.0,,0.778136199964,-0.04785483470335,0.1179778597845,0.7680075509355,0.6401006808455,-0.0183547021107,-0.009919853938195,0.00537542794471,-0.0006726488585449999,0.004614792394460001,-4.428277869999997e-05,-0.01484773501185,-0.003994245673146,4.59641933441,2.2865393161750003,5.98200917244,-0.6223029196259999,2.096786618235,0.1412226110695,750408.5,1521534426.0,818499968.0,,,,,,1402406.5,1521534427.0,418915074.5,,-1.358000040055,-1.70800000243,0.2149990081785,-0.07800000160935,-0.13800000399350001,-0.019999999553,0.0,13.0,18.5,27.5,70.5,274.5,280.0,286.0,334.0,376.5,4.0,-0.11000001430500017,-1.069999990986,2.9549999237084994,0.005499999970200009,-0.07700000517069999,0.00950000155715
28,46.6999578718,4666.5,1521534427.0,484251022.0,,1897232.0,1521534426.0,867379837.0,,0.778307106537,-0.0477286135833,0.118841184935,0.768061517199,0.640050748595,-0.017814477011799997,-0.00995938904203,-0.0024660906855100005,0.010510046533,0.0145461050753,0.00689082262067,-0.004393601317810001,0.0128693043825,4.71685791016,2.29326677322,5.915748119349999,-0.6733120679860001,2.10283589363,0.13884812593499998,750410.5,1521534426.0,868499968.0,,,,,,1402412.5,1521534427.0,481143021.5,,-0.292999982834,-0.2479999959468,-0.3550006866455,-0.06799999997020001,-0.114500001073,-0.0439999997616,-2.0,4.5,10.0,18.0,87.0,281.0,288.5,305.5,336.0,370.0,4.0,1.065000057221,1.4600000064832,-0.569999694824,0.010000001639149991,0.023500002920500015,-0.024000000208600002
29,46.802521974399994,4681.5,1521534427.0,634126424.0,,1897249.5,1521534427.0,42377502.5,,0.7795376066159999,-0.04757675000105,0.119519829673,0.7680715868714999,0.6400762408824999,-0.01668171408075,-0.009488065692675,0.0074248286799349986,-0.0015810756327000013,0.013988705307155,-0.008970727761575,-0.022780421730535003,0.008221367632894999,5.6291651725800005,2.67961537838,6.05762791634,-0.8447031080724999,2.497728943825,0.13714394718400005,1324009.5,1521534427.0,31713118.0,,,,,,1402427.5,1521534427.0,629563061.5,,-1.193000078205,0.7870000302794999,-2.034999084475,-0.07850000262259997,-0.05350000038745,-0.047999998554599986,-8.5,-5.0,-2.0,20.0,114.0,276.0,278.0,289.0,321.0,377.0,4.0,-0.9000000953710001,1.0350000262263,-1.6799983978295,-0.010500002652399962,0.06100000068555,-0.003999998792999983
30,46.9050860769,4690.5,1521534427.0,724062919.0,,1897258.5,1521534427.0,132375912.5,,0.780164568724,-0.0474203046891,0.12031647056900001,0.7681049689539999,0.640058712015,-0.016023749314649997,-0.009099171343879999,0.007716521639829999,-0.008468018674064999,0.009360820777265,-0.0007625158765849991,-0.0017787520590000008,-0.02318045892095,3.31398487091,1.810648679735,5.62879061699,-0.42918701469899995,1.5867947340000002,0.1399192661045,1897611.5,1521534427.0,130426753.5,,,,,,1402436.5,1521534427.0,719651876.0,,-0.983000040053,0.326999992132,-1.9899990081800003,-0.0814999975264,-0.07650000043215,-0.0265000006184,-10.0,-5.0,-2.0,-1.0,83.5,280.5,284.5,297.0,313.0,361.0,-1.0,0.21000003815200008,-0.46000003814749996,0.04500007629499958,-0.0029999949038000268,-0.023000000044699993,0.021499997936199985
31,47.0076501795,4700.5,1521534427.0,824119448.0,,1897268.5,1521534427.0,232377671.5,,0.7799039832375,-0.04681291897505,0.1198235361105,0.768121036353,0.640030832538,-0.015946308695450002,-0.009801555996,-0.0036611855662800003,0.0034542077586300003,0.007019746288735002,-0.010266587873265,-0.0034528905427500013,0.029523391874900006,3.991972446445,2.0652578473100003,5.803476810455001,-0.5730834305285,1.863831937315,0.13809252530299998,1324023.0,1521534427.0,227729685.0,,,,,,1402446.5,1521534427.0,819360274.0,,-0.4580000638965,-1.163000002505,-0.7050010681145,-0.07799999788405,-0.11950000002949998,-0.03949999995530001,-5.5,0.0,2.5,13.0,63.0,268.5,274.5,281.0,317.0,344.0,-1.0,0.5249999761565001,-1.489999994637,1.2849979400655003,0.0034999996423499963,-0.042999999597349986,-0.012999999336900006
32,47.1102142821,4712.5,1521534427.0,944071054.0,,1897280.5,1521534427.0,351712745.0,,0.7801519684465,-0.0468999674066,0.12032531774800001,0.7681515235695,0.6400066839130001,-0.01571510517865,-0.009364022748635,7.560733499998792e-08,0.0035965036284050004,0.00836075585216,0.008089952800422,-0.00322374903323,-0.005946571303250999,3.561443567275,1.9242063164700005,5.918669700619999,-0.47342224419100004,1.6960760951050002,0.152068272233,1897633.5,1521534427.0,349805652.5,,,,,,1402458.5,1521534427.0,939779966.5,,1.25199997425,-0.8280000090599999,-0.20499916076650002,-0.07100000232455,-0.125000003725,-0.0065000000176950005,-11.5,-7.0,-2.0,6.0,59.5,267.5,274.5,292.5,326.0,373.0,-1.0,1.7100000381465001,0.3349999934450001,0.500001907348,0.006999995559499997,-0.005500003695500022,0.03299999993760501
33,47.2127783846,4720.5,1521534428.0,24139046.5,,1897288.5,1521534427.0,431708811.5,,0.779916103763,-0.04749957041355,0.119781287051,0.7682467061470001,0.6398769586699999,-0.0163655593663,-0.009300629302975,0.011656203012200002,-0.00539305631009,0.003642460890235002,-0.0021415396103900003,-0.02079876838565,-0.0036076938323000005,4.43055987358,2.25577890873,5.88315439224,-0.6739035546780001,2.00586247444,0.11811247468000001,750433.0,1521534427.0,432000000.0,,,,,,1402466.5,1521534428.0,19290693.0,,0.246999979019,0.351999968290105,-1.345000457764,-0.09649999812245,-0.0909999981524,-0.03849999979135,-8.0,-7.0,-1.5,19.0,136.0,264.0,288.0,302.5,321.0,357.0,-1.0,-1.004999995231,1.1799999773501049,-1.1400012969975,-0.025499995797899994,0.03400000557260001,-0.031999999773655
34,47.315342487200006,4728.5,1521534428.0,104074000.5,,1897296.0,1521534427.0,506783535.0,,0.7800518030470001,-0.0473657412907,0.120024073175,0.7681753757690001,0.639970538735,-0.016114115686099998,-0.00919983093142,0.00159337066939,0.0141081868419,0.00285731058831,0.0134217235926,-0.0112945796891,0.0070336991243,3.89651489258,2.11616873741,5.835866451259999,-0.600519180298,1.84535121918,0.128801718354,1897649.0,1521534427.0,504853456.0,,,,,,1402474.5,1521534428.0,98736298.0,,-0.613000035286,-0.403000026941,-2.3549987793000002,-0.08149999752645,-0.06850000098350001,-0.0415000002831,-8.5,-8.0,-4.5,22.0,72.5,269.0,283.0,289.0,333.5,363.0,-1.0,-0.860000014305,-0.7549999952311051,-1.0099983215360002,0.015000000595999999,0.022499997168899985,-0.0030000004917499976
35,47.4179065897,4741.5,1521534428.0,234121441.5,,1897307.0,1521534427.0,616785342.0,,0.7797496941959999,-0.0476123752297,0.119399399618,0.7681728659550001,0.639957836096,-0.016610576295399998,-0.009407698197809998,-0.00902323956793,0.00029659504390900005,-0.0055120293408,0.004944649568670001,0.0222546461884,0.00219122755374,4.573356628419999,2.2486665248900004,6.05879259109,-0.676952302456,2.06679987907,0.1172240749,1324050.5,1521534427.0,624936763.0,,,,,,1402487.5,1521534428.0,229386894.5,,0.291999936104,1.861999958755,-1.7649986267100002,-0.1094999983905,-0.07999999821185,-0.05749999918044999,-9.5,-6.0,0.5,6.0,69.0,258.0,262.0,279.0,318.0,367.0,-1.0,0.90499997139,2.264999985696,0.59000015259,-0.028000000864049995,-0.01149999722834999,-0.015999998897349994
36,47.520470692299995,4751.5,1521534428.0,334128022.0,,1897318.0,1521534427.0,726784284.0,,0.7799457790600001,-0.0473005854316,0.119931845556,0.768252887299,0.6398707405080001,-0.016147361967,-0.00960204665046,0.00560787793028,0.00984204625535,0.00969799537389,0.017028561836700002,-0.0168759829563,0.009848803276379998,4.11682462692,2.2459397316,5.96010398865,-0.6504781842230001,1.92509305477,0.12453764677,1897670.0,1521534427.0,714854016.0,,,,,,1402497.5,1521534428.0,329526898.5,,-1.50800001621,0.4220000207425,-2.144999694825,-0.0950000025332,-0.08749999850989999,-0.02799999993295,-9.5,-8.0,6.0,18.5,104.0,273.5,276.5,284.0,312.0,370.0,-1.0,-1.799999952314,-1.4399999380125,-0.3800010681149999,0.014499995857299997,-0.007500000298049994,0.02949999924749999
37,47.6230347949,4760.5,1521534428.0,424065470.0,,1897326.0,1521534427.0,806782509.0,,0.77996667155,-0.0470083322033,0.12018949922,0.7680100864589999,0.640167737309,-0.0159814893673,-0.00950616661114,-0.00215363591096,0.00715095476255,-0.00564134758377,0.0136331908339,0.0124801808158,0.008851978902889999,3.62458944321,2.06656002998,5.79590511322,-0.560540735722,1.71251606941,0.12333317101,1324063.0,1521534427.0,807916379.5,,,,,,1402506.5,1521534428.0,419740470.5,,-0.09300005435935,-0.5079999864105,-0.970000457765,-0.0504999998957,-0.1535000056025,-0.020999999716900003,-18.5,-9.0,-0.5,6.0,101.5,282.5,283.5,289.0,319.5,382.0,-1.0,1.41499996185065,-0.930000007153,1.1749992370600002,0.0445000026375,-0.0660000070926,0.007000000216049997
38,47.7255988974,4773.5,1521534428.0,554077505.5,,1897339.0,1521534427.0,936780626.5,,0.7799041278595,-0.046834132462350006,0.119990923266,0.7683963430374999,0.6397015988135001,-0.0158499048192,-0.009877239892549999,-0.005844844759634999,0.003165961579505,-0.00010908633358999979,0.012237532770653,0.0145476399447,0.00916075808764,4.0917763710049995,2.21782910824,6.01574039459,-0.6731294393539999,1.9094405770299998,0.1201728098095,1324073.0,1521534427.0,941930961.0,,,,,,1402519.5,1521534428.0,550122285.5,,-1.37300002575,-0.018000036478064998,-2.455001068115,-0.0640000030398,-0.0679999999702,-0.02149999979885,-7.5,-7.0,1.0,30.0,34.5,266.0,279.0,294.0,335.0,361.0,-1.0,-1.2799999713906498,0.48999994993243506,-1.4850006103500002,-0.0135000031441,0.0855000056323,-0.0005000000819499958
39,47.828163,4782.5,1521534428.0,644062995.5,,1897349.0,1521534428.0,36785985.0,,0.7797335231614999,-0.0462524616648,0.120016856359,0.7680785765445,0.640082243073,-0.0157462309569,-0.010093457191870001,-0.0033609358477649995,-0.0060607890004850005,-0.009845885564665001,-0.00488804474944,0.017578139653645,-0.017007472021999998,3.7817786932,2.084151506425,5.950689792635,-0.526004523039,1.8050065040549998,0.1523238122465,1897702.0,1521534428.0,34866852.0,,,,,,1402528.5,1521534428.0,640849636.0,,-1.088000059128,0.397000044584,-1.6449996948249999,-0.06850000098345,-0.06550000235435,-0.019500000402349997,-13.0,-8.5,14.5,58.0,81.5,281.0,287.5,296.0,324.0,358.0,-1.0,0.284999966622,0.415000081062065,0.8100013732900002,-0.004499997943649997,0.00249999761585,0.001999999396500002
