,Unnamed: 0,.header.seq,.header.stamp.secs,.header.stamp.nsecs,.header.frame_id,.endpoint_state.header.seq,.endpoint_state.header.stamp.secs,.endpoint_state.header.stamp.nsecs,.endpoint_state.header.frame_id,.endpoint_state.pose.position.x,.endpoint_state.pose.position.y,.endpoint_state.pose.position.z,.endpoint_state.pose.orientation.x,.endpoint_state.pose.orientation.y,.endpoint_state.pose.orientation.z,.endpoint_state.pose.orientation.w,.endpoint_state.twist.linear.x,.endpoint_state.twist.linear.y,.endpoint_state.twist.linear.z,.endpoint_state.twist.angular.x,.endpoint_state.twist.angular.y,.endpoint_state.twist.angular.z,.endpoint_state.wrench.force.x,.endpoint_state.wrench.force.y,.endpoint_state.wrench.force.z,.endpoint_state.wrench.torque.x,.endpoint_state.wrench.torque.y,.endpoint_state.wrench.torque.z,.joint_state.header.seq,.joint_state.header.stamp.secs,.joint_state.header.stamp.nsecs,.joint_state.header.frame_id,.joint_state.name,.joint_state.position,.joint_state.velocity,.joint_state.effort,.wrench_stamped.header.seq,.wrench_stamped.header.stamp.secs,.wrench_stamped.header.stamp.nsecs,.wrench_stamped.header.frame_id,.wrench_stamped.wrench.force.x,.wrench_stamped.wrench.force.y,.wrench_stamped.wrench.force.z,.wrench_stamped.wrench.torque.x,.wrench_stamped.wrench.torque.y,.wrench_stamped.wrench.torque.z,.tag
0,482.025161,48214.5,1518245880.0,584002975.5,,2026347.0,1518245880.0,584002975.5,,0.760183104229,-0.298373233577,0.12972576773,-0.0226301418131,0.999612937039,0.000828477715435,0.0161511270414,0.0339774578842,0.00607992705165,-0.00166967457567,0.0577249930526,-0.0407650789544,-0.0267334791635,1.98014938831,1.20589840412,5.63484334946,-0.0312275961041,0.909020543099,0.353953823447,2026691.0,1518245880.0,572099839.0,,,,,,169260.5,1518245880.0,588946450.0,,0.784999993071,2.40199995376,0.338000023365,0.00449999980625,-0.019499999471,0.00549999985378,2.0
1,482.127725103,48224.5,1518245880.0,689013542.0,,2026357.5,1518245880.0,689013542.0,,0.763177134408,-0.296674264648,0.128875854445,-0.0217954410463,0.999585830666,0.0032508395519,0.0185080122701,0.029338460553,0.00578364068858,0.00127149949364,0.0422647635463,-0.0324641329638,-0.0335885996729,1.46689534187,0.518713265657,5.57168650627,0.00250774249435,0.862307757137,0.316030487418,2026701.0,1518245880.0,672066326.0,,,,,,169270.5,1518245880.0,688466634.0,,0.865000006184,0.747000012174,0.528000020981,0.00799999991432,-0.0220000008121,-0.01200000057,0.0
2,482.230289205,48236.5,1518245880.0,804017230.0,,2026369.0,1518245880.0,804017230.0,,0.762953284798,-0.296512322212,0.128160924003,-0.0210134555224,0.99961213559,0.00421262423799,0.017783893443,-0.00938501441112,0.00880676046104,-0.0102149298156,0.013524343794,0.0100392143883,0.00958139680793,4.24185419083,0.346684783697,6.13921165466,0.139160558581,1.93585836887,0.380695998669,2026714.0,1518245880.0,802093025.5,,,,,,169282.5,1518245880.0,808935256.0,,0.455000009761,0.951999995485,0.333000028134,0.0175000000745,0.0219999998808,0.00100000016391,0.0
3,482.332853308,48246.5,1518245880.0,904014082.0,,2026379.0,1518245880.0,904014082.0,,0.762435796683,-0.296668431864,0.128267748725,-0.0211835799036,0.999618701629,0.00401151336125,0.0172481792893,0.0139236469652,0.00661374791013,0.00559691439805,0.00733089906568,-0.03320465719,0.00404114876829,3.83527612686,0.556560561061,5.9045753479,0.0464383661745,1.67994099856,0.347817495466,2026724.0,1518245880.0,902108287.5,,,,,,169292.0,1518245880.0,904959421.0,,-0.220000002161,0.16200000383,0.768000030518,0.0209999997169,0.0149999996647,0.0359999984503,0.0
4,482.43541741,48258.5,1518245881.0,24003638.0,,2026391.0,1518245881.0,24003638.0,,0.762273630207,-0.295892744008,0.128512215731,-0.0214213055485,0.999616945887,0.00403897737946,0.0170521502105,0.000707932564019,-0.00882574676517,0.00174240230361,-0.00302769772526,-0.00545953572138,0.0109317836926,2.87163639069,0.814650893211,5.40936422348,-0.113401412964,1.31512975693,0.316144287586,2026736.0,1518245881.0,22091832.0,,,,,,169304.5,1518245881.0,29140490.0,,0.639999997243,-0.237999979779,-0.19200000763,0.0299999993295,-0.0130000002682,0.0255000004545,0.0
5,482.537981513,48266.5,1518245881.0,99009632.5,,2026398.5,1518245881.0,99009632.5,,0.762797101661,-0.295756070466,0.128355320534,-0.021372519171,0.999609558385,0.00408896392615,0.0175213138796,0.0159001605109,0.0145335098268,0.00587396285007,-0.00207066394824,-0.0346582096326,0.0170635721133,3.67934417725,0.717716932297,5.68125009537,-0.0599879026412,1.61125218868,0.334483429789,2026744.0,1518245881.0,102077841.5,,,,,,169312.0,1518245881.0,105634263.0,,0.544999983533,-0.413000002876,-0.066999977827,0.0300000002608,-0.0129999998026,0.0334999989719,0.0
6,482.640545615,48278.5,1518245881.0,224007072.0,,2026411.5,1518245881.0,229008041.0,,0.763001522879,-0.295117008578,0.128296737251,-0.021614432186,0.999598847133,0.00470468862497,0.0176752529927,-0.00105440872227,0.0174657637549,-0.00337902062434,0.0158181783106,0.00528775539526,0.0167103720369,3.01211357117,0.743637651205,5.651273489,-0.10995247215,1.37072438001,0.33368010819,2026756.0,1518245881.0,222073971.0,,,,,,169324.0,1518245881.0,224117078.5,,0.195000019297,-0.858000006897,-0.0870000034571,0.0324999997392,-0.0099999997765,0.0374999996275,0.0
7,482.743109718,48286.5,1518245881.0,304006459.5,,2026419.0,1518245881.0,304006459.5,,0.762773877703,-0.295109562595,0.128466185932,-0.0218900028778,0.999598295036,0.00422004518972,0.0174867402025,0.0035620917556,-0.00219566016892,0.00168622756838,-0.0107717614755,-0.0100979522193,0.00507330254659,2.93982124329,0.598461687565,5.64191746712,0.010524854064,1.33040654659,0.353894785047,2026763.0,1518245881.0,292098503.0,,,,,,169332.5,1518245881.0,309508940.5,,0.505000010505,0.577000025287,0.44800003767,0.015000000596,0.0109999999404,0.0149999996647,0.0
8,482.845673821,48297.5,1518245881.0,414009658.5,,2026430.0,1518245881.0,414009658.5,,0.762987239854,-0.294865162909,0.128485758495,-0.0223076946356,0.999583910175,0.00402079709046,0.0178369103083,0.00986956556632,0.0026190133079,0.00279565185414,0.016324382764,-0.0161641524019,-0.0157208273609,3.13398754596,0.536812797189,5.76826024055,0.0315882638097,1.44232100248,0.352965295315,1414024.0,1518245881.0,413034512.5,,,,,,169343.5,1518245881.0,419211749.5,,0.505000004917,0.0220000106845,-0.376999980211,0.00600000005215,0.0159999998287,0.0415000002831,0.0
9,482.948237923,48308.5,1518245881.0,524015257.0,,2026441.0,1518245881.0,524015257.0,,0.762303448069,-0.294453099835,0.128064768577,-0.0229504873023,0.999584999823,0.00422626258963,0.0168891078963,-0.00668078636435,0.00142587189579,0.00612893884058,-0.0129215984051,0.0146543438371,0.00294018207296,3.45167636871,0.845022380352,5.60626745224,-0.109690204263,1.48791265488,0.325857549906,1414032.5,1518245881.0,524030883.5,,,,,,169354.5,1518245881.0,528920193.5,,-0.524999979511,1.20699996091,0.237999999523,0.00249999994412,0.0230000000447,0.0215000007301,0.0
10,483.050802026,48317.5,1518245881.0,614008174.5,,2026450.0,1518245881.0,614008174.5,,0.763006509536,-0.294640067966,0.128584244046,-0.022303368462,0.99958462735,0.00412465411084,0.0177756734694,0.00643549136461,-0.00114411660402,0.00544712302776,-0.00685954687023,-0.0095874982058,-0.0077284854908,3.22407329083,1.17670053243,5.59032154083,-0.276154026389,1.46415185928,0.314552158118,2026795.5,1518245881.0,617072731.5,,,,,,169363.5,1518245881.0,618720770.5,,-0.0999999973922,-0.953000005706,-0.0620000123975,0.00699999998324,0.00650000013411,0.0495000015944,0.0
11,483.153366128,48330.5,1518245881.0,744010957.0,,2026463.0,1518245881.0,744010957.0,,0.762453681293,-0.293390714484,0.128186603311,-0.0231939620853,0.999577449532,0.0042757606847,0.0169860003155,0.00249265349828,0.00433957593045,0.00591003715112,-0.00773153153693,-0.00849464804389,0.0152643438049,3.40695333481,0.648750603199,5.81601667405,0.0103762671351,1.50088822841,0.360195785761,1414047.5,1518245881.0,735043270.0,,,,,,169376.5,1518245881.0,749609092.5,,1.1950000193,0.027000009641,-1.01699999571,0.0265000006184,0.0,0.0235000001266,0.0
12,483.255930231,48339.5,1518245881.0,829004899.5,,2026471.5,1518245881.0,829004899.5,,0.762907697982,-0.293121261406,0.128405043808,-0.0231386371927,0.999568363163,0.00435796036077,0.0175662717266,0.00146351356061,0.000174736048505,0.00398165200867,0.00240639425977,-0.0013107951704,-0.00596944311583,2.90744566917,0.384313210845,5.81389474868,0.131147462874,1.33967590333,0.37868322432,801291.0,1518245881.0,828000000.0,,,,,,169385.5,1518245881.0,838852030.5,,0.535000000521,-1.05299996994,-0.801999987476,0.0330000016838,-0.0175000000745,-0.00449999980628,0.0
13,483.358494333,48348.5,1518245881.0,924003384.0,,2026481.0,1518245881.0,924003384.0,,0.762903337508,-0.29238380173,0.128404029592,-0.0234513052713,0.999564736447,0.00452243530505,0.0173182421492,0.0130287982268,-0.0450303742789,0.00941024390092,-0.0144199606235,-0.031914760982,-0.0523580251106,3.09240865707,0.580581903458,5.66123867035,0.034658074379,1.39178025723,0.350209236145,1414060.5,1518245881.0,925531211.5,,,,,,169394.5,1518245881.0,928921262.0,,-0.354999992624,0.11200001426,-0.451999983192,0.0280000008642,-0.0185000002384,0.00350000010803,0.0
14,483.461058436,48361.5,1518245882.0,54009150.5,,2026494.0,1518245882.0,54009150.5,,0.762810455191,-0.293276787882,0.128448884255,-0.0231350884287,0.999570595876,0.00412381962117,0.0174954187833,5.688932305e-06,0.0133235127418,-0.00585043800519,0.017049602652,0.000740287736335,0.00758730143177,2.98917746543,0.8890016675,5.79789233208,-0.114946529269,1.35030931234,0.335713773966,1414069.5,1518245882.0,46029642.5,,,,,,169407.0,1518245882.0,54759559.0,,-0.734999987853,1.3769999776,-0.381999994069,0.0175000000745,0.00599999999395,0.00749999983235,0.0
15,483.563622538,48371.5,1518245882.0,154003288.0,,2026504.0,1518245882.0,154003288.0,,0.762524766544,-0.292238291308,0.128048925303,-0.0243976945896,0.999547905965,0.00445116830713,0.0169906565783,0.000311360502487,-0.00668400997732,0.00462096242101,-0.00222540375995,-0.00357177993337,-0.00813767374423,2.91389858722,0.814450085163,5.61469554901,-0.0917582362891,1.29636961221,0.318623423576,2026849.0,1518245882.0,152077962.0,,,,,,169418.0,1518245882.0,164434822.0,,-0.16999999024,-0.978000026568,-0.0320000112057,0.0130000002682,0.0089999996708,0.0380000006408,3.0
16,483.666186641,48379.5,1518245882.0,239004253.0,,2026512.5,1518245882.0,239004253.0,,0.762663645659,-0.291843490946,0.128164462029,-0.0242068570308,0.999549503969,0.00443921538071,0.0171697784653,0.0127964520054,-0.00518614698746,-0.0017534651726,-0.0111199282773,-0.0232452376197,0.00677292923753,1.29836690426,0.916234999896,5.23350763321,-0.19744964689,0.647150397301,0.300158143043,801307.0,1518245882.0,232999936.0,,,,,,169425.5,1518245882.0,240155743.5,,-0.929999980703,0.381999995187,0.153000020981,0.00299999996787,0.0139999999665,0.0384999997914,3.0
17,483.768750744,48390.5,1518245882.0,349007744.5,,2026523.5,1518245882.0,349007744.5,,0.760912344982,-0.291529060051,0.126444899559,-0.0251364264947,0.999548601539,0.00401236032395,0.0159398096801,-0.0230313806255,0.0146686430805,-0.0196770298607,-0.0132851738816,0.0371921474084,0.0368454200561,1.0257987976,1.31651437283,4.8598754406,-0.408811181784,0.388599008322,0.254095315933,1414089.5,1518245882.0,338529950.0,,,,,,169436.0,1518245882.0,344614570.0,,0.895000006446,0.962000015749,0.0730000376702,0.0119999996386,-0.00200000009499,0.0124999997206,3.0
18,483.871314846,48398.5,1518245882.0,429010791.5,,2026531.5,1518245882.0,429010791.5,,0.759787605932,-0.291061655573,0.124718267145,-0.0265813698606,0.999524514456,0.00326310739163,0.0152788721005,-0.0257555097622,0.0077372242506,-0.0225994874118,-0.0237982621257,0.0499321684993,0.03358232,0.519149355591,1.29170149565,5.4844892025,-0.436366468668,0.419315353036,0.194447495043,2026876.0,1518245882.0,422076476.0,,,,,,169444.5,1518245882.0,430357766.0,,2.33000000976,1.1269999776,-0.0269999861717,0.0195000004024,-0.00300000002608,-0.00499999988824,3.0
19,483.973878949,48412.5,1518245882.0,569013742.0,,2026545.5,1518245882.0,569013742.0,,0.756239508486,-0.292930662195,0.120403709127,-0.0325861733381,0.999385909082,-0.00367618991024,0.0123368874404,-0.0175240957462,0.00470289294588,-0.0392783100305,-0.101665800136,0.0078970114273,0.136171153182,4.01563620568,1.48016315699,4.70953321457,-0.305623337626,1.61352205277,0.219435937703,1414105.0,1518245882.0,564539696.0,,,,,,169457.5,1518245882.0,562483455.5,,1.59499999545,0.817000005022,-0.0219999909401,0.0140000004322,0.0209999997169,0.015000000596,3.0
20,484.076443051,48419.5,1518245882.0,639008947.0,,2026552.5,1518245882.0,639008947.0,,0.754713818866,-0.291925932067,0.117093411011,-0.0332607237348,0.99937323888,-0.00525494936215,0.0109126518063,-0.0196600109035,0.017367800501,-0.0444282433723,-0.0293929784525,0.029469669237,0.0411252530063,2.32570970059,1.57134312391,4.53013753891,-0.320501893759,1.14527857303,0.174285002053,1414109.5,1518245882.0,630541146.5,,,,,,169465.5,1518245882.0,640411670.5,,2.92500003837,1.66699999906,0.28299998641,0.00150000001304,0.0104999998584,0.0379999997094,3.0
21,484.179007154,48430.5,1518245882.0,739008083.5,,2026562.5,1518245882.0,739008083.5,,0.751752107539,-0.288159053528,0.114437261337,-0.0346763446041,0.999365176507,-0.00302200931156,0.00757648898771,-0.0232673649376,0.0604150316827,-0.0208486018739,0.0603691169442,0.0564713148905,0.0364366386297,3.45451712609,0.055166453123,5.9723546505,0.208975717426,1.37841910123,0.265636309981,801327.0,1518245882.0,740000000.0,,,,,,169475.5,1518245882.0,741536426.5,,0.695000004396,0.657000008598,0.123000019789,0.0149999996647,0.0365000013262,0.0365000003949,-1.0
22,484.281571256,48442.5,1518245882.0,864202728.5,,2026575.0,1518245882.0,864202728.5,,0.750465077867,-0.28506951426,0.113575335985,-0.0357760820841,0.999338042508,-0.00165002059661,0.00634033770213,0.00763694807265,0.0165369618909,0.0065869690147,0.0104539978847,-0.0136165311773,0.00528625875815,2.94271337986,0.52455073595,5.37757945061,0.0385215096176,1.21032935381,0.241736292839,2026920.5,1518245882.0,867277520.0,,,,,,169488.0,1518245882.0,865731966.0,,0.260000016913,1.88200003244,-0.241999989748,-0.0109999999404,0.0149999996647,-0.0209999997169,-1.0
23,484.384135359,48450.5,1518245882.0,944203359.0,,2026583.0,1518245882.0,944203359.0,,0.750978944253,-0.285198985873,0.113924380438,-0.0355939340317,0.999338939675,-0.00181916245994,0.0071725976324,0.00844781636471,0.0135431555921,0.00575054513615,0.00825120552843,-0.0226482614228,0.00954029711288,1.76076257229,0.772997021675,4.86866235733,-0.0773795098066,0.854428291321,0.238936692476,801335.0,1518245882.0,940999936.0,,,,,,169496.0,1518245882.0,944967480.5,,0.450000014529,-0.277999993786,-0.416999994219,0.0219999998808,-0.00850000022909,0.0250000003725,-1.0
24,484.486699462,48463.5,1518245883.0,69203766.0,,2026596.0,1518245883.0,74202624.0,,0.750578195837,-0.285034653827,0.113573883451,-0.035914504027,0.999330772261,-0.0019574524955,0.00665765670985,0.0041851824462,-0.00394186206399,-0.00807122896478,-0.0111869312009,-0.00599201391075,0.000852649023284,3.22988343239,1.02965140343,5.35552692413,-0.232237607241,1.43478155136,0.202130407095,801340.0,1518245883.0,73999872.0,,,,,,169509.0,1518245883.0,75123595.5,,0.685000006482,-1.10799997709,-0.0769999980928,0.00800000014714,0.00050000002375,0.0480000004172,-1.0
25,484.589263564,48471.5,1518245883.0,149218870.5,,2026603.5,1518245883.0,149218870.5,,0.750893081066,-0.285715894564,0.113500112761,-0.0366236097147,0.999299875874,-0.00308022136007,0.00699032149675,0.00619228825312,-0.00175565712042,-0.00128494527591,-0.0393850758533,-0.008395678641,0.0337791472312,3.60351800918,0.907769411802,5.45750284195,-0.115307472646,1.561896801,0.218957006931,1414146.5,1518245883.0,153125333.5,,,,,,169517.0,1518245883.0,154382588.0,,1.15999999307,-0.787999984249,-0.0620000123978,0.0,-0.0010000000475,0.0439999997616,-1.0
26,484.691827667,48481.5,1518245883.0,249201509.5,,2026613.5,1518245883.0,249201509.5,,0.751756082591,-0.285876910032,0.113858219083,-0.0361614379955,0.999310098439,-0.0030544340855,0.00788356895156,0.0112507411654,0.00213536516345,0.00293014763149,0.0172315561761,-0.0284842093018,-0.0154606750499,2.12821644545,0.9426805377,5.03108882904,-0.139167297631,1.01811864972,0.228887856007,1414153.0,1518245883.0,248635101.5,,,,,,169526.5,1518245883.0,251943453.0,,0.370000015385,-2.21299999617,-0.256999990344,0.0145000005141,0.00700000021606,0.0400000009686,-1.0
27,484.794391769,48494.5,1518245883.0,389202321.0,,2026627.5,1518245883.0,389202321.0,,0.751267744279,-0.286343770289,0.113589999139,-0.0364876019323,0.99929980343,-0.00347064959423,0.00748976926927,-0.0209433398385,-0.00483437251224,-0.0112334464033,-0.00767266098241,0.0456481660161,-0.00243993773025,3.32749450207,0.864146530628,5.31338047982,-0.114671435207,1.45431935788,0.21211194992,801352.0,1518245883.0,377999872.0,,,,,,169540.0,1518245883.0,386024026.0,,0.349999990687,0.0920000072569,0.0780000329018,0.0130000002682,-0.0120000001043,0.0109999999404,-1.0
28,484.896955872,48502.5,1518245883.0,464199544.0,,2026635.0,1518245883.0,464199544.0,,0.751433322068,-0.285943315461,0.11404857042,-0.0364564847388,0.999300353767,-0.00316631209245,0.00772671658053,0.00565427202703,-0.00155960582994,-0.00518482491866,-0.012217339496,-0.0123432056666,0.02460658605,3.13105845451,0.854102671146,5.44120645523,-0.147765740752,1.41477227211,0.205527722836,2026980.5,1518245883.0,467253301.0,,,,,,169548.0,1518245883.0,465198931.5,,-0.49000001289,0.471999995038,-0.121999970078,0.000500000081955,0.0154999997467,0.0295000001788,-1.0
29,484.999519974,48513.5,1518245883.0,574204948.0,,2026646.0,1518245883.0,574204948.0,,0.751349977643,-0.28546009353,0.11386557032,-0.0363146287389,0.999306338716,-0.00307121451395,0.00765877163612,0.0107106804634,0.00542593580116,0.0072020476264,0.0127854004853,-0.0204082568633,-0.00655124517522,2.43684530258,0.924499452114,5.12393331528,-0.154256224632,1.13732433319,0.213827878237,1414175.5,1518245883.0,576126813.5,,,,,,169559.5,1518245883.0,580899730.5,,0.904999997841,1.04199999906,-0.521999994666,0.0149999996647,0.0135000003502,0.0275000007824,-1.0
30,485.102084077,48522.5,1518245883.0,669203425.5,,2026655.5,1518245883.0,669203425.5,,0.751671259029,-0.285743904728,0.113768939142,-0.0364763081029,0.999299305689,-0.00302771885833,0.00780973680775,0.00150788471065,0.00173343474264,0.00387869842296,-0.000974195979395,-0.0069070555385,-0.0054547772297,3.08628809452,0.811186552048,5.25005435943,-0.0628460645676,1.37324482203,0.233529046178,2027000.5,1518245883.0,667253755.5,,,,,,169568.5,1518245883.0,670236445.0,,0.375000000372,-0.432999994979,-1.04199999422,0.0290000000968,-0.015500000678,0.031000001356,-1.0
31,485.204648179,48533.5,1518245883.0,779202719.0,,2026666.5,1518245883.0,779202719.0,,0.751539875795,-0.28503965821,0.113875498024,-0.0368433867087,0.999286224953,-0.00270910051073,0.00786888586208,-0.00991423432372,0.00207302933302,-0.010204643482,0.000583094006757,0.018761436339,0.0119346044118,2.80194962024,0.719525009394,5.31717252731,0.00387568399311,1.25629228354,0.241636462509,1414189.5,1518245883.0,776646852.0,,,,,,169579.5,1518245883.0,781533831.0,,-0.970000002161,0.546999994293,0.19800003767,0.000500000023745,0.0185000002384,0.036000000313,-1.0
32,485.307212282,48543.5,1518245883.0,874203964.0,,2026676.0,1518245883.0,874203964.0,,0.752244188572,-0.285987573445,0.114282312754,-0.0362374649018,0.99930286793,-0.00314652717215,0.00840973545882,0.00781240870248,0.00300711701108,0.00411689080783,0.00347256333605,-0.021564187007,0.000895704080724,2.93088006973,0.346868634224,5.4066362381,0.225482225418,1.32333111763,0.302918791771,1414196.5,1518245883.0,877145829.0,,,,,,169589.5,1518245883.0,881412051.5,,-0.429999980703,0.677000004424,0.302999997139,0.00350000010803,0.0259999996051,0.0329999998212,-1.0
33,485.409776385,48554.5,1518245883.0,979203000.0,,2026686.5,1518245883.0,979203000.0,,0.75271066994,-0.286625414453,0.114402994442,-0.0359988180204,0.999306439119,-0.0035836309921,0.00882458118588,0.00372061274168,0.00387481970146,0.00397275253546,-0.00464777024257,-0.00398020096955,0.0132411068685,2.73885536194,0.462438225746,5.36980605125,0.17526756972,1.24914944172,0.300744459033,801376.0,1518245883.0,983000064.0,,,,,,169599.5,1518245883.0,983069069.0,,-0.350000027195,0.697000030055,0.337999963761,0.00800000038,0.00250000011874,0.0275000007823,-1.0
34,485.512340487,48566.5,1518245884.0,99201494.0,,2026698.5,1518245884.0,99201494.0,,0.752494829369,-0.287077430008,0.114261351041,-0.0358453055978,0.999312587234,-0.00360611078516,0.00874054748668,0.00823590168915,-0.0150683158346,-0.00222567577642,0.00469688395978,-0.0133690818393,-0.0253654919748,2.33302474022,0.151931658387,5.40080666542,0.366696283221,1.07785695791,0.308631002903,1414212.0,1518245884.0,92625696.0,,,,,,169611.5,1518245884.0,102970372.0,,-0.609999987856,1.49700004198,1.17300000191,0.00300000014249,0.00600000028498,-0.00999999977649,-1.0
35,485.61490459,48575.5,1518245884.0,194202332.0,,2026708.0,1518245884.0,194202332.0,,0.752243954978,-0.286686984337,0.114533710221,-0.035845162664,0.999316779653,-0.00358575222372,0.00826078677995,-0.00385333505424,-0.00339673207505,-0.00406473216068,0.00717268437652,0.011953684976,-0.00935631280073,3.19926285744,0.146461501718,5.70330286026,0.350815713406,1.44775867462,0.305711239576,1414219.0,1518245884.0,193636162.5,,,,,,169620.5,1518245884.0,192387627.0,,0.795000005886,-0.26299998574,0.487999999523,0.00700000021606,0.00900000031104,0.0355000011623,-1.0
36,485.717468692,48583.5,1518245884.0,269209534.0,,2026715.5,1518245884.0,269209534.0,,0.753760353086,-0.286778333968,0.115343041701,-0.0360909427943,0.99929222359,-0.00370683888994,0.00993544839615,0.0135230655744,-0.014053882819,0.0106348892182,-0.00794244131683,-0.0231882894627,-0.0111688878949,2.62015223503,0.311026707292,5.60856795311,0.293574690818,1.21431773901,0.322859436274,2027060.5,1518245884.0,267260317.5,,,,,,169628.5,1518245884.0,272994973.5,,1.49000000618,0.371999997273,0.46299996376,0.00299999996787,0.00150000007124,0.0115000000223,-1.0
37,485.820032795,48593.5,1518245884.0,369202689.0,,2026725.5,1518245884.0,369202689.0,,0.753930597408,-0.287337889532,0.11516672899,-0.0353154473143,0.999321436586,-0.00352938302358,0.00984578399472,0.0172328104907,0.00410863165791,0.0116397223721,0.0010646129959,-0.0374111733501,0.0101045907817,2.298006773,0.222907312214,5.42337465286,0.378697916865,1.09307169914,0.340663045645,2027070.5,1518245884.0,367281400.5,,,,,,169639.0,1518245884.0,378140878.0,,0.550000008568,-1.78800004385,-0.322000002861,0.00899999961257,0.0209999997169,0.0299999993294,-1.0
38,485.922596897,48605.5,1518245884.0,494205775.0,,2026738.0,1518245884.0,494205775.0,,0.755118563775,-0.287513775362,0.116062663453,-0.0346099211539,0.999333699301,-0.00330887306023,0.0111050847268,0.00457287040238,-0.00801952955169,0.000716321866805,-0.00907885108166,-0.0113331839336,-0.0215492922334,1.85792893172,0.284626014531,5.28350901603,0.318073242902,0.933675259352,0.330387085676,1414240.0,1518245884.0,495627388.0,,,,,,169650.5,1518245884.0,492754588.0,,0.539999999479,-0.937999990208,-0.551999988407,0.00700000021606,0.0120000001043,0.0479999985546,-1.0
39,486.025161,48617.5,1518245884.0,609219514.5,,2026749.5,1518245884.0,609219514.5,,0.754328069189,-0.288273596208,0.115680545069,-0.0345963631081,0.999341912841,-0.00368406721245,0.010255007328,-0.0111498719548,-0.0143817718475,-0.00631978068744,-0.0119792024022,0.0186698241257,0.0043622753857,3.3154425621,0.288128241896,5.50576400757,0.312013164163,1.47494971752,0.302673891187,1414248.5,1518245884.0,616632621.5,,,,,,169662.5,1518245884.0,613482345.0,,1.12999999933,-0.842999961599,-0.451999993436,0.0165000003763,0.0114999999059,0.050000000745,-1.0
