,Unnamed: 0,.header.seq,.header.stamp.secs,.header.stamp.nsecs,.header.frame_id,.endpoint_state.header.seq,.endpoint_state.header.stamp.secs,.endpoint_state.header.stamp.nsecs,.endpoint_state.header.frame_id,.endpoint_state.pose.position.x,.endpoint_state.pose.position.y,.endpoint_state.pose.position.z,.endpoint_state.pose.orientation.x,.endpoint_state.pose.orientation.y,.endpoint_state.pose.orientation.z,.endpoint_state.pose.orientation.w,.endpoint_state.twist.linear.x,.endpoint_state.twist.linear.y,.endpoint_state.twist.linear.z,.endpoint_state.twist.angular.x,.endpoint_state.twist.angular.y,.endpoint_state.twist.angular.z,.endpoint_state.wrench.force.x,.endpoint_state.wrench.force.y,.endpoint_state.wrench.force.z,.endpoint_state.wrench.torque.x,.endpoint_state.wrench.torque.y,.endpoint_state.wrench.torque.z,.joint_state.header.seq,.joint_state.header.stamp.secs,.joint_state.header.stamp.nsecs,.joint_state.header.frame_id,.joint_state.name,.joint_state.position,.joint_state.velocity,.joint_state.effort,.wrench_stamped.header.seq,.wrench_stamped.header.stamp.secs,.wrench_stamped.header.stamp.nsecs,.wrench_stamped.header.frame_id,.wrench_stamped.wrench.force.x,.wrench_stamped.wrench.force.y,.wrench_stamped.wrench.force.z,.wrench_stamped.wrench.torque.x,.wrench_stamped.wrench.torque.y,.wrench_stamped.wrench.torque.z,.tag
0,613.674705,61378.5,1518246012.0,224584033.0,,2039511.0,1518246012.0,224584033.0,,0.762904800854,-0.292417940959,0.127900706589,-0.0249299467575,0.999527434973,0.00366029784225,0.0176070074386,0.00343839568656,-0.000802103847199,-0.012373748837,-0.00302417097296,-0.014181676058,0.0139678431606,2.54764270782,1.00793492794,4.78182125092,-0.0906822383404,1.25946688652,0.354951828718,1423152.5,1518246012.0,225319215.5,,,,,,182411.5,1518246012.0,229487340.0,,0.505000009574,0.0329999841745,-0.604000008851,-0.00149999978021,0.0250000003725,0.0390000008047,3.0
1,613.777269103,61391.5,1518246012.0,354579461.5,,2039524.0,1518246012.0,354579461.5,,0.76072115359,-0.291854368932,0.12511566384,-0.0262311507,0.999525005017,0.00311714935604,0.0158713318818,-0.0202886873391,0.0154609750997,-0.0303060579679,-0.0155951793498,0.0227982080788,0.0487243187565,3.21884524822,1.19760936498,4.98506712914,-0.20491117239,1.33097955584,0.337612733245,1423162.0,1518246012.0,357815134.5,,,,,,182424.5,1518246012.0,359367803.5,,1.37500001434,1.4629999876,-0.784000012279,0.0299999993295,0.04649999924,0.0445000007749,3.0
2,613.879833205,61402.5,1518246012.0,459575213.5,,2039534.5,1518246012.0,459575213.5,,0.757720472131,-0.291566873686,0.122134466791,-0.02928448849,0.999485512596,0.000849215284005,0.0130445632571,-0.024212299963,-0.00794611475605,-0.0266782604013,-0.0926482296334,0.0321724374777,0.099327061672,2.60711336136,1.55784070492,5.04397797585,-0.578064799309,1.15273475647,0.245195224882,2039880.0,1518246012.0,462655945.0,,,,,,182435.5,1518246012.0,470966774.5,,1.21499998812,1.71800004243,-1.75900003239,0.00299999979324,0.0460000000894,0.0419999994337,3.0
3,613.982397308,61410.5,1518246012.0,539577302.0,,2039542.5,1518246012.0,539577302.0,,0.755774220758,-0.291850821013,0.119021338826,-0.0317563290589,0.999426323495,-0.00281705262322,0.0114184843744,-0.0107880806876,0.00482312299434,-0.0369890620073,-0.0836266299837,0.00373535435266,-0.012134301759,2.96692574025,1.37309664488,4.63966941834,-0.227229505778,1.24787402153,0.256177052856,806461.0,1518246012.0,529999872.0,,,,,,182443.5,1518246012.0,550042494.0,,1.06500001196,1.15799998045,-1.10400002003,0.0190000003204,0.00150000007124,0.0520000010728,3.0
4,614.08496141,61423.5,1518246012.0,669574809.0,,2039555.5,1518246012.0,669574809.0,,0.751950648943,-0.28874954032,0.113605352685,-0.0350102793558,0.999345476573,-0.00425617878125,0.00803909857122,-0.0496340024434,0.0251693802585,-0.0507996983975,0.02219409126,0.102185425982,-0.00033841495026,3.18570661545,1.60248416662,4.59314084053,-0.336846277118,1.4233096838,0.226437240839,1423183.5,1518246012.0,671828636.5,,,,,,182456.5,1518246012.0,679927390.0,,0.375000014343,2.45300005675,-2.07899999544,0.0164999999106,-0.0144999995828,0.0374999996275,3.0
5,614.187525513,61431.5,1518246012.0,749589456.5,,2039564.0,1518246012.0,754588401.5,,0.747529638932,-0.284620178629,0.109513061566,-0.0383471222632,0.999251413843,-0.0035559306355,0.00343595777184,-0.0641013077565,0.0471909198915,-0.0554551329577,0.0238881948068,0.13846147075,0.0682270342142,3.92203307152,1.07897272706,4.71606278419,-0.0381141304972,1.66161555052,0.257972456515,2039909.5,1518246012.0,757665269.5,,,,,,182464.0,1518246012.0,754981744.5,,-0.0799999950456,2.31299995184,0.0659999854863,0.00700000021605,0.0165000003763,0.0475000012666,3.0
6,614.290089615,61443.5,1518246012.0,869575858.0,,2039575.5,1518246012.0,869575858.0,,0.742548730903,-0.281950279533,0.102752327042,-0.0426365691532,0.999072342478,-0.00590243763362,-0.00124638995234,-0.0298634438482,0.0157207888732,-0.0646482435606,-0.0849660380407,0.0418986849239,0.0535794958887,4.04899799823,0.753497838974,4.89789652824,0.133358933032,1.68552333117,0.25516025722,1423197.5,1518246012.0,872826352.5,,,,,,182476.0,1518246012.0,875473181.5,,-0.119999990426,2.56800006628,-0.394000015408,-0.00050000054765,0.0359999993816,0.0369999995455,3.0
7,614.392653718,61453.5,1518246012.0,969579374.5,,2039586.0,1518246012.0,974578194.0,,0.741375181646,-0.279338561736,0.0977131095357,-0.046405731657,0.998894801008,-0.00725087377838,-0.00176335437667,0.000514016294901,0.0151270224069,-0.0552404540574,0.0228973629004,-0.0145994998363,0.0314020566935,4.61365842819,1.12725174427,5.10557126999,-0.0547907724977,1.91204881668,0.246737331152,2039931.0,1518246012.0,972666103.0,,,,,,182485.5,1518246012.0,970824516.5,,0.390000000038,1.11300002336,-0.194000004977,0.0134999998845,0.0169999999926,0.0619999989868,3.0
8,614.495217821,61461.5,1518246013.0,59574027.0,,2039594.5,1518246013.0,59574027.0,,0.738522037492,-0.275650555717,0.0935545458159,-0.0483008631568,0.998806337361,-0.00551674482378,-0.00473464407566,-0.0511669543314,0.0434842699966,-0.046241253438,0.032225425833,0.114138752215,0.0327923938307,2.12177282572,1.23220139741,5.0161395073,-0.276217713952,1.12664091587,0.209164001048,2039939.0,1518246013.0,52641330.0,,,,,,182494.5,1518246013.0,60070743.0,,0.0750000024212,1.462999928,-0.73900001049,0.00699999998324,0.0254999995232,0.0449999999255,3.0
9,614.597781923,61474.5,1518246013.0,179578233.5,,2039606.5,1518246013.0,179578233.5,,0.732960750979,-0.274092087102,0.0882742474541,-0.050624840286,0.998634988167,-0.00715962291775,-0.010669245172,-0.0521820407794,0.0181012310274,-0.0538658017609,-0.0134681306056,0.108101605052,0.067548260259,5.31178665161,1.22088775039,4.76984381676,-0.200162820518,2.19935750961,0.231009036302,1423219.0,1518246013.0,179815547.0,,,,,,182507.5,1518246013.0,189975631.5,,1.20000000242,0.443000006676,-1.36399999186,0.0429999995977,0.0010000000475,0.0489999987185,3.0
10,614.700346026,61482.5,1518246013.0,264578776.0,,2039615.0,1518246013.0,264578776.0,,0.73040581209,-0.273019656561,0.0850765174041,-0.0537144627343,0.998431000914,-0.00832748103419,-0.013451615767,-0.0472911389086,0.00950891352313,-0.0513910356675,-0.0300523239699,0.102678662175,0.0523155887903,2.76274871826,1.20067477226,4.01231336594,-0.167691379786,1.0756071806,0.216742575169,1423225.0,1518246013.0,264338330.0,,,,,,182515.5,1518246013.0,271268411.5,,-0.349999998324,1.04799996615,-1.40900000855,-0.00449999986449,0.0245000002906,0.0325000006705,3.0
11,614.802910128,61492.5,1518246013.0,359574944.5,,2039624.5,1518246013.0,359574944.5,,0.729628572873,-0.270822930037,0.0809549693784,-0.0558064011415,0.998319122476,-0.00753766005448,-0.0137012236297,-0.0174800492616,0.0200920418849,-0.0544298389058,0.0189743923347,0.0305706198505,0.0338560760109,5.19423222542,1.39102196693,4.4968085289,-0.334529519081,2.2571387887,0.205732256174,1423232.0,1518246013.0,364833787.0,,,,,,182525.0,1518246013.0,364562347.0,,-1.24999998566,2.12800000906,-0.939000009745,0.0,0.0149999996647,0.00499999988824,3.0
12,614.905474231,61502.5,1518246013.0,459575866.5,,2039634.5,1518246013.0,459575866.5,,0.72794759889,-0.270828973867,0.0771242491659,-0.0551297895573,0.998324165192,-0.00802496006207,-0.0156486994062,-0.0295721693175,0.0131686257917,-0.0397403554835,0.0135781790725,0.0761153773333,-0.035353867797,2.12481427193,1.07096666097,4.59523820877,-0.164186522364,0.848515689375,0.179932080209,2039980.5,1518246013.0,467668710.0,,,,,,182535.0,1518246013.0,465932345.0,,-0.0799999987707,-0.652000021935,-0.849000006169,0.0189999993891,0.0120000001043,0.0540000014007,3.0
13,615.008038333,61514.5,1518246013.0,584584432.0,,2039647.0,1518246013.0,584584432.0,,0.727198446794,-0.269468606858,0.0730231361214,-0.0575627567037,0.99818376953,-0.00813659787489,-0.0157900777772,-0.00135021598915,0.0176324633785,-0.0274114775501,-0.00716301526905,-0.0105617490212,0.0614159007007,4.65187907219,1.46245223284,4.63760113716,-0.406355023385,1.93832236528,0.180880084633,1423247.0,1518246013.0,581837871.5,,,,,,182547.0,1518246013.0,585727407.5,,-0.160000000708,1.23799996376,-1.15899999365,0.00799999991432,0.0480000004172,0.051000000909,3.0
14,615.110602436,61522.5,1518246013.0,664572104.0,,2039655.0,1518246013.0,664572104.0,,0.727090563316,-0.269777407614,0.0715425398945,-0.0582124951182,0.998139331921,-0.00910697205145,-0.0156921172837,-0.00616645930719,-0.00433840733799,-0.0180344930786,-0.025780932661,-0.00596539305361,0.0409018033441,4.30747175217,1.30406522751,4.12405633926,-0.248332768679,1.72660982609,0.166879355907,1423253.0,1518246013.0,666321692.5,,,,,,182555.0,1518246013.0,664852747.0,,-0.299999997579,2.16799997091,-1.01900002286,0.00999999977648,0.0260000005364,0.0280000008643,3.0
15,615.213166538,61534.5,1518246013.0,784576849.0,,2039667.0,1518246013.0,784576849.0,,0.725997438471,-0.267662332483,0.0676255900111,-0.0594371731787,0.998062505564,-0.00840345385444,-0.0163657995716,0.0130327054042,0.00757865075001,-0.0235549652335,0.0394455539223,-0.0310556346044,-0.0747296967421,4.22027015686,1.57101929188,3.45528626442,-0.429453104734,1.78359889984,0.15721821785,2040011.0,1518246013.0,772663504.0,,,,,,182567.0,1518246013.0,786660170.0,,-2.14000003096,3.60800002813,-0.839000015706,0.0,0.0359999984503,0.00999999977648,3.0
16,615.315730641,61544.5,1518246013.0,879576914.0,,2039676.5,1518246013.0,879576914.0,,0.725552707857,-0.266051997269,0.0645905903619,-0.0594919878926,0.99806403219,-0.00719690152611,-0.0166240120665,-0.00508913503629,0.0245412133034,-0.0396672366765,0.0312097716248,0.01259733513,0.0298697774099,4.5926887989,1.53505903482,3.67281365395,-0.462318614125,1.94804406166,0.172730520368,2040021.0,1518246013.0,872662935.0,,,,,,182576.5,1518246013.0,881450406.5,,0.534999973514,0.793000000715,-1.3690000169,0.0330000016838,0.00300000002608,0.0470000002533,3.0
17,615.418294744,61553.5,1518246013.0,969575512.0,,2039686.0,1518246013.0,974577806.0,,0.725570639482,-0.26553701796,0.0613829721297,-0.0610082124695,0.99797446639,-0.00744590625873,-0.0164170924798,0.00100333565293,0.00558487883536,-0.0302694339561,-0.0358295393631,0.00481481330545,0.058962680514,4.54652070999,0.896519422531,3.93621516228,-0.193303108215,1.86829054356,0.163598895073,1423274.5,1518246013.0,973333981.0,,,,,,182585.5,1518246013.0,972291959.5,,-0.394999992661,1.0879999876,-1.2290000163,0.0104999998584,0.0140000001993,0.0445000007749,3.0
18,615.520858846,61567.5,1518246014.0,109590734.0,,2039699.5,1518246014.0,109590734.0,,0.724121621722,-0.264909413384,0.0552054211952,-0.0620968174125,0.997886516582,-0.00721965353937,-0.0177293529123,-0.00128958963615,-0.00960531498995,-0.0459622413176,0.00913682409265,-0.00892729944729,-0.0301020660718,3.9973026514,1.24874028563,4.54487776756,-0.441728666424,1.77572447062,0.118091516197,2040045.0,1518246014.0,112660471.0,,,,,,182599.5,1518246014.0,112368379.5,,-0.419999994896,0.493000018597,-1.4940000169,0.0194999999367,0.0419999994338,0.0470000002533,3.0
19,615.623422949,61574.5,1518246014.0,184578630.0,,2039707.0,1518246014.0,184578630.0,,0.723683486832,-0.264746085,0.0529735801386,-0.0599717428792,0.998005847109,-0.00680981799188,-0.018475539806,-0.0248087941642,0.00348683401628,-0.0484108814743,-0.00972424598748,0.0593278458451,-0.0167534065493,2.48923921585,0.935923814774,3.8313536644,-0.202468127012,0.92172896862,0.164200693369,806526.0,1518246014.0,176000000.0,,,,,,182606.5,1518246014.0,181742066.0,,-1.69499997851,0.367999988794,-0.989000021667,-0.00350000010803,0.0410000011325,0.0574999991804,3.0
20,615.725987051,61585.5,1518246014.0,289574648.0,,2039717.5,1518246014.0,289574648.0,,0.72381317634,-0.265853357972,0.0497837383998,-0.0600350068295,0.997999051856,-0.00717129934134,-0.0184967194012,-0.00536636016488,-0.0281475212794,-0.0220829338354,-0.0523665030727,0.0269866328136,0.00136909145203,3.6149367094,1.06426048279,2.97687864303,-0.304901875555,1.3705894351,0.167162798345,806530.0,1518246014.0,276999936.0,,,,,,182617.5,1518246014.0,291653636.0,,-0.899999991617,1.14299999476,-4.79900014326,0.228500001133,0.151000000537,0.0720000006258,1.0
21,615.828551154,61597.5,1518246014.0,409576827.0,,2039729.5,1518246014.0,409576827.0,,0.724198403396,-0.267785537925,0.0497703312492,-0.0604850848615,0.997961010755,-0.00911543607239,-0.0182253608729,0.00358170384084,0.00249395512441,0.00453065981414,-0.00039963987704,-0.0141840848773,0.0222158018219,3.78907847405,1.39568132162,1.61095887423,-0.217848528176,1.49466526508,0.210767135024,2040074.5,1518246014.0,407654444.5,,,,,,182630.0,1518246014.0,416896627.0,,0.649999990501,1.38799999952,-3.39900004789,0.0670000016689,0.0759999975562,0.0689999982715,-1.0
22,615.931115256,61604.5,1518246014.0,479576168.0,,2039736.5,1518246014.0,479576168.0,,0.724422397579,-0.266042913352,0.0494184866432,-0.0606447316221,0.997964239784,-0.00818028190592,-0.0179457191679,0.00790458854922,0.00289292046447,-0.00861281869801,-0.00327212835428,-0.0265727225328,0.0061755449233,3.39460659027,1.36675208807,1.8213378191,-0.236129745841,1.33698940278,0.21381586045,806538.0,1518246014.0,479000064.0,,,,,,182637.5,1518246014.0,492032592.0,,-0.290000007115,0.88300000429,-5.1640001528,0.190000005066,0.142999999225,0.0439999997616,-1.0
23,616.033679359,61615.5,1518246014.0,594577455.0,,2039748.0,1518246014.0,594577455.0,,0.724374989687,-0.265593908416,0.0494977597407,-0.0617497804992,0.997890654165,-0.00886187640406,-0.0179512883631,-0.000673030607535,0.0021865047772,-0.00435451371737,-0.0114013759401,0.0019352696644,0.0127539108604,3.35821294784,1.19703322649,1.80600136519,-0.129630587995,1.33414977789,0.216427236796,1423318.0,1518246014.0,591331448.5,,,,,,182648.0,1518246014.0,595560126.0,,0.490000023879,2.09800003767,-4.53899991438,0.195999994874,0.136000007391,0.0630000010133,-1.0
24,616.136243462,61628.5,1518246014.0,719578770.5,,2039760.5,1518246014.0,719578770.5,,0.725033884396,-0.266014588245,0.0496121326294,-0.0623316782586,0.997863641309,-0.00953009995912,-0.0170883960419,0.00968126265032,0.00294640200673,-0.00389955563349,-0.0117449533382,-0.0211396738132,0.0253895496852,3.26484739781,1.03092825413,1.94451785088,-0.0600297823549,1.28746497631,0.204433873296,1423327.0,1518246014.0,727314735.0,,,,,,182661.0,1518246014.0,725521342.0,,0.0199999952689,0.62800000906,-5.98900020048,0.261000007391,0.12800000608,0.0740000009537,-1.0
25,616.238807564,61635.5,1518246014.0,789570959.5,,2039768.0,1518246014.0,794570314.0,,0.724590016,-0.266011351472,0.0490947841074,-0.0618006898988,0.997889307001,-0.00947160394344,-0.01754692052,0.00125751482733,0.0147776494586,-0.000828647482872,-0.00320963756701,-0.00994623513136,0.0279958689358,2.70085787773,1.0144919157,1.96938669682,0.0229704603553,1.09584438801,0.233577311039,806550.0,1518246014.0,783000064.0,,,,,,182668.0,1518246014.0,796590944.0,,-0.014999991842,0.793000030519,-5.90399992392,0.247999995946,0.111499998718,0.0494999997318,-1.0
26,616.341371667,61647.5,1518246014.0,909579047.5,,2039780.0,1518246014.0,914581138.0,,0.724780633512,-0.265886700118,0.0494767667653,-0.0627976967459,0.997827414488,-0.00978793824285,-0.0173477620561,-0.00501923370071,-0.00846448152959,-0.00646837926303,-0.0132265320069,0.0175432238621,-0.00675810018745,2.89119052886,1.03690427542,1.90506392718,-0.0116176046431,1.14519101381,0.220647767186,2040125.5,1518246014.0,917687940.5,,,,,,182679.5,1518246014.0,912285402.0,,-0.274999991618,0.387999999523,-5.07400000021,0.240500003099,0.11950000003,0.0654999986291,-1.0
27,616.443935769,61659.5,1518246015.0,29574569.0,,2039791.5,1518246015.0,29574569.0,,0.724469363153,-0.265499747766,0.049481937946,-0.0632737821267,0.997794409154,-0.0100971512856,-0.0173368223863,0.00425354455051,-0.00909784741489,0.00707673847156,-0.0118342935071,-0.0121675810451,0.000320903852225,2.58958899975,0.975327074526,1.84467387199,0.0286458097398,1.04046919942,0.245063483715,806560.0,1518246015.0,32999936.0,,,,,,182691.5,1518246015.0,34072897.5,,-1.37999998089,-0.337000009418,-5.75400006697,0.231499999761,0.0929999984801,0.0559999998659,-1.0
28,616.546499872,61665.5,1518246015.0,89578967.5,,2039797.5,1518246015.0,89578967.5,,0.724456113134,-0.266265965142,0.049582812828,-0.0627713209639,0.997820913019,-0.0102061480569,-0.0175691925064,0.00207474916413,0.00085374818081,0.00483210609867,0.0066389931314,0.00401023108905,-0.011184116457,2.59347105026,0.861552268266,1.95774650574,0.0874928236007,1.05898547173,0.251552969217,1423352.5,1518246015.0,88335346.5,,,,,,182698.0,1518246015.0,97219276.5,,-1.26000002828,0.633000004292,-5.85900008604,0.26099999249,0.11100000143,0.0645000003278,-1.0
29,616.649063974,61677.5,1518246015.0,209574688.5,,2039809.5,1518246015.0,209574688.5,,0.724177839124,-0.266073188338,0.0489415862775,-0.0630266894233,0.997803073575,-0.0101238114222,-0.0177234608673,-0.00343162427856,0.00054789897606,-0.00453415424439,0.00559239877908,0.00672884510885,-0.00787991216822,2.66271948815,0.952587485314,1.78053325414,0.0431349016726,1.05644750595,0.243047058583,2040155.0,1518246015.0,212657155.0,,,,,,182710.0,1518246015.0,216971922.0,,-0.339999996684,0.277999985218,-5.92899978086,0.254999995232,0.116999998689,0.0670000016689,-1.0
30,616.751628077,61690.5,1518246015.0,339577912.0,,2039822.5,1518246015.0,339577912.0,,0.724336059979,-0.265587186009,0.0491120862347,-0.0630781882664,0.997805684972,-0.00988550975027,-0.0175245590713,0.0047698712242,0.0102553728264,0.0015783964466,-0.00151033823841,-0.0092121356715,0.017451717843,2.82675480843,1.09098619222,1.86889696121,-0.0582818537949,1.12731647491,0.215554133058,806572.0,1518246015.0,336999936.0,,,,,,182723.0,1518246015.0,346862004.0,,0.539999976195,0.117999988794,-5.98900020048,0.263000011444,0.11400000006,0.0799999982119,-1.0
31,616.854192179,61696.5,1518246015.0,399585114.0,,2039828.5,1518246015.0,399585114.0,,0.724747138703,-0.266204840345,0.0494053340788,-0.0630606569834,0.997808163149,-0.0102692620496,-0.017225063563,0.0115297334438,0.014508413694,0.00305202970575,0.00305579124629,-0.0277034646386,0.0177490107726,2.59254789352,1.09899795056,1.88038408756,-0.0278297774494,1.04462242127,0.236528255046,1423374.5,1518246015.0,407334918.5,,,,,,182728.5,1518246015.0,403695547.5,,0.489999994077,-0.56700001359,-5.81400000974,0.25300000608,0.116000000387,0.0840000025928,-1.0
32,616.956756282,61710.5,1518246015.0,539573419.0,,2039842.5,1518246015.0,539573419.0,,0.724069395855,-0.266092852435,0.0488205286133,-0.0631440709119,0.997791002276,-0.0101970360873,-0.017933712039,-0.0006678768082,-0.00642076493261,-0.000492076234185,-0.000535177411975,0.0026275875728,-0.0117181873465,2.67243337631,0.886764228344,1.91060966253,0.0923404395581,1.06461459399,0.236043535173,806580.0,1518246015.0,539000064.0,,,,,,182742.5,1518246015.0,543687062.5,,0.210000007786,-0.292000007629,-5.02900016234,0.235500000418,0.137000001967,0.0975000001492,-1.0
33,617.059320385,61717.5,1518246015.0,609584510.0,,2039849.5,1518246015.0,609584510.0,,0.724429458813,-0.266241139286,0.0493113826856,-0.062838923458,0.997814936636,-0.0103498044896,-0.0175883941853,0.0115020942219,0.00902514318105,0.00413112377608,0.00142958099364,-0.0239257307678,0.0148668081603,2.682913661,0.960420757532,1.94085854292,0.0600718036294,1.08436280489,0.233025915921,2040194.5,1518246015.0,607646348.0,,,,,,182750.0,1518246015.0,618788874.0,,0.479999973811,-0.0920000195503,-5.41900002882,0.238999992609,0.116999998689,0.0799999982119,-1.0
34,617.161884487,61731.5,1518246015.0,749584155.5,,2039863.5,1518246015.0,749584155.5,,0.724224318682,-0.266472116684,0.0489819622789,-0.0626025651241,0.997825946025,-0.0102886026564,-0.0178333404214,0.00613875559711,-0.0188804019709,0.0118970058439,-0.0194180902609,-0.0175079183834,-0.0106825966219,2.7386405468,0.83724629879,1.93287831545,0.129194289446,1.08294212818,0.25410079956,2040208.5,1518246015.0,747658456.0,,,,,,182763.5,1518246015.0,752733620.0,,-0.589999989234,-0.271999996901,-5.2440000765,0.228000000119,0.118000000715,0.0855000019074,-1.0
35,617.26444859,61740.5,1518246015.0,839580940.0,,2039872.5,1518246015.0,839580940.0,,0.724714936169,-0.266522217006,0.0492533877981,-0.0627672615901,0.997822387928,-0.0104693943492,-0.0173483257329,-0.0107610706219,-0.005736257813,-0.00886961791254,-0.00400011810085,0.0262780179252,-0.00867784937775,2.5325294733,0.831525325775,1.91269832849,0.108879733831,1.02943533659,0.241571478545,806592.0,1518246015.0,840999936.0,,,,,,182772.5,1518246015.0,844271727.0,,-1.12000002395,1.69299994707,-5.34399998113,0.228999994695,0.129000000655,0.0530000012368,-1.0
36,617.367012692,61748.5,1518246015.0,924599508.0,,2039881.0,1518246015.0,924599508.0,,0.72419414617,-0.265454314973,0.049017318811,-0.0634473825729,0.997777568419,-0.0100601299586,-0.017695970975,0.00267338332723,0.0304280227694,-0.000414819479575,0.0214058389905,-0.0059492284954,0.0298175108604,2.84595394135,0.845416724682,2.04345607758,0.261399298906,1.19392740726,0.245930671692,2040226.0,1518246015.0,922671123.0,,,,,,182780.5,1518246015.0,923471312.5,,-1.20499999877,0.112999993563,-5.33900010511,0.233499996364,0.122500002384,0.0930000022054,-1.0
37,617.469576795,61759.5,1518246016.0,34574277.5,,2039892.0,1518246016.0,34574277.5,,0.724161151022,-0.266098317282,0.0489261329917,-0.0622521434141,0.997853360756,-0.00968507223527,-0.017867466859,0.00170673361764,-0.00944432332827,0.00231823035322,-0.00805730565226,-0.0030853420254,-0.00258919818045,2.38287365436,0.842197537422,1.96322768927,0.189171358943,0.989820867776,0.226450763642,1423418.0,1518246016.0,33837154.0,,,,,,182791.5,1518246016.0,33087918.5,,0.760000034607,1.95300005675,-5.13900005743,0.254499986767,0.130999997259,0.054999999702,-1.0
38,617.572140897,61768.5,1518246016.0,119580150.0,,2039900.5,1518246016.0,119580150.0,,0.724210696919,-0.265707307303,0.0491660841866,-0.0631819560521,0.997794827652,-0.00999895104322,-0.0176973720433,-0.00296270011218,-0.00635832170209,-0.0038684282544,0.00327703340516,0.0125614767219,-0.0149069782054,2.76477622986,0.767585605383,2.00884026289,0.247563079,1.14227062464,0.240975044667,2040246.0,1518246016.0,122676099.0,,,,,,182800.5,1518246016.0,124482201.0,,-0.449999999814,-0.402000014484,-5.19900000021,0.243000000715,0.132500000298,0.0909999981523,-1.0
39,617.674705,61780.5,1518246016.0,244575784.0,,2039913.0,1518246016.0,244575784.0,,0.724594506772,-0.266137323483,0.0492949474187,-0.0625958104435,0.99784084987,-0.00974854957476,-0.0173311461697,-0.00118333050703,0.0135431262757,0.000689554346036,0.014568238729,-0.00378698591124,-0.00776089985532,2.60811424255,0.787542521954,1.99310612679,0.221931993961,1.05315446854,0.223263293505,1423432.0,1518246016.0,234842340.0,,,,,,182812.5,1518246016.0,244355109.0,,0.190000011958,0.767999994755,-5.24899995252,0.256500005722,0.137000001967,0.0714999996126,-1.0
