,Unnamed: 0,.header.seq,.header.stamp.secs,.header.stamp.nsecs,.header.frame_id,.endpoint_state.header.seq,.endpoint_state.header.stamp.secs,.endpoint_state.header.stamp.nsecs,.endpoint_state.header.frame_id,.endpoint_state.pose.position.x,.endpoint_state.pose.position.y,.endpoint_state.pose.position.z,.endpoint_state.pose.orientation.x,.endpoint_state.pose.orientation.y,.endpoint_state.pose.orientation.z,.endpoint_state.pose.orientation.w,.endpoint_state.twist.linear.x,.endpoint_state.twist.linear.y,.endpoint_state.twist.linear.z,.endpoint_state.twist.angular.x,.endpoint_state.twist.angular.y,.endpoint_state.twist.angular.z,.endpoint_state.wrench.force.x,.endpoint_state.wrench.force.y,.endpoint_state.wrench.force.z,.endpoint_state.wrench.torque.x,.endpoint_state.wrench.torque.y,.endpoint_state.wrench.torque.z,.joint_state.header.seq,.joint_state.header.stamp.secs,.joint_state.header.stamp.nsecs,.joint_state.header.frame_id,.joint_state.name,.joint_state.position,.joint_state.velocity,.joint_state.effort,.wrench_stamped.header.seq,.wrench_stamped.header.stamp.secs,.wrench_stamped.header.stamp.nsecs,.wrench_stamped.header.frame_id,.wrench_stamped.wrench.force.x,.wrench_stamped.wrench.force.y,.wrench_stamped.wrench.force.z,.wrench_stamped.wrench.torque.x,.wrench_stamped.wrench.torque.y,.wrench_stamped.wrench.torque.z,.tag
0,27.026664,2716.5,1518246498.0,549126870.5,,2088143.5,1518246498.0,549126870.5,,0.76288594801,-0.292668755286,0.128334061208,-0.0239772258204,0.999548180527,0.00429507101235,0.0176071678498,-0.0033530966314,-0.0316046154671,-0.0109014191668,-0.0122086634877,0.00212770492775,-0.0555163972078,2.57690238953,0.91202518344,4.14943051338,-0.00687035918235,1.17112320662,0.360830307007,2088488.0,1518246498.0,542189935.0,,,,,,230988.5,1518246498.0,555664155.0,,-0.868000032005,1.66400000453,0.323999989032,0.00350000010803,0.0315000005066,0.011000000406,3.0
1,27.1292281026,2726.5,1518246498.0,649126235.0,,2088153.5,1518246498.0,649126235.0,,0.761760672731,-0.292077103108,0.127046631793,-0.0259414060794,0.999516876159,0.00312302316734,0.0168269590812,-0.021374011554,0.0148137674605,-0.0236025321159,-0.0295505017069,0.0420777074069,0.0520013749936,2.87373721599,1.73505496979,4.01581275463,-0.451202422381,1.14466083049,0.252087041736,2088498.0,1518246498.0,642187796.0,,,,,,230998.5,1518246498.0,656954024.0,,-1.30799999983,0.454000025987,0.399000006914,-0.00450000003911,0.00950000050944,0.0325000006706,3.0
2,27.2317922051,2739.5,1518246498.0,779126981.0,,2088166.5,1518246498.0,779126981.0,,0.758928406511,-0.291325358802,0.122687137702,-0.0302350882788,0.999441282559,0.000202149883556,0.0142259693266,-0.0357629578926,0.00385960900267,-0.0403513945425,-0.0539983157965,0.064503601267,0.0654499475145,4.03626322746,1.3452835083,4.54874444008,-0.228260282427,1.79309338331,0.298460051417,1457104.0,1518246498.0,780092177.0,,,,,,231011.5,1518246498.0,786814902.5,,-0.358000011742,1.714000009,0.724000024798,0.00699999975041,0.00449999980628,0.0120000001043,3.0
3,27.3343563077,2748.5,1518246498.0,869126732.0,,2088175.5,1518246498.0,869126732.0,,0.755242149554,-0.28932233918,0.118961907286,-0.0310159986864,0.999462753007,-0.000357866922365,0.0105843609039,-0.0209316134934,0.0346199959361,-0.0389674429066,0.0216263263926,0.0298885655163,-0.0651251549934,4.22171771526,1.67194837332,4.22447264194,-0.340397432447,1.66408097744,0.256594449281,1457109.0,1518246498.0,860595315.0,,,,,,231020.5,1518246498.0,877216329.0,,0.822000002859,1.63899998367,0.548999983072,-0.00700000015785,0.0370000004769,0.0224999999627,3.0
4,27.4369204103,2756.5,1518246498.0,949126442.0,,2088183.5,1518246498.0,949126442.0,,0.753044898175,-0.286951970996,0.115194715678,-0.0329127967648,0.999418587407,-0.000528277994144,0.00887471027162,-0.0346643434586,0.0203550689694,-0.0491516396873,-0.0380768543632,0.0644837320265,0.0425340135408,2.68671381474,1.69527810812,4.26164031028,-0.462921351195,1.18914949894,0.279939725995,2088528.0,1518246498.0,942192336.0,,,,,,231028.5,1518246498.0,957512270.0,,0.646999994665,1.72900001705,-0.101000000536,0.0364999994636,-0.000499999616295,0.0125000001863,3.0
5,27.5394845128,2768.5,1518246499.0,69127021.5,,2088195.5,1518246499.0,69127021.5,,0.748687106883,-0.28458132336,0.109380193001,-0.0383644757587,0.999246183179,-0.00372379043464,0.00458326771046,-0.0338239541323,0.018561362932,-0.0519979689558,-0.0517183443887,0.0652135301259,0.0957192529043,5.08645415306,1.30503290891,5.18298530579,-0.120777476579,2.13002485037,0.258757337928,1457123.0,1518246499.0,61593206.0,,,,,,231040.5,1518246499.0,77242658.0,,-0.1329999879,1.72399999947,0.894000011682,0.0175000000745,-0.00900000031104,-0.00800000014714,3.0
6,27.6420486154,2779.5,1518246499.0,179124862.5,,2088206.5,1518246499.0,179124862.5,,0.743963644808,-0.28106803553,0.103268617636,-0.0424039141252,0.999091765789,-0.00418394889131,-9.65272687311e-05,-0.04287298369,0.0485936448123,-0.0660303857056,-0.00115420692855,0.0732131387358,0.10398048405,2.87865626812,1.09581297636,4.67064476013,-0.139162298292,1.20663172006,0.290827810764,1457132.5,1518246499.0,186599838.5,,,,,,231051.5,1518246499.0,187357718.5,,-0.483000011742,1.20399998128,-0.250999996253,0.00700000044891,0.015000000596,-0.00499999988824,3.0
7,27.7446127179,2790.5,1518246499.0,289125120.0,,2088217.5,1518246499.0,289125120.0,,0.740624496486,-0.277682136732,0.0975497048753,-0.0454581052014,0.99894761428,-0.00529287255237,-0.00296275901649,-0.025158628964,0.0516839854766,-0.0540874188493,-0.0074644568987,0.0354570305988,0.0769319815041,4.44331049919,1.00716239214,5.61110758781,-0.002401925623,2.03744482994,0.265045881271,2088562.5,1518246499.0,287217363.0,,,,,,231062.5,1518246499.0,296870667.5,,0.196999984235,-0.155999988318,1.20400001407,0.0130000002682,0.00349999987521,0.0185000002384,3.0
8,27.8471768205,2798.5,1518246499.0,369132289.0,,2088225.5,1518246499.0,369132289.0,,0.737012868707,-0.275832204952,0.0938577534504,-0.0482311217833,0.998795786793,-0.00575713465044,-0.00688809818179,-0.0485169012129,0.0352278199056,-0.0521106269718,0.00555254943171,0.0973918377043,0.0723365953743,3.88244950772,1.03240460157,4.98951721192,-0.0550431050358,1.71926653385,0.270172163844,1457143.5,1518246499.0,361103914.5,,,,,,231070.5,1518246499.0,377160677.5,,-0.00300000757,1.11899998784,0.374000030756,0.0160000005271,-0.00849999999628,0.0144999995828,3.0
9,27.9497409231,2810.5,1518246499.0,489125183.0,,2088237.5,1518246499.0,489125183.0,,0.732560982376,-0.273444163979,0.088984856779,-0.0518116069337,0.998567626302,-0.00659404392129,-0.0115951406456,-0.0311387837604,0.00314086339423,-0.0461164829867,-0.0431189383814,0.0577139847739,0.0689738039779,2.83814394475,0.879448473453,4.62172269822,-0.0120757333934,1.10775202513,0.243692860007,1457153.5,1518246499.0,489107747.0,,,,,,231082.5,1518246499.0,496682821.0,,-0.073000015318,0.308999985456,-0.380999998935,0.00449999986449,0.0394999999553,0.0240000002086,3.0
10,28.0523050256,2818.5,1518246499.0,569304537.5,,2088245.5,1518246499.0,569304537.5,,0.732056270633,-0.272232347866,0.085774428149,-0.0526981030613,0.998518324232,-0.00734143543245,-0.0114069899479,-0.00270382630304,0.0294455497734,-0.0298071340544,0.0029394100467,-0.00107246249194,0.0415767491674,3.30414223671,0.956084877252,5.19862341881,-0.0256644785404,1.46127772331,0.255915775895,2088589.5,1518246499.0,557412398.5,,,,,,231090.5,1518246499.0,576909793.5,,0.101999981701,1.93400000035,0.88900001645,0.0205000001006,0.00699999975041,-0.00549999973736,3.0
11,28.1548691282,2830.5,1518246499.0,689304015.5,,2088257.5,1518246499.0,689304015.5,,0.730321475376,-0.270476127857,0.0815875918099,-0.0553923222239,0.998352747746,-0.0072858613711,-0.0130525673292,-0.0189106321952,0.0216956471839,-0.0423643712369,0.0146975010361,0.026508926755,0.0464764732344,2.73459398746,1.01629203558,4.50993585587,-0.0688574612141,1.14348003268,0.256154701113,1457167.5,1518246499.0,690196738.5,,,,,,231102.5,1518246499.0,697629032.0,,-0.47800001651,1.74400000274,0.364000010491,0.0120000001043,0.039999999106,0.0100000002421,3.0
12,28.2574332308,2841.5,1518246499.0,799305475.5,,2088268.5,1518246499.0,799305475.5,,0.728091434057,-0.269127021372,0.0772035681943,-0.0569443721429,0.998232579941,-0.00739519532896,-0.0153022726012,-0.0185936898703,-0.00766702191668,-0.0424580480661,-0.0414981182696,0.030685534081,0.0470818819004,4.23969817162,0.762635707855,4.73605084419,-0.0203220490366,1.66635334492,0.226832643151,2088613.0,1518246499.0,792356389.0,,,,,,231113.5,1518246499.0,806422598.0,,0.521999992803,2.74900001288,-0.225999994949,0.019999999553,0.0454999990762,0.0180000001565,3.0
13,28.3599973333,2850.5,1518246499.0,889305293.5,,2088277.5,1518246499.0,889305293.5,,0.727108584406,-0.268788762772,0.0743454085286,-0.0571815423161,0.998198275197,-0.00826479948503,-0.016184358796,-0.0135363359801,0.000616073684475,-0.029878078243,-0.00394491245915,0.0332484553302,0.00073063724235,2.63197231293,1.39811235667,4.23590898514,-0.239642545581,1.09067642689,0.192511565983,1457181.5,1518246499.0,891192058.5,,,,,,231122.5,1518246499.0,896840487.5,,-0.652999998629,2.77899999916,0.468999999761,0.00950000050944,-0.00699999975041,-0.011000000406,3.0
14,28.4625614359,2859.5,1518246499.0,979303031.0,,2088286.5,1518246499.0,979303031.0,,0.726405440727,-0.267192933986,0.0720900443135,-0.0586335459774,0.998114741876,-0.00756265259398,-0.0164870538938,-0.000536765642025,0.0267488669698,-0.0187392415461,0.0132018430322,0.000981307282175,0.0556168046375,2.07141256333,1.23884910345,4.0677549839,-0.292907908559,0.791678965092,0.237628147006,1457187.5,1518246499.0,981702097.0,,,,,,231131.5,1518246499.0,987190719.0,,-0.592999996245,1.73900000006,-0.186000001431,0.0249999994412,0.0214999997988,-0.00450000021374,3.0
15,28.5651255385,2870.5,1518246500.0,89303372.5,,2088297.5,1518246500.0,89303372.5,,0.726496271712,-0.267216997015,0.0685986117409,-0.0599408441788,0.998042907905,-0.0082882622518,-0.0157702288905,0.00348017768566,-0.00175655519355,-0.0312790729883,-0.0194361160731,-0.0217804394795,0.0299878433931,3.96760499477,1.51653832197,4.01924455166,-0.39391040802,1.63251030446,0.185108035803,1457195.5,1518246500.0,92201217.5,,,,,,231142.5,1518246500.0,97745373.0,,0.616999989748,2.53399998695,0.269000011682,0.00700000009964,0.0380000006408,-0.0065000000177,3.0
16,28.667689641,2880.5,1518246500.0,194302105.0,,2088308.0,1518246500.0,194302105.0,,0.725888334422,-0.267499190244,0.0654680951869,-0.0598008199496,0.998044964136,-0.00824521924661,-0.0161903630302,-0.00589311944585,0.0225825600932,-0.0290994147855,0.00446442091617,0.000319972508209,-0.00645813268498,5.55237293243,2.08416247368,4.08545398712,-0.739780426025,2.27087879181,0.0875218361616,2088653.0,1518246500.0,192361388.0,,,,,,231152.5,1518246500.0,198627660.5,,-1.12800005227,1.28900000453,0.619000005722,0.00900000007823,0.0380000006408,-0.00250000011874,3.0
17,28.7702537436,2889.5,1518246500.0,279303353.0,,2088316.5,1518246500.0,279303353.0,,0.724983471932,-0.265142898504,0.0621953853038,-0.0607941754764,0.997978982719,-0.00730694118782,-0.0169827242947,0.0106501387381,0.0296494759434,-0.0317867539508,0.0490137618955,-0.0494621126244,0.0291411063994,3.57337927819,1.43452900648,4.24152946472,-0.377338662744,1.46444889903,0.166202835739,1457208.0,1518246500.0,280200371.5,,,,,,231161.5,1518246500.0,289210042.0,,1.29199999421,0.483999997377,0.214000019431,0.0275000007823,0.0215000002645,0.0415000002831,3.0
18,28.8728178462,2902.5,1518246500.0,409303551.0,,2088329.5,1518246500.0,409303551.0,,0.724427558557,-0.264072718302,0.0571541577411,-0.0615753240162,0.997928384867,-0.00627815412195,-0.0175426084134,0.00025989064656,-0.0185571613873,-0.0321680839291,-0.011131553704,0.00268496581515,-0.0104212486995,4.16517317295,0.946567445994,4.21817374229,-0.353695064783,1.6348568201,0.169770725071,825760.0,1518246500.0,396000000.0,,,,,,231174.5,1518246500.0,419038560.0,,-2.08800009042,0.363999992609,0.204000014067,0.0145000004559,0.00199999986216,0.0150000003632,3.0
19,28.9753819487,2910.5,1518246500.0,489303305.0,,2088337.5,1518246500.0,489303305.0,,0.723640574566,-0.264610466295,0.0539835592055,-0.0624796362039,0.9978482738,-0.00715140422249,-0.0185434202144,-0.0114017578254,0.0045696406569,-0.0428952366162,0.000984648604,0.0403831770992,-0.00328383948805,3.90987193585,1.0048763752,4.03897166252,-0.177779644728,1.60378623009,0.185333743691,1457223.5,1518246500.0,494704139.0,,,,,,231182.0,1518246500.0,493332182.0,,-0.158000023663,0.504000037909,0.21400000453,0.0189999993891,-0.00400000018999,0.0189999993891,3.0
20,29.0779460513,2923.5,1518246500.0,619310731.0,,2088350.5,1518246500.0,619310731.0,,0.723719534002,-0.266187082794,0.0500836989551,-0.0597784240788,0.998006700177,-0.00773673167557,-0.0186866282662,-0.00159066833092,-0.031346294519,-0.0153323462347,-0.0483634252647,0.0104619274592,-0.027630404629,3.30536544323,1.22762608528,3.01841711998,-0.354713559151,1.27319133282,0.138165347278,1457232.0,1518246500.0,610207503.0,,,,,,231195.0,1518246500.0,622976320.5,,-1.30300000459,0.439000040293,-3.75600002408,0.233500003814,0.109000001102,0.058500001207,-1.0
21,29.1805101538,2934.5,1518246500.0,729308732.0,,2088361.5,1518246500.0,729308732.0,,0.724323983737,-0.26834122152,0.0506125881537,-0.0591082102985,0.998043732211,-0.00911063566006,-0.0182159609332,0.00639651027671,0.00460310533886,0.00329686832308,0.0107273181525,-0.0155910381297,-0.000627973673075,3.28818047046,2.01970338821,1.77700352668,-0.645599424839,1.273219347,0.145607687533,2088706.5,1518246500.0,727397879.5,,,,,,231206.0,1518246500.0,732126204.0,,0.631999997795,1.75400000811,-1.39600000978,0.0560000017285,0.115000002086,0.0719999969006,-1.0
22,29.2830742564,2943.5,1518246500.0,819309377.0,,2088370.5,1518246500.0,819309377.0,,0.723684352942,-0.26611253293,0.0500589142641,-0.0607600293536,0.997938970854,-0.00872165934362,-0.0187068759957,-0.030918347462,0.011880888296,-0.019657179416,-0.0171610621289,0.0650421128329,0.0331405376572,3.17310607434,1.23407018184,2.50953912735,-0.189609661699,1.22548860312,0.202672794461,1457246.0,1518246500.0,812181997.5,,,,,,231215.0,1518246500.0,822628413.0,,-1.02800002843,0.494000047445,-4.37600014806,0.21400000155,0.143999993801,0.0649999976158,-1.0
23,29.385638359,2951.5,1518246500.0,899311666.0,,2088378.5,1518246500.0,899311666.0,,0.723990962655,-0.26479916347,0.0502992342728,-0.0622600426873,0.99785224759,-0.00901967098681,-0.0182523506705,0.0148792485088,0.016725052107,0.00402356077758,-0.00756863671744,-0.0301602944259,0.0473682925151,2.74569058419,0.840918540955,2.24264621734,0.0739436745643,0.987009406089,0.226819053293,1457251.5,1518246500.0,898192902.0,,,,,,231223.5,1518246500.0,908876382.5,,-0.643000037968,-0.746000081301,-2.96099994779,0.208499997854,0.159000001848,0.058500001207,-1.0
24,29.4882024615,2964.5,1518246501.0,29324551.0,,2088391.5,1518246501.0,29324551.0,,0.724371370042,-0.265321932169,0.0502220387066,-0.0621978817745,0.997852177631,-0.0100016189001,-0.0179551683311,0.00361763310095,-0.00587323916169,0.00333803679292,-0.0066968599678,-0.00969286141417,0.00573265498681,3.29129886627,1.17204171419,2.29091632366,-0.0969173237683,1.16348063945,0.216713242232,2088736.5,1518246501.0,27400613.0,,,,,,231236.0,1518246501.0,32275982.0,,-0.707999975979,0.784000009298,-3.08599994779,0.212999999523,0.152999997139,0.0710000023246,-1.0
25,29.5907665641,2971.5,1518246501.0,99352189.5,,2088398.5,1518246501.0,99352189.5,,0.724222937792,-0.266206824784,0.0500061830562,-0.0620966494407,0.99784989155,-0.0103846761813,-0.0182118731033,0.00172386064145,0.015565957261,0.00453848622607,-0.0029534001985,-0.00195518726467,0.0288168995083,3.26708459854,1.23217725754,2.2454098463,-0.150314878672,1.18781995773,0.213443309069,825787.5,1518246501.0,101500032.0,,,,,,231243.0,1518246501.0,103091314.5,,0.051999999583,1.49399998785,-2.92099998593,0.192500002682,0.175000004471,0.0959999971091,-1.0
26,29.6933306667,2985.5,1518246501.0,239348974.0,,2088412.5,1518246501.0,239348974.0,,0.724400515092,-0.265546147304,0.0502240346708,-0.0625409248663,0.99782775456,-0.0102197604931,-0.017997906127,-0.00937664037006,0.0167182741966,-0.00841836296031,-0.0103931635384,0.017413240288,0.0358367210022,3.04599797726,1.03872084618,2.30105984211,-0.0452325120568,1.09874695539,0.226014025509,1457275.0,1518246501.0,240224516.0,,,,,,231257.5,1518246501.0,248464991.5,,-0.238000006974,1.13899999857,-3.36600003838,0.194000005722,0.177500002086,0.0784999988974,-1.0
27,29.7958947692,2992.5,1518246501.0,309344538.5,,2088419.5,1518246501.0,309344538.5,,0.724160701903,-0.265286543998,0.0497793889346,-0.0627184123472,0.997810753092,-0.010076980863,-0.0183971279008,-0.0100156315796,0.00725296641225,-0.00453671111907,0.00483029195487,0.016739833377,0.00276738743505,3.38223719597,1.22199267149,2.19988393784,-0.1093772389,1.24784445763,0.238545008004,825796.0,1518246501.0,308999936.0,,,,,,231264.0,1518246501.0,312408014.0,,-1.20799997598,1.74399999529,-3.57599995732,0.197500005364,0.169500000775,0.0690000001341,-1.0
28,29.8984588718,3005.5,1518246501.0,439343157.0,,2088432.5,1518246501.0,439343157.0,,0.723919860113,-0.265006639933,0.0497380219378,-0.062608216733,0.997818808949,-0.0100143430787,-0.0183701565213,0.00197323637987,-0.0034680487988,-0.00158871964406,-0.00286038357721,-0.0013237827371,0.0011617240124,3.41180312634,1.16516566276,2.0860055685,-0.1060792543,1.23974138498,0.213571339846,1457289.0,1518246501.0,442224658.0,,,,,,231277.0,1518246501.0,442391536.0,,1.48199996203,1.95399999619,-3.46600006223,0.203999996185,0.159999996424,0.0939999967813,-1.0
29,30.0010229744,3014.5,1518246501.0,529341502.5,,2088441.5,1518246501.0,529341502.5,,0.724141292492,-0.264882128375,0.0500444658728,-0.0628841240215,0.997803387546,-0.0099932957029,-0.0182733950709,0.00392067839285,-0.0264783837503,-0.00266841703951,-0.000421376371324,-0.00423631952565,-0.0410067606021,3.36642241478,0.975805997848,2.14071941376,0.0218358077109,1.24033397436,0.237140208483,2088786.5,1518246501.0,527428127.0,,,,,,231286.0,1518246501.0,533038940.0,,-0.0779999807477,0.734000056982,-3.42600010037,0.195999994874,0.167999997735,0.0869999974966,-1.0
30,30.1035870769,3026.5,1518246501.0,649345376.0,,2088453.5,1518246501.0,649345376.0,,0.724442482625,-0.265301634126,0.0502193371659,-0.0625812062472,0.997829837499,-0.00997403575055,-0.01786542029,-0.00424001940734,-0.0053489275634,-0.00752106875769,0.00147710086275,0.0129367155402,-0.019046282597,3.2199754715,0.85973072052,2.20296490193,0.130224693566,1.19446569682,0.249669715762,1457303.5,1518246501.0,648208700.0,,,,,,231297.5,1518246501.0,649946668.5,,0.856999991834,1.39899998903,-3.34599993825,0.200999997556,0.16550000012,0.0810000002384,-1.0
31,30.2061511795,3034.5,1518246501.0,729363832.5,,2088461.5,1518246501.0,729363832.5,,0.724337596912,-0.265257981668,0.0501977951947,-0.0629041857899,0.997805665947,-0.0101928633152,-0.0179644091598,2.2476986495e-05,0.0087878184774,0.000309123302355,-0.00615342278424,-0.0030284292963,0.00107609975896,3.32477986813,0.906861960888,2.14592170715,0.0761397369207,1.23769855499,0.259023725987,2088806.5,1518246501.0,727447353.5,,,,,,231306.0,1518246501.0,734239121.0,,1.83199998588,2.12900000066,-3.45099995733,0.196999996901,0.16400000453,0.057500001043,-1.0
32,30.3087152821,3042.5,1518246501.0,809346274.5,,2088469.5,1518246501.0,809346274.5,,0.724361930331,-0.26598814952,0.0501999115912,-0.0624818653572,0.997829289757,-0.0104103847468,-0.0180071287064,-0.0124581144168,-0.00945519622695,-0.00648156265864,-0.00452250217043,0.0256711764832,0.00597899385976,3.25080990791,0.908795207738,2.1619335413,0.0809864662588,1.18956673146,0.24843429029,825815.5,1518246501.0,810500096.0,,,,,,231313.5,1518246501.0,810544181.5,,0.72199998647,1.24900001287,-3.02100000977,0.193000003695,0.160499997437,0.0649999976158,-1.0
33,30.4112793846,3055.5,1518246501.0,939347243.5,,2088482.5,1518246501.0,939347243.5,,0.723953747613,-0.264925538907,0.0498437525021,-0.0629229371443,0.997798836282,-0.0100178637112,-0.018379598027,-0.00889946021461,0.00777600283135,-0.000651572012124,-0.00458376437843,0.017311550187,0.00155761984155,3.02055346965,0.752298414708,2.3555366993,0.221736639738,1.13256692886,0.283661827445,2088827.5,1518246501.0,937447750.5,,,,,,231326.5,1518246501.0,940415085.0,,0.0219999983905,0.564000040293,-3.76600001454,0.19849999994,0.156500004232,0.0915000028908,-1.0
34,30.5138434872,3066.5,1518246502.0,49347658.5,,2088493.5,1518246502.0,49347658.5,,0.724137206446,-0.264808777689,0.0503576386199,-0.0627723812357,0.99781315417,-0.00998040030939,-0.0181346264116,-0.00892034244101,0.00618025695872,-0.00390083465886,0.00263514635261,0.0194147122077,0.00589728693845,2.81484544277,0.861091583967,2.29822945595,0.229779213667,1.06658732891,0.25579995662,1457331.5,1518246502.0,49719222.0,,,,,,231338.0,1518246502.0,53691668.0,,0.661999984086,0.894000023603,-3.50600002408,0.236000001431,0.158000007272,0.0619999989867,-1.0
35,30.6164075897,3075.5,1518246502.0,139344663.5,,2088502.5,1518246502.0,139344663.5,,0.724225100628,-0.265130625748,0.0500270157805,-0.0624669795971,0.997834307167,-0.00983263494864,-0.0181044240866,0.0051406632841,0.00525725244781,0.00510803700247,-0.00731600897355,-0.0133504420196,0.0182827233673,2.89037847519,0.914701461792,2.33970153331,0.206021077931,1.11486399174,0.256976932288,2088847.5,1518246502.0,137421579.5,,,,,,231347.0,1518246502.0,144076478.5,,1.00699998289,2.1589999795,-3.12600002884,0.212000004948,0.158500000834,0.0554999988527,-1.0
36,30.7189716923,3086.5,1518246502.0,249341837.5,,2088513.5,1518246502.0,249341837.5,,0.724195494621,-0.264887107348,0.0500633969612,-0.0623685379879,0.997843059391,-0.00946071970475,-0.0181558196817,0.00558508055748,0.0069152134353,0.00071210628351,0.0027301320139,-0.00830478592298,0.0189069830542,2.79131531716,0.804316014051,2.33823490143,0.291373223066,1.06658989191,0.268426120281,1457345.5,1518246502.0,250709215.5,,,,,,231358.0,1518246502.0,253360402.0,,1.19200000018,0.364000052214,-4.26600001454,0.259000003338,0.149000003934,0.0740000009537,-1.0
37,30.8215357949,3095.5,1518246502.0,339356538.0,,2088522.5,1518246502.0,339356538.0,,0.724309875164,-0.265148323863,0.0498961653424,-0.0625454872768,0.997830877629,-0.00975559289517,-0.018054717946,-0.00383009952777,0.00257164162907,-0.00605383883326,-0.00152966760758,0.00993444793918,0.00034229815049,2.79980170727,0.770422756672,2.30377471447,0.277140200138,1.07725691796,0.263446509838,2088867.5,1518246502.0,337451855.0,,,,,,231367.0,1518246502.0,344085854.0,,0.411999991536,1.1440000236,-3.32599995732,0.225999996066,0.150999993086,0.082999996841,-1.0
38,30.9240998974,3108.5,1518246502.0,469345671.5,,2088535.5,1518246502.0,469345671.5,,0.724065128774,-0.264796643966,0.0498465286572,-0.0629625836567,0.997799309797,-0.00980322211031,-0.0183290631238,0.0147619427741,0.00397290474243,0.00944968920397,0.0129276329059,-0.0265771142603,-0.0199279149995,2.82022559643,0.780252158642,2.3119289875,0.335886090994,1.06344008446,0.262227475644,825841.5,1518246502.0,468500096.0,,,,,,231379.5,1518246502.0,469511110.0,,-1.01799997836,1.65399999172,-3.91599999071,0.218999996782,0.161499999463,0.0694999992847,-1.0
39,31.026664,3114.5,1518246502.0,529345623.0,,2088541.5,1518246502.0,529345623.0,,0.724112519266,-0.264906093746,0.050037667817,-0.0622980945199,0.997844501916,-0.00954512208554,-0.0182744512461,-0.0105827129135,-0.0072229303499,-0.00699642851276,-0.00312710902504,0.0175100175965,-0.00495556698245,2.82559382916,0.76543110609,2.36452174187,0.338590800763,1.08136707544,0.280873984098,1457365.5,1518246502.0,528702733.5,,,,,,231386.5,1518246502.0,539561739.5,,-0.148000003398,0.358999997377,-3.94599996209,0.21099999547,0.170500002802,0.0714999996126,-1.0
