,Unnamed: 0,.header.seq,.header.stamp.secs,.header.stamp.nsecs,.header.frame_id,.endpoint_state.header.seq,.endpoint_state.header.stamp.secs,.endpoint_state.header.stamp.nsecs,.endpoint_state.header.frame_id,.endpoint_state.pose.position.x,.endpoint_state.pose.position.y,.endpoint_state.pose.position.z,.endpoint_state.pose.orientation.x,.endpoint_state.pose.orientation.y,.endpoint_state.pose.orientation.z,.endpoint_state.pose.orientation.w,.endpoint_state.twist.linear.x,.endpoint_state.twist.linear.y,.endpoint_state.twist.linear.z,.endpoint_state.twist.angular.x,.endpoint_state.twist.angular.y,.endpoint_state.twist.angular.z,.endpoint_state.wrench.force.x,.endpoint_state.wrench.force.y,.endpoint_state.wrench.force.z,.endpoint_state.wrench.torque.x,.endpoint_state.wrench.torque.y,.endpoint_state.wrench.torque.z,.joint_state.header.seq,.joint_state.header.stamp.secs,.joint_state.header.stamp.nsecs,.joint_state.header.frame_id,.joint_state.name,.joint_state.position,.joint_state.velocity,.joint_state.effort,.wrench_stamped.header.seq,.wrench_stamped.header.stamp.secs,.wrench_stamped.header.stamp.nsecs,.wrench_stamped.header.frame_id,.wrench_stamped.wrench.force.x,.wrench_stamped.wrench.force.y,.wrench_stamped.wrench.force.z,.wrench_stamped.wrench.torque.x,.wrench_stamped.wrench.torque.y,.wrench_stamped.wrench.torque.z,.tag
0,127.560263,12769.5,1518245526.0,139255737.0,,1990902.5,1518245526.0,139255737.0,,0.762201520994,-0.290994478495,0.1270299436,-0.0247297982462,0.999528521299,0.00478592622191,0.0175556048982,-0.0235398644117,0.0223728310002,-0.014854552567,-0.0070464533507,0.0389993086123,0.0511321799829,3.60908377171,1.90484243632,4.34807491303,-0.590237677097,1.65433466434,0.266793385148,1389233.0,1518245526.0,130174764.5,,,,,,133859.5,1518245526.0,134519829.0,,1.91400002893,-1.09700000137,-1.09099999666,0.0394999999553,-0.0159999998287,0.0370000004769,3.0
1,127.662827103,12777.5,1518245526.0,214258442.0,,1990910.0,1518245526.0,214258442.0,,0.760393720336,-0.290079566964,0.125350537607,-0.0267969368363,0.999505602947,0.00334003464864,0.0161033544109,-0.043467018704,0.0158167154498,-0.0380433676061,-0.043558181159,0.0703585845348,0.0952620867217,5.81734371185,1.5669542551,4.86644697189,-0.402077496052,2.30316352844,0.272996246815,1991254.0,1518245526.0,202332771.0,,,,,,133867.5,1518245526.0,214896627.5,,1.44400000032,0.397999995947,-0.756000003218,0.0,0.0125000001863,0.0339999990538,3.0
2,127.765391205,12789.5,1518245526.0,329257617.5,,1990922.0,1518245526.0,334254969.0,,0.756739224657,-0.288956817075,0.120979313935,-0.0313313502599,0.999427780018,0.000894676428852,0.0127066388458,-0.0338097666099,0.00855756561829,-0.0414011101404,-0.0507387829325,0.0638605542886,0.0778088821233,3.5718653202,1.32678544522,4.53939652443,-0.278508543968,1.57277047634,0.261538274586,1389247.0,1518245526.0,331658245.0,,,,,,133879.5,1518245526.0,334586279.5,,2.91900002416,-2.06699997783,-0.566000004672,0.0219999998808,-0.00899999984539,0.0464999992401,3.0
3,127.867955308,12800.5,1518245526.0,449255086.0,,1990933.5,1518245526.0,449255086.0,,0.753678762423,-0.286871390112,0.116324144829,-0.0347059645478,0.999345319739,-0.00209740124486,0.00999734533493,-0.0267477124955,0.0241625657825,-0.0437405357727,-0.0440371507341,0.0522837540209,0.0364654980363,2.81990146637,1.17187637091,4.44259881974,-0.166111044586,1.2724505961,0.240412257612,1991277.5,1518245526.0,437342612.5,,,,,,133890.5,1518245526.0,445203184.0,,1.85400002655,-1.5970000051,-0.441000005602,0.0255000004545,-0.0145000000484,0.0370000004768,3.0
4,127.97051941,12812.5,1518245526.0,569254916.5,,1990945.5,1518245526.0,569254916.5,,0.749417641194,-0.283761500702,0.11035632398,-0.0388361632518,0.999222392225,-0.00355598032955,0.00578937488876,-0.0390587015675,0.0418073330165,-0.0630878106778,-0.0255972486271,0.0960351043232,0.108520312857,4.30052816868,1.32251143455,4.59400463105,-0.233652025461,1.80623447895,0.243431612849,1991290.5,1518245526.0,567334456.0,,,,,,133902.5,1518245526.0,564371490.0,,0.409000011347,0.647999995947,-0.105999997258,0.0250000003726,0.011500000488,0.0220000008121,3.0
5,128.073083513,12819.5,1518245526.0,639254771.5,,1990952.5,1518245526.0,639254771.5,,0.746507312373,-0.282819551993,0.106269206098,-0.0416484821146,0.999115969176,-0.00492728433816,0.00287967297688,-0.037251559433,0.0202868284042,-0.0583567483152,-0.0300347085282,0.0782680951013,0.0880354954368,3.00940668583,0.931103527546,4.54560017586,0.00046824105085,1.31541645527,0.240413174033,1389268.0,1518245526.0,633177502.5,,,,,,133909.5,1518245526.0,634384210.0,,1.70399999079,0.03299998641,-0.191000005603,0.0105000003241,0.00450000003911,0.0295000001788,3.0
6,128.175647615,12828.5,1518245526.0,729254958.0,,1990961.5,1518245526.0,729254958.0,,0.742687501119,-0.278295395862,0.100483265812,-0.0447098382945,0.998991198824,-0.00397586708124,-0.00108189987946,-0.0404742582825,0.0549560117407,-0.0563604206102,0.0355508475252,0.0761666883855,0.0370319068934,4.19470059872,1.23028755188,4.80142831802,-0.211680330336,1.77574175596,0.172561861574,1991306.0,1518245526.0,722322447.0,,,,,,133918.5,1518245526.0,725897909.5,,1.08900001105,-0.027000015974,0.118999996781,0.0140000004321,0.00450000003911,0.0304999994114,3.0
7,128.278211718,12842.5,1518245526.0,869256549.0,,1990975.5,1518245526.0,869256549.0,,0.735689947466,-0.276389670286,0.0925260180357,-0.0487622866524,0.998756230047,-0.0056646966193,-0.00872150206349,-0.041319749553,0.00531981063684,-0.055141087978,-0.0542171837981,0.0861848548335,0.102818615204,3.50034463405,0.907050877809,5.05019521714,-0.186068184674,1.46471011639,0.235580354929,1991320.5,1518245526.0,867320272.0,,,,,,133933.0,1518245526.0,870138744.0,,1.66400002893,0.443000042441,-0.216000011563,0.0160000005271,0.0100000000093,0.0379999987781,3.0
8,128.380775821,12850.5,1518245526.0,939255392.0,,1990982.5,1518245526.0,939255392.0,,0.733373257111,-0.273843870928,0.0888897077588,-0.0513467366816,0.998604275205,-0.00591994934179,-0.0108519176112,-0.0343574291553,0.0189791713467,-0.0425896861533,-0.0101063989293,0.0531896243158,0.04598818112,3.98141539097,0.46986719966,5.34568619728,0.08066836372,1.55418419838,0.206497371197,1389289.0,1518245526.0,934656701.0,,,,,,133940.5,1518245526.0,945236014.0,,0.904000008666,-0.0320000112057,-0.331000006199,0.0130000002682,0.0205000005662,0.0180000001565,3.0
9,128.483339923,12860.5,1518245527.0,44255048.0,,1990993.0,1518245527.0,44255048.0,,0.731639550272,-0.272491533195,0.0848403782093,-0.0518173805555,0.998567457127,-0.00584877833154,-0.0119910145986,-0.0174506635971,-0.00604787312608,-0.03584071894,-0.0528516433496,0.0168275739986,0.040644416074,3.99838161469,1.30218505859,5.18695545197,-0.38124114275,1.73740386963,0.217776030302,1389296.0,1518245527.0,35176876.0,,,,,,133950.5,1518245527.0,45086110.5,,1.27899997886,0.0129999756815,-0.316000005603,0.0255000004545,-0.00349999999162,0.0200000000186,3.0
10,128.585904026,12872.5,1518245527.0,169257508.5,,1991005.5,1518245527.0,169257508.5,,0.73081207234,-0.271188895146,0.0815603769847,-0.0554310699902,0.9983579096,-0.00740388340148,-0.0124053633856,0.00220971151567,0.00588253636019,-0.0208324972577,-0.00372720245014,-0.0108585466419,0.0214373137206,4.83724188805,0.938081830742,4.65988516808,0.0257286429406,2.0941311121,0.232483170927,1991350.5,1518245527.0,167335364.0,,,,,,133962.5,1518245527.0,165185349.5,,0.849000001513,0.472999984026,0.198999980092,0.0154999997466,-0.0139999999665,0.0170000004582,3.0
11,128.688468128,12880.5,1518245527.0,244255608.0,,1991013.0,1518245527.0,244255608.0,,0.730465073977,-0.26973839761,0.0793849890038,-0.0571598434512,0.998259728345,-0.00766906519284,-0.0123066039684,-0.0127910623803,0.0293074764885,-0.0430841082532,0.0028116871253,0.00660237840151,0.0398381295076,4.86764240265,1.12653446198,4.69044971466,-0.229318752885,2.16645860672,0.164708912373,1991357.5,1518245527.0,237347881.5,,,,,,133970.5,1518245527.0,244622774.5,,-0.245999997295,-0.807000002265,0.828999975324,0.0129999998026,0.0130000001518,-0.00599999993574,3.0
12,128.791032231,12894.5,1518245527.0,389254668.0,,1991027.5,1518245527.0,389254668.0,,0.728855192191,-0.269353424326,0.0753660853021,-0.0572072364681,0.998230124595,-0.00851798172934,-0.0138257545922,-0.00992183044879,0.0134238046978,-0.0275270212362,-0.00833042224508,0.022354011822,0.0638401190697,3.51404440403,1.48177945614,4.28224492073,-0.398418799042,1.57252031565,0.177731260657,1991371.0,1518245527.0,372354510.0,,,,,,133984.5,1518245527.0,385042321.5,,0.634000012837,0.303000026941,-0.181000000238,0.0135000003502,-0.00300000014249,-0.00200000032781,3.0
13,128.893596333,12904.5,1518245527.0,489259346.5,,1991037.5,1518245527.0,489259346.5,,0.728359867511,-0.268065884896,0.0727418280648,-0.0592387205804,0.998110146284,-0.00851911600981,-0.0139366118432,0.00436724106306,0.0050859622096,-0.0287854694462,0.0154844612082,-0.0162084757519,0.00795469735982,3.80128526688,1.50053071976,4.25180315971,-0.400750085711,1.59243017435,0.159690767527,1991381.0,1518245527.0,472348472.0,,,,,,133994.5,1518245527.0,486217562.5,,0.413999999128,0.173000001907,0.174000003934,0.0194999999367,0.0109999998822,0.010499999742,3.0
14,128.996160436,12912.5,1518245527.0,569256345.0,,1991045.5,1518245527.0,569256345.0,,0.728041146443,-0.267267531083,0.0699460050596,-0.0599271316039,0.998069067139,-0.00818305611626,-0.0141226720315,0.0180864725818,0.0236005357512,-0.0313424516427,0.027704858381,-0.0463362779579,0.0296676757708,4.03318238259,1.33917534351,4.20940065384,-0.500972479582,1.74699538947,0.135078370571,1991390.5,1518245527.0,567314013.5,,,,,,134001.5,1518245527.0,567173181.5,,0.534000003897,-0.542000001669,-0.706000004337,0.00949999969453,0.027499999851,0.0309999994934,3.0
15,129.098724538,12920.5,1518245527.0,644256190.0,,1991053.0,1518245527.0,644256190.0,,0.727273576567,-0.265816603746,0.06744225804,-0.0618666694023,0.997939944943,-0.00874100635033,-0.0145594063429,-0.012160087232,0.00830989389736,-0.0366042719432,-0.0148261405289,0.0174678780675,0.0236775688853,4.57331132889,1.24314773083,4.33362436295,-0.254967749119,1.79296004772,0.14159783721,1991397.0,1518245527.0,632328824.0,,,,,,134009.5,1518245527.0,646418105.0,,-0.165999991633,-0.516999995708,0.253999987244,0.00900000031104,0.0070000003325,0.0285000000149,3.0
16,129.201288641,12935.5,1518245527.0,789256592.5,,1991067.5,1518245527.0,789256592.5,,0.726575031712,-0.264492484147,0.0621165962371,-0.0616709746232,0.997955772048,-0.00740982219214,-0.0150287036936,0.00904704637898,0.0275808046111,-0.0256719578407,0.044600656606,-0.0370235160296,0.0348431950078,3.27655267716,1.12467551231,4.17267560959,-0.383858665824,1.38619196415,0.146833106875,1991411.0,1518245527.0,772349225.0,,,,,,134022.5,1518245527.0,797466462.0,,0.253999995254,0.937999957801,-0.101000002027,0.00150000001303,0.0224999999627,0.0229999995791,3.0
17,129.303852744,12942.5,1518245527.0,869255622.0,,1991075.5,1518245527.0,869255622.0,,0.726320914411,-0.264216692619,0.0595645553109,-0.0618550402189,0.997943475629,-0.00726527549444,-0.0151599760522,-0.0131187855108,0.00591791503309,-0.0358476652205,-0.000701210596845,0.0175982253878,0.0364701949293,3.56719565392,0.944700926542,4.00702059269,-0.22817364335,1.444670856,0.161561436951,1991420.5,1518245527.0,867347760.5,,,,,,134029.5,1518245527.0,868003931.5,,-1.47100002114,0.707999998331,-0.280999994278,0.00099999993108,0.0145000005141,0.0235000001266,3.0
18,129.406416846,12952.5,1518245527.0,969256635.0,,1991085.5,1518245527.0,969256635.0,,0.725060597102,-0.265462373813,0.0556515062801,-0.0622065948808,0.997892041533,-0.00783796884333,-0.0167217756852,-0.0141909950367,-0.00107368847385,-0.0432901355577,-0.0085696138697,0.024806046117,0.0205982890289,3.57864952087,1.08402276039,3.98534119129,-0.0897866375742,1.3777487874,0.20310010016,1991430.5,1518245527.0,967327177.5,,,,,,134038.5,1518245527.0,965957364.0,,1.04900001939,1.49800001979,-0.471000006795,0.00450000015553,0.0154999997467,0.00550000020303,3.0
19,129.508980949,12963.5,1518245528.0,69256653.0,,1991095.5,1518245528.0,69256653.0,,0.725001986703,-0.266324863549,0.0519753816466,-0.0610623382203,0.997962664385,-0.00837686162171,-0.016472630243,-0.00980670201709,-0.0100795669493,-0.0457716850839,-0.0160286433309,0.0129963329794,-0.0417056602953,3.75609314442,1.36016201973,4.2101328373,-0.490000084042,1.5509687066,0.117105450481,1991440.5,1518245528.0,67343696.5,,,,,,134049.5,1518245528.0,77595122.0,,-0.695999985375,0.252999955416,-0.546000004187,0.00050000008196,0.0290000010282,0.0120000001043,3.0
20,129.611545051,12975.5,1518245528.0,199263229.0,,1991108.5,1518245528.0,199263229.0,,0.725408534106,-0.268218850523,0.0502838670299,-0.0594279013437,0.998045305666,-0.00949546079423,-0.0168425101826,0.00482312941285,-0.0117574760153,0.00288735554045,-0.0122652586571,-0.00080486421565,-0.0108936694164,3.77197551727,1.4078772068,1.53097647429,-0.477231219411,1.44747781754,0.111725732684,1389377.0,1518245528.0,184660631.0,,,,,,134061.5,1518245528.0,196101575.0,,0.184000004269,-1.25699999034,-5.68599989116,0.243999995292,0.126999996602,0.0555000007152,-1.0
21,129.714109154,12986.5,1518245528.0,309256179.0,,1991119.5,1518245528.0,309256179.0,,0.7268144996,-0.267586656253,0.0504200934872,-0.0595237377251,0.998070319873,-0.00946700445953,-0.0149119700431,0.0210790693707,0.0068643716651,0.00680468033804,0.0032636530729,-0.0445185308306,0.00854438782746,3.36243927479,1.35033023357,1.33145862818,-0.361983373761,1.33594876528,0.16631462425,1991464.0,1518245528.0,302331882.0,,,,,,134072.5,1518245528.0,306194106.0,,-0.420999979415,-0.201999998093,-3.57599999607,0.1344999969,0.127000000328,0.06950000301,-1.0
22,129.816673256,12994.5,1518245528.0,384405368.0,,1991127.0,1518245528.0,384405368.0,,0.726872771892,-0.266504203595,0.0502791230678,-0.0606652833883,0.998000631149,-0.00950830766432,-0.0149684903605,0.00457618822231,0.0163702734068,-0.00832380271365,-0.0155337568926,-0.017135160324,0.0519687018928,4.2748708725,1.29819417,1.52524328232,-0.262236058712,1.67245054245,0.178989857435,787309.0,1518245528.0,379000064.0,,,,,,134080.5,1518245528.0,387500401.5,,-1.22099996154,-1.36199999452,-5.17100002468,0.261500000954,0.122500002384,0.0454999990762,-1.0
23,129.919237359,13006.5,1518245528.0,499424823.0,,1991138.5,1518245528.0,499424823.0,,0.726568172673,-0.266158823087,0.0498925230919,-0.0614998833171,0.997939596112,-0.0100966791259,-0.0152418199066,-0.00411465929265,-0.00320649273327,0.00579250290811,0.00100106110611,0.0112526226803,-0.00889779794936,3.93559730053,0.866232335567,1.50568044186,-0.0267077535391,1.54292392731,0.189847901464,1389398.5,1518245528.0,502251812.0,,,,,,134092.5,1518245528.0,506834393.0,,-1.56099999491,-1.12199999895,-3.92600001991,0.213500000536,0.141000002623,0.0714999996125,-1.0
24,130.021801462,13016.5,1518245528.0,604409208.5,,1991149.0,1518245528.0,604409208.5,,0.726380098815,-0.266673405709,0.050155983095,-0.061475607915,0.997930906139,-0.0106761529966,-0.0154952320665,0.0139452038962,-0.00832142044865,-0.000952011563045,-0.00866998425815,-0.0227696411467,-0.00431534235863,3.64076554776,1.0548171401,1.70636588335,-0.102331802249,1.40872997046,0.187823250889,1389406.0,1518245528.0,597250028.0,,,,,,134102.5,1518245528.0,606432262.5,,1.42899995503,0.318000012636,-4.58599998653,0.260499998927,0.152499996126,0.0440000016242,-1.0
25,130.124365564,13027.5,1518245528.0,714414669.0,,1991160.0,1518245528.0,714414669.0,,0.72630487551,-0.266774506158,0.0496826689165,-0.0613563372266,0.997940890996,-0.0104193088345,-0.015518246181,-0.0125486244633,0.00722666026559,-0.0104115655475,-0.00390893576736,0.0243496432223,0.0341815211953,3.75145792961,1.04924058914,1.70404171944,-0.077098980546,1.46354532242,0.204494357109,1991505.0,1518245528.0,712522477.0,,,,,,134113.5,1518245528.0,716912099.0,,1.32899999079,-0.356999999284,-4.44099988639,0.197000004351,0.138500005007,0.0525000002236,-1.0
26,130.226929667,13035.5,1518245528.0,799428776.5,,1991168.5,1518245528.0,799428776.5,,0.726016763433,-0.26654084343,0.0497620606448,-0.061973892818,0.997894908651,-0.0107202546562,-0.0158051155576,-0.00212870996516,-0.00457783651666,0.00730920909896,-0.00654564483532,0.0032427929475,-0.00325084329935,3.789935112,1.01099294424,1.71343171597,-0.0655218549073,1.46691977977,0.192329302431,1389419.5,1518245528.0,794233225.0,,,,,,134121.5,1518245528.0,797426408.5,,-0.43599998001,-0.981999999283,-5.82100012004,0.278499990701,0.144000001252,0.0579999983311,-1.0
27,130.329493769,13047.5,1518245528.0,914411385.5,,1991180.5,1518245528.0,919410315.0,,0.72659373271,-0.266734869178,0.0498127658062,-0.0620388826258,0.997899754093,-0.0107469685617,-0.015219328139,-0.000129895451225,-0.00229345498596,-0.0031926346623,0.00536957812974,-0.00111399765315,-0.00662615532508,3.93817782402,1.14241355657,1.63967871666,-0.142857000231,1.55344802141,0.181788615883,1991525.5,1518245528.0,917506321.0,,,,,,134133.5,1518245528.0,916973653.0,,1.80900000986,-1.05200000703,-5.37599994838,0.226499997079,0.132500000298,0.0890000015498,-1.0
28,130.432057872,13055.5,1518245528.5,494410342.0,,1991188.0,1518245528.5,494410342.0,,0.726502840313,-0.266847623139,0.0500324059799,-0.0617465445877,0.997914640716,-0.0108989226568,-0.0153212859066,0.000552010823961,-0.000946258532735,-0.00171735769855,-0.00219810597725,-0.00108542875381,0.00452213828283,3.84144103527,1.01710921526,1.67069846392,-0.101746730506,1.48617106676,0.190103195608,1389433.0,1518245528.0,990763548.0,,,,,,134141.5,1518245528.5,498176838.0,,1.00900002774,-1.40200000107,-6.08599998652,0.261500000954,0.133000001311,0.0760000012815,-1.0
29,130.534621974,13067.5,1518245529.0,114417340.5,,1991200.0,1518245529.0,114417340.5,,0.726084031578,-0.266646750842,0.0498516195223,-0.0619479039112,0.997896828663,-0.0107628569463,-0.015762586726,-0.00165405130425,0.00833679352064,-0.0016845209874,-0.000863060519275,0.0016468164156,0.0101603400172,3.92538511753,1.04287266732,1.66215223074,-0.0698499232531,1.52737474442,0.203021354973,1991545.5,1518245529.0,117483573.0,,,,,,134153.5,1518245529.0,118867704.0,,1.38900005277,-0.917000003533,-4.39599992931,0.203000001609,0.138499997556,0.0620000008493,-1.0
30,130.637186077,13074.5,1518245529.0,184410175.0,,1991207.0,1518245529.0,184410175.0,,0.725982640293,-0.267076376391,0.0497665236429,-0.0618624347326,0.997899036994,-0.010905295643,-0.0158617820274,-0.0033485869086,0.0005135329314,0.00217904609697,0.00119863662702,0.00711995735878,0.0026731499287,3.70407295227,0.894877612591,1.72628605366,-0.0135923400522,1.44461619854,0.205131985247,1389446.0,1518245529.0,182243506.5,,,,,,134160.5,1518245529.0,188174840.5,,1.86900007184,-0.641999999434,-4.46599998177,0.232500001788,0.144000001252,0.0529999993741,-1.0
31,130.739750179,13085.5,1518245529.0,289409680.5,,1991217.5,1518245529.0,289409680.5,,0.726041346634,-0.266798200288,0.0497318421797,-0.0613727807776,0.997935814756,-0.0105304890118,-0.0156988794881,4.325892875e-05,-0.00437498576495,0.00122580535666,-0.00470661598477,-0.00109644203812,-0.00663120567816,3.8387876749,1.03574383259,1.68302059173,-0.0924636125563,1.49683427811,0.192242994905,787345.0,1518245529.0,292000000.0,,,,,,134171.5,1518245529.0,298961668.5,,0.61400001701,-1.91199997664,-4.34599997699,0.208000004292,0.149999998509,0.0965000018479,-1.0
32,130.842314282,13098.5,1518245529.0,424404800.0,,1991231.0,1518245529.0,424404800.0,,0.726474792607,-0.266985897542,0.0502267341549,-0.0612701643709,0.997945947468,-0.0106638515793,-0.0153666899552,0.00248865671027,0.0135284554649,0.00311890175139,0.00463403868171,-0.00925776255367,0.00861278388691,3.77386951447,0.933468580246,1.70290625095,-0.0110444799066,1.47605228424,0.196140915155,1991576.0,1518245529.0,422486859.0,,,,,,134183.5,1518245529.0,427582842.5,,-0.0309999937191,-1.45199999809,-4.53600003422,0.212500005961,0.155500002206,0.0869999974966,-1.0
33,130.944878385,13107.5,1518245529.0,519408445.5,,1991240.5,1518245529.0,519408445.5,,0.726261493411,-0.266942180634,0.0497087374661,-0.061580882713,0.997921417688,-0.0108875553488,-0.0155564126913,0.00477454734258,-0.00597831932498,-0.00351909426799,0.013900836246,-0.0116285673564,-0.0179719666094,3.63201284408,0.828199505806,1.7256025672,0.0435431282967,1.41353207827,0.205042943359,1991585.5,1518245529.0,517487792.5,,,,,,134192.5,1518245529.0,517363771.5,,1.40399997886,-1.20199999716,-4.16599991023,0.207500003278,0.142499998212,0.089999999851,-1.0
34,131.047442487,13116.5,1518245529.0,604408796.5,,1991249.0,1518245529.0,604408796.5,,0.726303699935,-0.266770134245,0.0500564411956,-0.061578896094,0.99792598927,-0.010626306975,-0.0154433198832,0.00607585222499,-0.00183890055861,0.00924550779949,0.00169583592224,-0.015145286031,0.00600005589629,3.58986330032,0.748537182808,1.78929537535,0.0621913038194,1.41089808941,0.198119148612,1389476.0,1518245529.0,603731684.0,,,,,,134201.5,1518245529.0,608777427.0,,1.19400000032,-1.99199998975,-4.43100001514,0.217500001192,0.151500001549,0.0630000010133,-1.0
35,131.15000659,13128.5,1518245529.0,719411477.0,,1991260.5,1518245529.0,719411477.0,,0.725988821265,-0.266727098799,0.0496484532522,-0.0619419280389,0.997896370508,-0.0108487283722,-0.0157534809037,-0.00745727991538,-0.00817660021391,-0.00606959547229,-0.0044013161996,0.0127523315992,-0.0117248539438,3.55569672584,0.80486407876,1.87206608057,0.0864514689892,1.40038996935,0.213601291179,1389484.0,1518245529.0,725245002.5,,,,,,134213.5,1518245529.0,729135085.0,,1.18400000986,-2.22199997902,-4.26099993884,0.214499995113,0.142999999225,0.0740000009537,-1.0
36,131.252570692,13137.5,1518245529.0,809410838.5,,1991269.5,1518245529.0,809410838.5,,0.725870677348,-0.266964974402,0.0497674004581,-0.0615897470898,0.997915351015,-0.0107618597324,-0.0159932756281,-0.00339188835364,-0.00453154232286,-0.00258525713144,-0.001818704628,0.00548364095095,-0.00869835436935,3.48175120354,0.668489575386,1.83467066288,0.172386847437,1.3604400754,0.225845716893,1991615.5,1518245529.0,817507640.0,,,,,,134222.5,1518245529.0,819195563.0,,0.539000014029,-1.14700000584,-4.36100008189,0.208999998867,0.145000003278,0.0725000016391,-1.0
37,131.355134795,13148.5,1518245529.0,924408929.0,,1991281.0,1518245529.0,924408929.0,,0.726376145466,-0.266401035834,0.0501199874162,-0.062083826171,0.997895793103,-0.0106766447617,-0.0153444291007,0.00502196576309,-0.00404159640474,0.00388334011629,-0.00455129629102,-0.00898656151409,-0.0123420959913,3.51487183571,0.709092825651,1.79388129711,0.110893715173,1.37015610933,0.216441728175,1389498.0,1518245529.0,926229832.0,,,,,,134233.5,1518245529.0,928971178.5,,-0.100999997743,-0.891999995706,-4.49599995315,0.213500000537,0.147500000894,0.089999999851,-1.0
38,131.457698897,13158.5,1518245530.0,29405276.0,,1991291.5,1518245530.0,29405276.0,,0.726340596294,-0.266982653006,0.0499187491787,-0.0614972578631,0.997929550327,-0.0107947887552,-0.0154245643153,0.000722717500434,-0.0094613729674,0.00279558551102,-0.00688956186564,-0.00574794672816,-0.00706167644561,3.54212713242,0.68976905942,1.89595729112,0.154408220202,1.39727592468,0.233976118266,1389505.0,1518245530.0,27250465.5,,,,,,134243.5,1518245530.0,29530975.0,,1.34400003608,-0.896999987214,-4.51099993884,0.217000000179,0.141999997199,0.0889999978244,-1.0
39,131.560263,13168.5,1518245530.0,124409792.0,,1991301.0,1518245530.0,124409792.0,,0.726447835147,-0.266747367275,0.0499350476634,-0.0614405125941,0.997937057743,-0.0104374571338,-0.0154143411988,0.00332387724626,0.00315296715879,0.00748452021266,0.00411623314737,-0.00581898517431,0.00429043120516,3.48091936111,0.624829024076,1.87713974715,0.180436432362,1.38818085194,0.215966701507,1389511.5,1518245530.0,122249199.0,,,,,,134253.5,1518245530.0,129299480.0,,1.61900001224,-0.427000021935,-4.59100010097,0.210499994457,0.146499998867,0.0714999996125,-1.0
