,Unnamed: 0,.header.seq,.header.stamp.secs,.header.stamp.nsecs,.header.frame_id,.endpoint_state.header.seq,.endpoint_state.header.stamp.secs,.endpoint_state.header.stamp.nsecs,.endpoint_state.header.frame_id,.endpoint_state.pose.position.x,.endpoint_state.pose.position.y,.endpoint_state.pose.position.z,.endpoint_state.pose.orientation.x,.endpoint_state.pose.orientation.y,.endpoint_state.pose.orientation.z,.endpoint_state.pose.orientation.w,.endpoint_state.twist.linear.x,.endpoint_state.twist.linear.y,.endpoint_state.twist.linear.z,.endpoint_state.twist.angular.x,.endpoint_state.twist.angular.y,.endpoint_state.twist.angular.z,.endpoint_state.wrench.force.x,.endpoint_state.wrench.force.y,.endpoint_state.wrench.force.z,.endpoint_state.wrench.torque.x,.endpoint_state.wrench.torque.y,.endpoint_state.wrench.torque.z,.joint_state.header.seq,.joint_state.header.stamp.secs,.joint_state.header.stamp.nsecs,.joint_state.header.frame_id,.joint_state.name,.joint_state.position,.joint_state.velocity,.joint_state.effort,.wrench_stamped.header.seq,.wrench_stamped.header.stamp.secs,.wrench_stamped.header.stamp.nsecs,.wrench_stamped.header.frame_id,.wrench_stamped.wrench.force.x,.wrench_stamped.wrench.force.y,.wrench_stamped.wrench.force.z,.wrench_stamped.wrench.torque.x,.wrench_stamped.wrench.torque.y,.wrench_stamped.wrench.torque.z,.tag
0,135.374981,13552.5,1518245169.0,789037232.5,,1955267.5,1518245169.0,789037232.5,,0.7619881739,-0.29325499575,0.126273998596,-0.0261953555012,0.999498215681,0.00257582292114,0.0176183782251,-0.02812182086,-0.0195254096128,-0.0293023550299,-0.0630824473482,0.0552101684557,0.0368261369376,2.4966250658,1.73277270794,4.41519618034,-0.543060898781,1.21040505171,0.24371829629,1364368.5,1518245169.0,789044146.5,,,,,,98265.5,1518245169.0,799828722.5,,-2.23200003281,0.702000034602,0.238999998942,0.0135000003502,0.0254999995232,0.039999999106,3.0
1,135.477545103,13564.5,1518245169.0,909033518.0,,1955279.5,1518245169.0,909033518.0,,0.757319224666,-0.293547461397,0.122156573516,-0.0297795856689,0.999472998926,-0.00115951488917,0.0128568019555,-0.0397473385206,0.00427510072829,-0.034153514912,-0.0564293579352,0.0720426995748,0.059873201269,5.0872349739,1.39350354671,5.13039588928,-0.34588740766,2.18123805523,0.217518113554,1955623.0,1518245169.0,892105162.0,,,,,,98277.0,1518245169.0,913760360.5,,-1.04200000167,2.51200000718,0.273999995366,0.00350000010803,0.0290000000969,0.0260000005364,3.0
2,135.580109205,13576.5,1518245170.0,29029231.5,,1955291.5,1518245170.0,29029231.5,,0.754774556981,-0.289748189268,0.11794514391,-0.0320898124538,0.999424209972,-0.00113019765049,0.0109404476945,-0.0174164426694,0.0537152957356,-0.0462259873362,0.0224094233329,0.0239058508223,-0.0142908055886,3.37735259533,1.58382147551,4.1545009613,-0.334341287613,1.49648576975,0.26123572886,1364385.0,1518245170.0,31084471.0,,,,,,98288.5,1518245170.0,29690817.0,,-1.13700000048,1.35199998096,-0.226000004634,0.0490000005811,0.00599999958647,0.0155000002123,3.0
3,135.682673308,13584.5,1518245170.0,109034233.0,,1955299.5,1518245170.0,109034233.0,,0.753134205429,-0.288178175623,0.113988907661,-0.0353091324783,0.999324466229,-0.00350646059246,0.00954721711189,-0.0280053469318,0.00213686610946,-0.0552494074294,-0.100453325474,0.0513794546478,0.117753691867,4.36980819702,1.06345230341,4.67348790169,-0.0886109247802,1.89274865389,0.259174987674,1955643.0,1518245170.0,92092673.0,,,,,,98297.0,1518245170.0,113827633.0,,-0.697000032665,2.15200005248,-0.74099999778,0.0345000009984,-0.00450000027196,0.0164999992121,3.0
4,135.78523741,13597.5,1518245170.0,239031897.5,,1955312.5,1518245170.0,239031897.5,,0.74791955085,-0.283592775909,0.106073061314,-0.0414405853219,0.999120934668,-0.00473409273313,0.00417425168042,-0.0648013335836,0.0494432131772,-0.0658715806221,0.0070555500514,0.143576941487,0.0720472787421,2.98867321015,1.00172358751,4.94444346428,-0.0573430620134,1.41976094246,0.23005976528,1955657.5,1518245170.0,237093016.0,,,,,,98310.0,1518245170.0,243092443.0,,-2.25200001001,1.9520000644,0.0139999993145,0.00800000037998,-0.00999999977648,0.00800000037998,3.0
5,135.887801513,13605.5,1518245170.0,319038550.5,,1955320.5,1518245170.0,319038550.5,,0.743370322812,-0.281260383926,0.101433743929,-0.0430486725297,0.999058314776,-0.00533232822575,-0.000859292010175,-0.0591502570479,0.024424351913,-0.0663345231369,-0.0537161131663,0.12301292428,0.0823183208781,5.05313992501,0.792790949345,5.29292607307,-0.037576187402,2.15671515465,0.280031427741,1364404.0,1518245170.0,310056022.5,,,,,,98318.0,1518245170.0,323274059.0,,-1.8070000181,1.47200004533,-1.17600002997,0.00350000010805,0.0404999991879,0.0335000008345,3.0
6,135.990365615,13617.5,1518245170.0,439033288.0,,1955332.5,1518245170.0,439033288.0,,0.736510283795,-0.277984617903,0.0943396580647,-0.0487881297975,0.998751436804,-0.00693757836735,-0.00816882850946,-0.0570362691174,0.0345795348583,-0.0579234730226,-0.00439153738691,0.115130929293,0.0889843072624,1.97260171175,0.796376347541,5.32084298133,-0.0207663439214,0.946708232166,0.234023466706,1364413.5,1518245170.0,438572723.5,,,,,,98330.0,1518245170.0,444621542.5,,-0.732000058891,1.88700000719,-1.39100000374,0.0370000004768,-0.00250000040977,0.00850000022909,3.0
7,136.092929718,13628.5,1518245170.0,549037166.0,,1955343.5,1518245170.0,549037166.0,,0.732927823378,-0.276202942386,0.089155602148,-0.050190302758,0.998646886353,-0.00717804473329,-0.0115383381263,-0.00482933421737,0.000914847414419,-0.0406307681099,-0.0340128199812,-0.0089064889607,0.032928036013,4.50372791291,1.0581946373,5.10583090782,-0.127550840378,1.73361933231,0.226763315499,773154.0,1518245170.0,545999872.0,,,,,,98341.0,1518245170.0,553838649.0,,-0.97200000882,1.49200002626,-1.35600003712,0.0260000005364,0.0205000005662,0.0255000013858,3.0
8,136.195493821,13635.5,1518245170.0,619040846.5,,1955350.5,1518245170.0,619040846.5,,0.732378722918,-0.274247077131,0.0865658500406,-0.0525017058897,0.998527544739,-0.00731749986813,-0.0115095636344,-0.0184893179632,0.0200037410623,-0.0334600396441,-0.0235616519458,0.0228831051192,0.0785787109983,3.28156113625,1.17199862004,5.6636004448,-0.273012533784,1.45989859104,0.235444150865,1364426.0,1518245170.0,609563507.0,,,,,,98347.5,1518245170.0,619799426.5,,-2.19200001322,0.966999990494,-1.47099998705,0.0499999988824,0.0010000000475,0.0260000005365,3.0
9,136.298057923,13647.5,1518245170.0,739033190.0,,1955362.5,1518245170.0,739033190.0,,0.731441229503,-0.273411614117,0.0833372482474,-0.0552522574938,0.998359037508,-0.00884485183852,-0.0121690041358,-0.0108098416103,0.00156138682145,-0.0222097472166,-0.0200097153732,0.0255087768355,0.0331057711579,1.14153262973,1.19826632738,4.94001984597,-0.29397392273,0.661952018737,0.197622612119,1364434.5,1518245170.0,740059212.5,,,,,,98359.5,1518245170.0,741340453.5,,-1.5320000261,1.99700002149,-1.55599996559,0.0394999999553,-0.011500000488,0.0225000008941,3.0
10,136.400622026,13658.5,1518245170.0,849035611.0,,1955373.5,1518245170.0,849035611.0,,0.729649332523,-0.272692564719,0.0803999567313,-0.0549972003519,0.998351411031,-0.00949157970762,-0.0134028007726,-0.0168232135067,0.0305828554307,-0.0369089756989,0.0356809384872,0.0127826029982,0.0348221444249,5.2810678482,1.28075551987,4.19865632057,-0.167925603688,2.16363096238,0.216161631048,773166.0,1518245170.0,848999936.0,,,,,,98371.0,1518245170.0,854644903.5,,-2.61200000942,1.5619999595,0.0389999996871,0.0165000003763,0.00950000016018,0.0324999997392,3.0
11,136.503186128,13669.5,1518245170.0,959032826.0,,1955384.5,1518245170.0,959032826.0,,0.729676306058,-0.270347849809,0.0769924567387,-0.0573897726824,0.998234755749,-0.00836202362753,-0.0127997559937,0.00626242027438,0.0211510326922,-0.0343775075156,-0.00124589979825,-0.0249518031246,0.0683163161822,5.02005648613,1.24810695648,4.46100878716,-0.304048106075,2.22538018226,0.210537031293,773170.0,1518245170.0,948999936.0,,,,,,98381.5,1518245170.0,960470931.5,,-1.75700002015,-0.167999986001,-0.611000002548,0.0314999995754,0.036000000313,0.0484999995679,3.0
12,136.605750231,13679.5,1518245171.0,59042012.0,,1955394.5,1518245171.0,59042012.0,,0.728499685994,-0.270838829003,0.0737232948909,-0.0583684418582,0.998143995013,-0.0100974689026,-0.0141288321476,-0.00592336400277,0.00146084879532,-0.0319776524076,-0.0225411065039,0.0253135959545,-0.0104333001117,3.42378509045,1.44150561094,4.56827926636,-0.3666421026,1.58216357231,0.17664488405,773174.0,1518245171.0,51000064.0,,,,,,98391.5,1518245171.0,61291132.5,,0.147999966145,2.17700002864,-0.321000005305,0.0335000003688,-0.0034999996424,0.00350000016624,3.0
13,136.708314333,13689.5,1518245171.0,159033258.5,,1955404.5,1518245171.0,159033258.5,,0.72702906607,-0.269703001941,0.0705676109889,-0.0591072318603,0.998080471328,-0.00983508911714,-0.0156447873109,-0.0219569362451,0.0112993510061,-0.0372538615604,0.0129871558121,0.053770760685,0.0170930798902,3.24183762074,1.29827874899,4.50790047646,-0.235753402114,1.33608072996,0.196632154285,773178.0,1518245171.0,152000000.0,,,,,,98401.5,1518245171.0,160313828.0,,-2.24200001862,2.88700000718,-0.051000000164,0.0159999998287,0.00849999999627,-0.00599999981932,3.0
14,136.810878436,13700.5,1518245171.0,269034469.5,,1955415.5,1518245171.0,269034469.5,,0.726428000855,-0.26771047754,0.066851359868,-0.060230965523,0.998030358923,-0.008275958141,-0.0154603429449,-0.0111682740406,0.0200329025054,-0.0401788136034,0.0241221187044,0.0034906338694,0.0415127775076,4.4055287838,1.59819859266,4.82709217071,-0.522975578904,2.00487977267,0.15608766675,1364471.5,1518245171.0,262543297.5,,,,,,98412.5,1518245171.0,271693293.5,,-1.17200002671,1.41199998334,0.0740000007672,0.0119999996386,0.0279999999329,0.0254999995232,3.0
15,136.913442538,13709.5,1518245171.0,359029107.5,,1955424.5,1518245171.0,359029107.5,,0.72580355491,-0.267161992779,0.0645883909956,-0.0617263196312,0.997922126514,-0.00887930872355,-0.0161977826785,0.00166592048306,-0.016457521957,-0.0288145014966,-0.0374191440109,-0.0057213736997,0.0233945707251,4.31552612782,1.39609003067,4.75982904434,-0.400355353952,1.81584686041,0.143302068114,773186.0,1518245171.0,352999936.0,,,,,,98422.0,1518245171.0,364471849.0,,-1.60200003386,0.112000008672,-0.566000015661,0.0189999993891,0.00899999961257,0.0299999993294,3.0
16,137.016006641,13719.5,1518245171.0,459030152.5,,1955434.5,1518245171.0,459030152.5,,0.726662942845,-0.266857639146,0.0611925960331,-0.062074251474,0.997918652154,-0.00914434237914,-0.0148784356772,0.00630639538665,0.0040370318737,-0.0234620735703,0.00750920180304,-0.00575311649665,-0.0715255116128,3.3695576191,1.31306833029,3.97243249416,-0.324432894587,1.33517098427,0.150671966374,773190.0,1518245171.0,454000128.0,,,,,,98432.0,1518245171.0,464118026.0,,-1.98200001977,1.54199997857,-0.0759999986738,0.0149999996647,0.01600000076,0.0240000002086,3.0
17,137.118570744,13730.5,1518245171.0,569033219.0,,1955445.5,1518245171.0,569033219.0,,0.726364478915,-0.265126083525,0.0573338131911,-0.0623587765355,0.997905495063,-0.00863054454929,-0.0148784734479,-0.00774468650739,0.0156144626739,-0.0405922977707,-0.00130650837295,0.00663378059781,0.0449745590577,3.99729549885,0.952906966208,4.55485963821,-0.250155799091,1.74874830246,0.169897764921,1364492.5,1518245171.0,563052544.0,,,,,,98442.5,1518245171.0,571071776.5,,-1.53200002611,0.682000023872,-0.450999991223,-0.00650000013411,0.0654999986291,0.0594999995083,3.0
18,137.221134846,13741.5,1518245171.0,684031991.0,,1955457.0,1518245171.0,684031991.0,,0.726074434727,-0.265276921414,0.0534202457337,-0.0622164639449,0.997911086143,-0.00814523951019,-0.0153602627826,0.0122455143999,-0.00775371725887,-0.0307785699202,-0.000837980137385,-0.0207512767328,-0.0169074487139,3.47747373581,0.787593603134,4.37226200104,-0.177633456886,1.46159335971,0.159288562834,1955802.0,1518245171.0,682095006.0,,,,,,98454.0,1518245171.0,686247978.0,,-1.70700002685,-0.292999995314,-0.0510000076145,-0.00050000008196,0.0395000008866,0.0219999994151,3.0
19,137.323698949,13751.5,1518245171.0,779031812.0,,1955466.5,1518245171.0,779031812.0,,0.725906892995,-0.267006934041,0.0497068358332,-0.0616529129416,0.997935613519,-0.00883362821061,-0.0156510642569,-0.00636871533837,-0.0083814684047,-0.0399676763002,-0.0309556495017,0.0160679477641,0.0257289215792,3.41786718368,1.21410751343,3.62380707264,-0.372823432088,1.27199870348,0.174522638321,1955811.5,1518245171.0,777095240.0,,,,,,98463.5,1518245171.0,780842923.0,,-2.84199998379,-0.853000032157,-1.23100003712,0.0355000002309,0.0675000008196,0.0429999995977,3.0
20,137.426263051,13759.5,1518245171.0,864028508.5,,1955475.0,1518245171.0,864028508.5,,0.725597888428,-0.271091474547,0.0487440307213,-0.0613222043568,0.997889087868,-0.0133043047348,-0.0167192762339,0.0118404571932,-0.0475818065828,-0.00309592103005,-0.114978443077,-0.0212000991347,0.0254348929237,2.82991671563,0.860389471054,2.5795545578,0.0771316634492,1.11531215906,0.190440572799,1364513.0,1518245171.0,859541969.5,,,,,,98472.0,1518245171.0,865091634.5,,-2.13700001537,0.142000012658,-4.2759999346,0.215999998152,0.105500001461,0.0434999987483,-1.0
21,137.528827154,13771.5,1518245171.0,979030602.5,,1955486.5,1518245171.0,979030602.5,,0.727900877076,-0.273957668418,0.0478362387171,-0.0616010504877,0.997884164752,-0.0154940222553,-0.0138659872406,-0.00347367248433,-0.00896472873804,0.00375605644886,-0.0171125950056,0.0201891779251,-0.0163271432496,2.65089690686,1.38427120448,2.00032579899,-0.0626350305972,1.10726454854,0.221459232271,1955831.5,1518245171.0,977098845.5,,,,,,98483.5,1518245171.0,981782280.5,,-1.08200002313,0.287000005692,-4.32100001089,0.195000000298,0.217000000179,0.0929999984799,-1.0
22,137.631391256,13780.5,1518245172.0,69074022.0,,1955495.5,1518245172.0,69074022.0,,0.727282683553,-0.274397615531,0.047471143688,-0.0618629434343,0.997850479776,-0.0160731525591,-0.014450345397,-0.0128459356096,0.00208274290024,-0.00335652224087,3.024821466e-05,0.0238019804823,0.00704992535058,4.78425788879,1.76995611191,1.91504245996,-0.241287961602,1.92087990045,0.178762339055,1364527.5,1518245172.0,65586061.0,,,,,,98493.0,1518245172.0,74212316.0,,-2.06200001985,0.452000004798,-3.97599998228,0.202000007033,0.0939999967813,0.0209999997169,-1.0
23,137.733955359,13792.5,1518245172.0,189072741.0,,1955507.5,1518245172.0,189072741.0,,0.72750620699,-0.273063369892,0.047631672819,-0.0621972412994,0.997841999242,-0.0155141417708,-0.0142147707836,-0.0169840445898,0.00856496782769,-0.00437783836927,0.0046406361056,0.0319246438716,0.0186564063019,3.55456018448,1.41028118134,1.81585907936,-0.069986399263,1.45374137163,0.219959408044,1364535.5,1518245172.0,190585490.5,,,,,,98504.5,1518245172.0,191642369.0,,-1.55700000227,0.682000023872,-4.10600009673,0.197999998927,0.138500005007,0.0370000004769,-1.0
24,137.836519462,13799.5,1518245172.0,259074954.0,,1955514.5,1518245172.0,259074954.0,,0.727729174227,-0.272604294438,0.0479064840904,-0.0625124390556,0.997824353079,-0.0155148156739,-0.0140681061196,0.0113019707042,0.00775202331295,0.00799098785033,0.00148793433085,-0.0177892510633,0.00183736888551,2.83548521995,0.959377795458,1.94708108902,0.218673519791,1.19340586662,0.255869299173,773222.0,1518245172.0,260999936.0,,,,,,98511.5,1518245172.0,261496617.0,,-0.721999979019,-0.307999985665,-4.07599988691,0.246500000357,0.142500005662,0.0405000001192,-1.0
25,137.939083564,13812.5,1518245172.0,389076502.5,,1955527.5,1518245172.0,389076502.5,,0.727680340167,-0.272006758799,0.047749844524,-0.0629087439309,0.997800334138,-0.0154874576867,-0.0140364120657,0.00091439171336,-0.00103675998465,0.000906479962195,0.00111617842641,0.00031115040165,-0.00785805923659,3.23081696033,1.28272920847,1.74759685993,-0.0339439176023,1.34066319466,0.212614580989,1955872.5,1518245172.0,387153106.0,,,,,,98524.5,1518245172.0,391532700.5,,-1.71700002104,0.2570000045,-4.45099988691,0.23449999839,0.13599999994,0.0775000005961,-1.0
26,138.041647667,13821.5,1518245172.0,479079659.0,,1955536.5,1518245172.0,479079659.0,,0.72742910033,-0.271842650302,0.0476367262398,-0.0628109240157,0.997805890924,-0.015324105415,-0.0142503301845,0.00142386168134,-0.00191236031699,0.00333410965281,-0.013126500033,-0.00809813250955,0.00464387007807,3.19514977932,1.3940923214,1.78538137674,-0.0573398582638,1.31993478537,0.203584507108,1955881.5,1518245172.0,477145478.0,,,,,,98533.5,1518245172.0,481966061.5,,-2.4520000279,-0.39299999401,-4.46599999182,0.267999991774,0.130499996245,0.058500001207,-1.0
27,138.144211769,13833.5,1518245172.0,599072924.0,,1955548.5,1518245172.0,599072924.0,,0.727297143243,-0.271810067077,0.0475580814587,-0.0628535816778,0.997800161205,-0.0153042418858,-0.0144861282313,8.52342394e-05,0.0171031149,-0.00141677491206,0.00197626666756,-0.0003807556807,0.0223308299982,3.46318602562,1.35826313496,1.77721577883,-0.0411927327513,1.41279560327,0.207734048367,1364564.0,1518245172.0,598080771.0,,,,,,98545.5,1518245172.0,601248922.0,,-2.33700000718,-0.20299998615,-4.83599987738,0.262499988079,0.140500001609,0.0624999981374,-1.0
28,138.246775872,13842.5,1518245172.0,689072570.0,,1955557.5,1518245172.0,689072570.0,,0.727005255174,-0.271974380902,0.0475596251902,-0.0628325469106,0.997796171328,-0.0153932815383,-0.0147612684851,-0.0032728380433,0.00514355143171,-0.000643881751835,0.00057334826352,0.00663302956214,0.00222765306476,3.1853890419,1.34726011753,1.79512345791,-0.0131979621947,1.31762546301,0.212351053954,1955902.5,1518245172.0,687144716.5,,,,,,98554.5,1518245172.0,691614816.0,,-2.26700001061,-0.133000003546,-4.36099997275,0.254500001669,0.152499996126,0.0655000004918,-1.0
29,138.349339974,13853.5,1518245172.0,799080748.5,,1955568.5,1518245172.0,799080748.5,,0.727446941741,-0.271528975597,0.0477176029395,-0.0628674654898,0.997802239305,-0.015262546791,-0.0143280197829,0.00782311218087,-0.00571586379087,0.00329724418024,-0.0125032029025,-0.0114100473107,-0.0058753700612,3.32944941521,1.47688364982,1.80249899626,-0.0693726018072,1.38852643966,0.19473079592,1364578.0,1518245172.0,798062200.5,,,,,,98565.5,1518245172.0,802789122.5,,-1.48200001419,0.687000019104,-4.50599995368,0.257499992848,0.149499997497,0.0484999995679,-1.0
30,138.451904077,13862.5,1518245172.0,889090331.5,,1955577.5,1518245172.0,889090331.5,,0.727385691342,-0.271505050605,0.0476114212962,-0.0628694650324,0.997801478277,-0.015222231051,-0.0144150655453,-0.0056369368626,0.00382900482394,-0.00491039236751,0.00615459286913,0.0077975370439,-0.0078461361067,3.28302025795,1.3203215599,1.85194271803,0.0107901841402,1.3836106658,0.218514800072,1955922.5,1518245172.0,887139563.0,,,,,,98575.0,1518245172.0,897415220.0,,-0.872000014782,0.0120000071824,-4.27600017302,0.256000012159,0.146999999881,0.070000000298,-1.0
31,138.554468179,13874.5,1518245173.0,9091251.0,,1955589.5,1518245173.0,9091251.0,,0.727320074054,-0.271463882778,0.0475816459882,-0.0629928077606,0.997797458256,-0.0149648259069,-0.0144279298525,0.00196512352484,0.00368738694778,0.00172272430257,0.0189189270206,0.00058583997222,-0.014318737838,3.06799149513,1.22864311934,1.94049245119,0.0946112908422,1.31626200676,0.209378257394,773251.5,1518245173.0,13500032.0,,,,,,98586.5,1518245173.0,12465981.0,,-1.35699999929,-0.132999992371,-4.23599997275,0.262000009418,0.136500000954,0.0689999982715,-1.0
32,138.657032282,13882.5,1518245173.0,89272953.0,,1955597.5,1518245173.0,89272953.0,,0.727514893953,-0.270969118927,0.0478352110079,-0.0624270391174,0.997842813057,-0.0143855854229,-0.0143234582535,0.00411734073915,0.000621944407965,0.00166777355598,0.00662604102623,-0.00789807724995,0.00176212342573,2.52943730354,1.33336651325,1.81736779213,0.02917759493,1.10839647055,0.222892284394,1955942.5,1518245173.0,87364622.0,,,,,,98594.5,1518245173.0,92808880.0,,-1.47200000882,0.687000019103,-4.61600008719,0.295500010252,0.149999998509,0.0429999995976,-1.0
33,138.759596385,13893.5,1518245173.0,199271934.0,,1955608.5,1518245173.0,199271934.0,,0.727285056489,-0.27077982034,0.0478836398399,-0.0629399973481,0.997806478058,-0.0144413090887,-0.0145635640571,-0.00151327857756,0.0197716742445,0.00868465028386,0.00960440973889,0.00111304019279,0.0224462979825,3.0026807785,1.41000580788,1.7388869524,-0.036040648818,1.26336401701,0.192138701677,1364606.0,1518245173.0,199680279.0,,,,,,98605.5,1518245173.0,202140614.0,,-1.55200000703,0.48200000599,-4.38099995368,0.297999992967,0.133500002324,0.0494999997318,-1.0
34,138.862160487,13903.5,1518245173.0,299278655.5,,1955618.5,1518245173.0,299278655.5,,0.727251621727,-0.27059330991,0.0474757513865,-0.0627387466385,0.997823434735,-0.0142907712751,-0.0144223254709,0.00416164802681,0.00403271233192,0.00061783948202,0.00170532691307,-0.00929778368997,0.0135504058405,2.78270018101,1.29241871834,1.78970360755,0.0778997279705,1.18505835533,0.222559168935,1364613.0,1518245173.0,300680767.0,,,,,,98615.5,1518245173.0,303092049.5,,-0.967000043391,0.102000004239,-4.89600005857,0.275000005961,0.129499994219,0.0595000013709,-1.0
35,138.96472459,13914.5,1518245173.0,409271487.0,,1955629.5,1518245173.0,409271487.0,,0.727841794661,-0.27080973625,0.0480579365314,-0.0626058703367,0.997842340757,-0.0141076900022,-0.0138462741985,0.00222870606831,-0.0021031376916,-0.0026860562624,-0.00500864597492,0.00136368537495,0.00876841038432,2.89618933201,1.18746203184,1.93848383426,0.12391243875,1.2907845378,0.231993347407,773267.0,1518245173.0,409999872.0,,,,,,98626.5,1518245173.0,413644042.5,,-1.24200001955,0.182000008971,-4.47100010626,0.28900000453,0.144000001252,0.0740000009537,-1.0
36,139.067288692,13922.5,1518245173.0,489272520.5,,1955637.5,1518245173.0,489272520.5,,0.726600474561,-0.27092569647,0.0477650921808,-0.0627839155417,0.997802267816,-0.0144768191043,-0.0154653102454,-0.00947284563428,0.012008242458,-0.00511019413823,0.00782496631278,0.00916546815165,0.018943273027,3.25160491467,1.07943731546,2.39204287529,0.141058258712,1.67915475368,0.225683115423,1955982.5,1518245173.0,487341108.5,,,,,,98634.5,1518245173.0,493096138.5,,-1.53700002133,0.78199998811,-4.06100013964,0.233000002802,-0.0504999998957,-0.00299999996787,-1.0
37,139.169852795,13935.5,1518245173.0,619273908.5,,1955650.5,1518245173.0,619273908.5,,0.726534515,-0.271724716418,0.0480044615353,-0.062213581059,0.997833003348,-0.0147868572713,-0.0154892468428,0.000568881723356,-0.0100165105468,0.00118893883474,-0.00446643166699,-0.00846857441285,-0.00117289752758,2.53867352009,1.18572306633,2.49160540104,0.0652151629328,1.45194494724,0.218587055802,773275.5,1518245173.0,620000000.0,,,,,,98647.5,1518245173.0,623002052.5,,-2.44200000391,-0.0080000035465,-3.20600000136,0.185000002384,0.00999999977648,0.00250000011874,-1.0
38,139.272416897,13943.5,1518245173.0,699280960.0,,1955658.5,1518245173.0,699280960.0,,0.726013849107,-0.271621126774,0.0477180595502,-0.0625665660036,0.99779929546,-0.0148612387152,-0.0161523687312,-0.00802608138371,-0.00719986121039,0.00156158611444,-0.0197545400418,0.0129917914409,0.00597584474678,2.6833178997,1.00796976685,2.59933948517,0.206622518599,1.47321456671,0.23144453764,1956003.0,1518245173.0,692366482.0,,,,,,98655.5,1518245173.0,703478650.0,,-1.38200003505,-0.617999988049,-3.7910000395,0.274499997497,0.00200000003679,0.00849999987985,-1.0
39,139.374981,13954.5,1518245173.0,809282496.5,,1955669.5,1518245173.0,809282496.5,,0.726688372343,-0.2714447291,0.0479405252332,-0.0620161560331,0.997848308398,-0.0146791898345,-0.0154014239909,-0.0184007963984,-0.0141267798344,-0.00875683689135,-0.0161632236195,0.0382546827824,-0.00973774448202,2.65120339393,1.04208260775,2.57498884201,0.190615873783,1.46043556929,0.254980653525,1364648.0,1518245173.0,803185849.0,,,,,,98666.5,1518245173.0,812557555.5,,-1.11700001955,-1.13799999878,-3.43600002043,0.227499999106,-0.00949999992735,0.0339999999851,-1.0
