,Unnamed: 0,.header.seq,.header.stamp.secs,.header.stamp.nsecs,.header.frame_id,.endpoint_state.header.seq,.endpoint_state.header.stamp.secs,.endpoint_state.header.stamp.nsecs,.endpoint_state.header.frame_id,.endpoint_state.pose.position.x,.endpoint_state.pose.position.y,.endpoint_state.pose.position.z,.endpoint_state.pose.orientation.x,.endpoint_state.pose.orientation.y,.endpoint_state.pose.orientation.z,.endpoint_state.pose.orientation.w,.endpoint_state.twist.linear.x,.endpoint_state.twist.linear.y,.endpoint_state.twist.linear.z,.endpoint_state.twist.angular.x,.endpoint_state.twist.angular.y,.endpoint_state.twist.angular.z,.endpoint_state.wrench.force.x,.endpoint_state.wrench.force.y,.endpoint_state.wrench.force.z,.endpoint_state.wrench.torque.x,.endpoint_state.wrench.torque.y,.endpoint_state.wrench.torque.z,.joint_state.header.seq,.joint_state.header.stamp.secs,.joint_state.header.stamp.nsecs,.joint_state.header.frame_id,.joint_state.name,.joint_state.position,.joint_state.velocity,.joint_state.effort,.wrench_stamped.header.seq,.wrench_stamped.header.stamp.secs,.wrench_stamped.header.stamp.nsecs,.wrench_stamped.header.frame_id,.wrench_stamped.wrench.force.x,.wrench_stamped.wrench.force.y,.wrench_stamped.wrench.force.z,.wrench_stamped.wrench.torque.x,.wrench_stamped.wrench.torque.y,.wrench_stamped.wrench.torque.z,.tactile_values.tactile_values_0,.tactile_values.tactile_values_1,.tactile_values.tactile_values_2,.tactile_values.tactile_values_3,.tactile_values.tactile_values_4,.tactile_values.tactile_values_5,.tactile_values.tactile_values_6,.tactile_values.tactile_values_7,.tactile_values.tactile_values_8,.tactile_values.tactile_values_9,.tag,.delta_wrench.force.x,.delta_wrench.force.y,.delta_wrench.force.z,.delta_wrench.torque.x,.delta_wrench.torque.y,.delta_wrench.torque.z
0,45.628716,4563.5,1521541877.0,418411969.5,,2642204.0,1521541876.0,586717016.0,,0.769199334745,-0.14692760172299998,0.113046299816,0.978397843325,-0.200453430459,0.0130163555952,-0.0488534224058,-0.008857599311549998,-0.00181779679458,-0.0494594041119,-0.00881455458509,-0.00468328760516,0.0404082706751,2.63334918022,-1.23776495457,4.42785024643,1.3812651634200002,1.32087814808,1.05268621445,1843826.5,1521541876.0,580903503.0,,,,,,2146624.5,1521541877.0,409963924.0,,-0.4129999399185,3.65800006799,0.206999206543,-0.08650000020865001,-0.1060000024735,-0.048000000417250006,-89.0,-87.0,-80.5,-78.0,28.0,-231.0,-214.0,-207.0,-197.0,-186.5,4.0,0.0,0.0,0.0,0.0,0.0,0.0
1,45.7312801026,4573.5,1521541877.0,518417000.0,,2642216.0,1521541876.0,706730547.5,,0.768767101266,-0.147413636196,0.1067878760335,0.9789885360575,-0.1980656367385,0.012829452010850001,-0.0467630849995,0.0224589013664,0.0069617255760500004,-0.06048103774045,-0.016675323702764998,-0.04837191629649999,0.03473310402775,6.930786609649999,2.4211010336900003,2.455782532695,-0.15938517451249998,2.653858780865,0.8102860748765001,1843835.5,1521541876.0,701385789.0,,,,,,2146634.5,1521541877.0,509779337.0,,-2.022999984025,1.4630000006425,-0.937999343874,-0.06000000238415,-0.0675000008196,-0.02999999932945,-88.5,-83.5,-81.5,-77.0,35.0,-240.5,-214.0,-206.0,-199.5,-182.0,4.0,-1.6100000441065,-2.1950000673475003,-1.144998550417,0.026499997824500007,0.038500001653899996,0.018000001087800005
2,45.8338442051,4581.5,1521541877.0,598402976.5,,2642224.5,1521541876.0,791712107.0,,0.7720319819545001,-0.14619235633,0.101250049036,0.9789886113045,-0.1974339734295,0.016232657428299997,-0.048345201945649986,0.01900601153385,0.033958448218500005,-0.0693593050765,0.01151131603792,-0.04775904159305001,0.0413701934779,4.04433143139,0.7250634431865001,5.500733137130001,0.19934824854155,1.776550769805,0.6920824050905001,1843841.0,1521541876.0,786885088.0,,,,,,2146643.0,1521541877.0,595433641.5,,-0.31799991130800004,-0.667000039294,0.29699935913099995,-0.0285000000149,-0.0915000028909,-0.0285000000149,-94.0,-87.5,-84.0,-80.0,-30.0,-235.5,-219.0,-203.5,-200.5,-191.0,4.0,1.705000072717,-2.1300000399365,1.234998703005,0.031500002369250005,-0.0240000020713,0.0014999993145500025
3,45.936408307700006,4593.5,1521541877.0,718446969.0,,2642236.5,1521541876.0,911715412.0,,0.770469076538,-0.1401453593395,0.09132057790925,0.9781056957355,-0.201233439705,0.0154965433246,-0.05073243860365,-0.032049456025800005,0.056206450207050014,-0.08563286181629999,0.061140037756000014,0.0292522634255,-0.00941722099495,5.83552360535,3.1947176456449995,3.07467317581,-0.8337743580339999,2.4244986176450003,0.6549699306485001,1843849.5,1521541876.0,902882302.0,,,,,,2146654.5,1521541877.0,710919731.0,,0.387000012398,0.8730000026525,-0.998000717161,-0.07349999994039999,-0.0485000014305,0.014500000048440001,-87.5,-86.5,-86.0,-86.0,94.0,-251.5,-211.5,-201.0,-199.0,-198.0,4.0,0.7049999237060001,1.5400000419465,-1.295000076292,-0.044999999925499995,0.043000001460400006,0.043000000063339996
4,46.0389724103,4604.5,1521541877.0,828627466.5,,2642247.0,1521541877.0,16708236.0,,0.7670617518880001,-0.135737348048,0.0823717146411,0.978242617267,-0.200708557286,0.0126382418719,-0.05096794714930001,-0.0348153309453,0.0329300239756,-0.0994776063779,-0.0121503854556,0.0536051532013,0.0735425815288,5.69021844864,1.06609535217,4.402151107790001,-0.0162263512611,2.3532691001900004,0.694306671619,2642600.0,1521541877.0,14810787.0,,,,,,2146665.5,1521541877.0,820990139.0,,-0.982999992373,1.3729999821599999,-0.033000564575149986,-0.07799999788405,-0.13199999928449999,-0.015499999746690002,-93.0,-91.0,-88.0,-87.5,-28.0,-229.0,-211.0,-209.0,-196.0,-195.0,4.0,-1.370000004771,0.49999997950749986,0.96500015258585,-0.004499997943650011,-0.08349999785399999,-0.029999999795130003
5,46.141536512799995,4612.5,1521541877.0,908419489.5,,2642254.5,1521541877.0,91738227.0,,0.7657218288605,-0.1349504812035,0.07530209321994999,0.9787400709665001,-0.1986647197,0.011639576418,-0.049645093318300006,-0.007599883349189999,0.01353400649855,-0.0942705198323,0.0016767765659449995,-0.0036183148731635,0.03507983842305001,5.82874417305,1.6943269372,3.7418448925,-0.242016769946,2.343480348585,0.6934961676595,1843862.0,1521541877.0,88907821.5,,,,,,2146673.5,1521541877.0,900247076.0,,0.232000041008,0.893000000343,-1.053001022339,-0.056499999016550013,-0.1059999987484,-0.01849999977275,-89.5,-84.0,-82.0,-80.0,-62.0,-232.0,-216.5,-210.5,-194.0,-177.5,4.0,1.215000033381,-0.4799999818169999,-1.0200004577638502,0.021499998867499988,0.02600000053609998,-0.003000000026059997
6,46.2441006154,4623.5,1521541878.0,18458485.5,,2642263.0,1521541877.0,176774100.0,,0.7637752590539999,-0.131669320777,0.067388374574,0.978670244318,-0.199156270893,0.0111292648462,-0.0491677955034,-0.0238116633819,0.0280255087354,-0.0964647004545,-0.027852580032900004,0.0204005870804,-0.012372548299700002,5.757678985599999,1.83304464817,3.2527227401700003,-0.100821554661,2.26992201805,0.704599499702,1045120.0,1521541877.0,185999872.0,,,,,,2146684.5,1521541878.0,10235775.5,,1.7220000505450002,1.723000006005,0.09699859619139999,-0.04000000096855,-0.1735000014305,-0.0415000002831,-94.0,-92.5,-86.0,-85.0,22.0,-240.0,-204.0,-195.0,-194.0,-190.0,4.0,1.490000009537,0.8300000056619999,1.1499996185304,0.016499998048000016,-0.0675000026821,-0.023000000510349998
7,46.3466647179,4635.5,1521541878.0,138458490.0,,2642275.0,1521541877.0,296756423.0,,0.7592165001360001,-0.129854818792,0.0586103995758,0.978905383018,-0.198557900195,0.008715855503040002,-0.0473607984666,-0.0452957864792,0.00866803347452,-0.0570204087991,-0.0280770219702,0.055784577436300005,0.0133837595417,5.16387033463,-0.054901003837599986,5.5275182724,0.583440184593,2.15218520164,0.769968390465,1843877.5,1521541877.0,304916138.0,,,,,,2146697.0,1521541878.0,134422383.0,,0.802000212669,0.818000004813,-0.412999725342,-0.0340000018477,-0.137999996543,-0.0209999997169,-91.0,-91.0,-87.0,-75.0,79.5,-231.0,-202.0,-202.0,-187.0,-181.0,4.0,-0.9199998378760001,-0.905000001192,-0.5099983215334,0.005999999120849996,0.03550000488750002,0.020500000566199997
8,46.449228820500004,4644.5,1521541878.0,228620409.5,,2642284.5,1521541877.0,391765016.0,,0.754308590495,-0.128040639445,0.05329062622505,0.978915818904,-0.198893407558,0.006618370265659999,-0.04605797949035,-0.042887398552550006,0.04431242533390001,-0.061569138257449994,0.0015541016620500038,0.0324100488696,-0.005483276019555,7.034309148789999,2.292385220525,2.8531959056850003,-0.1967160925265,2.7109105587,0.7391305565835,1045128.5,1521541877.0,392499968.0,,,,,,2146705.5,1521541878.0,220843706.5,,-0.548000049591,2.7080000203099996,0.02699890136700001,-0.08150000125165,-0.10650000348665,-0.0449999999255,-90.5,-90.0,-87.5,-82.0,60.0,-227.0,-210.5,-198.0,-195.0,-191.0,4.0,-1.35000026226,1.8900000154969998,0.43999862670900003,-0.04749999940394999,0.03149999305635,-0.024000000208600002
9,46.5517929231,4652.5,1521541878.0,309471964.0,,2642293.0,1521541877.0,476773221.5,,0.7521405555199999,-0.12535750780600002,0.04968154703805001,0.9790876326075,-0.1978925789415,0.006026042551574999,-0.046789815005,-0.035214510009550004,0.026310170667050003,-0.058384815793699994,-0.01537102724875,0.023941460672675,0.027687272843999997,4.5495905876150005,0.5115358382465001,4.84600162506,0.27685908228149997,1.888019442555,0.6693863272664999,1843889.0,1521541877.0,482421873.5,,,,,,2146714.0,1521541878.0,304643528.0,,-0.9180000543595,3.17800004892,-0.5130001068104999,-0.0530000012368,-0.095999997109,-0.0294999992475,-92.0,-90.0,-88.0,-81.0,56.5,-216.0,-204.5,-195.0,-192.0,-191.5,4.0,-0.37000000476850003,0.47000002861000034,-0.5399990081774999,0.028500000014849994,0.01050000637765,0.015500000678000003
10,46.65435702560001,4666.5,1521541878.0,448431491.5,,2642307.0,1521541877.0,616764990.0,,0.748232244128,-0.122779306173,0.0409082330333,0.978964599143,-0.19879233972600002,0.004852280559325,-0.045674191540849986,-0.021231243582549998,0.007300960009870003,-0.06514413637125001,-0.04564090220745,0.013667835321879998,0.0428530718592,3.7615207433699993,0.990033268928,5.686810493465001,0.04815880209205001,1.30671465397,0.5805809795855,1045137.0,1521541877.0,599000064.0,,,,,,2146727.5,1521541878.0,441191013.5,,-0.6880000352860001,3.6229999821649996,0.4119991302489999,-0.06600000150505,-0.132500004023,-0.04849999956785,-94.5,-90.0,-84.5,-81.0,55.5,-242.0,-208.0,-203.5,-191.5,-186.0,4.0,0.23000001907349998,0.44499993324499965,0.9249992370594998,-0.013000000268250003,-0.036500006914,-0.01900000032035
11,46.7569211282,4674.5,1521541878.0,528443455.0,,2642317.5,1521541877.0,721761831.5,,0.7485788545225001,-0.12117865663650003,0.032027619406800004,0.9791086478835,-0.1979629257155,0.0071952631855149995,-0.045877911596400006,0.01544182948265,0.0052195707133650005,-0.10315916175814999,0.015295336266935003,-0.0901515323878,0.025781378913699998,6.4268569946300005,0.6471484005454999,1.241971492765,0.5191873908039999,2.538324594495,0.8224430680275001,2642670.0,1521541877.0,714849696.0,,,,,,2146735.5,1521541878.0,520718088.0,,-0.5429999351504999,3.848000006005,-0.4130016326889999,-0.036500000860525,-0.09549999795845,-0.0429999995977,-91.0,-90.0,-83.5,-80.0,49.5,-237.0,-210.0,-204.0,-187.0,-177.5,4.0,0.14500010013550013,0.22500002384000028,-0.8250007629379998,0.029500000644525,0.03700000606454999,0.0054999999701500005
12,46.8594852308,4684.5,1521541878.0,629736542.5,,2642327.5,1521541877.0,821765863.0,,0.7473767774015001,-0.1211357447185,0.0226068700239,0.978965316719,-0.19854786145849998,0.00825956264883,-0.0462322503167,-0.0310141221555,-0.0006490260127000012,-0.10095775806315,0.038503494343950014,0.010128354964900005,-0.053073809700449996,3.4186353683499995,1.151400268075,2.9387057423600003,0.07385890930885,1.2989679574950002,0.576669424772,2642680.0,1521541877.0,814858417.0,,,,,,2146745.5,1521541878.0,621687343.5,,-2.427999996395,4.093000010775,0.046999359131000014,-0.08300000056635001,-0.1080000028015,-0.07100000232455,-89.5,-84.0,-80.5,-74.0,-2.5,-228.0,-206.0,-194.0,-191.5,-188.5,4.0,-1.8850000612445001,0.2450000047700005,0.4600009918199999,-0.04649999970582501,-0.01250000484305,-0.028000002726850007
13,46.9620493333,4696.5,1521541878.0,748412966.5,,2642339.5,1521541877.0,941761598.0,,0.743290138469,-0.121940423559,0.01203989764525,0.9793570738055,-0.19694410139350002,0.007212749140444999,-0.04494949986655001,-0.03752053944095,-0.023285497718250003,-0.08237775290704999,-0.053882555488,0.058294289879599996,0.0345624118626,3.425670981405,1.2904800176600002,4.608431100845,0.06956630200155,1.131419152022,0.5554029792545,2642691.0,1521541877.0,924847458.5,,,,,,2146757.5,1521541878.0,739535890.0,,0.05200009346,2.0679999750099998,0.1569999694825,-0.0679999999702,-0.11449999734750001,-0.036500001326199995,-91.5,-89.0,-88.0,-86.0,-9.0,-226.0,-205.0,-204.0,-191.0,-179.0,4.0,2.480000089855,-2.0250000357650006,0.1100006103515,0.015000000596150018,-0.006499994546000004,0.03450000099835001
14,47.0646134359,4706.5,1521541878.0,848944425.0,,2642349.5,1521541878.0,41757935.0,,0.7407961052644999,-0.123173371323,0.0038013171974,0.9794114703354999,-0.19681670397300002,0.006710665762685,-0.0443993468563,-0.026441455667350004,-0.00839489689605,-0.07834934912465,0.009087476350450005,0.026252303617,-0.06670250783195,4.679528236385,0.9908708631995,2.381715774535,0.342234954238,1.661375403405,0.6401054263115,2642701.0,1521541878.0,24825450.0,,,,,,2146767.5,1521541878.0,841722105.0,,0.0569999694824,1.647999988125,0.841999435425,-0.0645000003278,-0.1094999983905,-0.04350000061095,-95.5,-94.0,-93.0,-89.0,-28.0,-225.0,-203.5,-198.0,-187.0,-177.5,4.0,0.004999876022399999,-0.41999998688499973,0.6849994659425,0.003499999642399998,0.0049999989570000125,-0.006999999284750008
15,47.167177538500006,4717.5,1521541878.0,958584904.5,,2642357.5,1521541878.0,122191576.5,,0.7388091614175,-0.124287385373,-0.0007807736592855001,0.9791800034899999,-0.1981484148655,0.00557106270109,-0.04372935885865,-0.03047758594275,-0.005620697128620001,-0.05824579802459999,-0.0069127148743,0.0558600892124,-0.00668782332225,3.5029770135900002,0.9152921736235,4.91893219948,0.248113140464,1.217744052412,0.6168141663075,2642710.0,1521541878.0,115250501.0,,,,,,2146778.5,1521541878.0,952530213.0,,-0.05300004482284999,1.448000000045,-0.4280010223387,-0.082499999553,-0.1060000024735,-0.03299999982115,-93.0,-92.0,-91.0,-89.0,-17.0,-225.0,-195.0,-193.5,-183.5,-176.0,4.0,-0.11000001430525,-0.19999998808000008,-1.2700004577637,-0.0179999992252,0.0034999959169999956,0.010500000789800006
16,47.269741641,4728.5,1521541879.0,68426489.5,,2642369.0,1521541878.0,237193090.5,,0.739018151145,-0.121293807049,-0.004954625294105,0.978750057158,-0.199327240806,0.007508039869400002,-0.047541409769050004,0.043124259260849986,0.06855349578455,-0.004029173930499,0.150589257322,-0.1134863964125,-0.08420066236679999,4.3187971115099995,1.4850994348500002,2.002860486505,-0.4140369296075,1.7155622243900002,0.5810492932795001,1843941.0,1521541878.0,230653087.5,,,,,,2146789.5,1521541879.0,61963201.0,,-1.27300001383,1.118000001835,-0.16299972534200002,0.034000001149259995,-0.1340000033375,-0.0555000007153,-86.0,-84.5,-79.0,-76.0,-41.0,-219.0,-193.5,-186.0,-178.0,-176.5,4.0,-1.21999996900715,-0.3299999982099999,0.2650012969967,0.11650000070225999,-0.028000000864000008,-0.022500000894150003
17,47.372305743599995,4735.5,1521541879.0,138767003.5,,2642376.0,1521541878.0,307190855.0,,0.740586387687,-0.12135250361649999,-0.0055000517910900005,0.9788140705655,-0.1989180820045,0.0101350077515,-0.047444895532,0.00509261090943,-0.006517751995685,-0.02071044630125,-0.07027630022164999,-0.047955610008600005,0.0817981520645,3.417442083355,0.45037855207945005,1.7851094603530002,0.2880107164385,1.39430677891,0.578965127468,1843947.0,1521541878.0,307643377.0,,,,,,2146796.5,1521541879.0,131400050.5,,-1.4229999899849999,0.8430000033230001,-1.2979999542260001,0.034500000998400004,-0.07999999821185,-0.06300000101325,-77.0,-75.0,-73.5,-73.0,52.0,-215.0,-188.5,-187.5,-184.0,-177.5,4.0,-0.14999997615499994,-0.27499999851199997,-1.135000228884,0.0004999998491400093,0.05400000512565001,-0.007500000297949998
18,47.4748698462,4746.5,1521541879.0,249122976.5,,2642387.0,1521541878.0,417190137.0,,0.742056351761,-0.118721246301,-0.00689780567103,0.97865896814,-0.19919161585,0.012159896869099998,-0.0490047055088,0.0199068747476,0.0530103768017,-0.00648777664681,0.07218444418389999,-0.0546493336578,0.0265945969432,4.51126432419,1.5276463031799998,0.0974115356803,-0.189669832587,1.79711556435,0.626239538193,2642739.0,1521541878.0,405248057.0,,,,,,2146807.5,1521541879.0,242185364.5,,-1.9429999709099999,-1.0970000464465,-3.447999572755,0.2239999994635,-0.09899999946375003,-0.04000000096855,-74.0,-73.0,-72.0,-67.5,33.0,-219.5,-189.0,-183.5,-179.0,-176.0,4.0,-0.519999980925,-1.9400000497695,-2.149999618529,0.1894999984651,-0.01900000125190003,0.0230000000447
19,47.5774339487,4757.5,1521541879.0,358773469.0,,2642397.5,1521541878.0,522189654.0,,0.743843713165,-0.115164937998,-0.00797592187058,0.978412644416,-0.19972501163400005,0.012268804156299998,-0.0516533177003,0.009537515597365001,0.04906560748235,-0.007677719198980001,0.06602300774280001,0.0204056110843675,-0.0176304558906,4.111862301825,1.90429085493,-1.807486593725,-0.562081158161,1.4993978142750002,0.5585234463215001,2642750.0,1521541878.0,515267250.5,,,,,,2146818.5,1521541879.0,352654831.0,,-0.6629999399185,-0.44700001068449996,-5.117999649045,0.3170000016685,-0.1260000020265,-0.08999999985095,-69.5,-67.0,-62.5,-57.0,7.0,-211.0,-191.0,-186.0,-178.0,-171.5,4.0,1.2800000309914998,0.6500000357619999,-1.67000007629,0.09300000220500002,-0.027000002562749967,-0.049999998882400004
20,47.679998051300004,4768.5,1521541879.0,468716978.5,,2642409.0,1521541878.0,637189698.0,,0.7477401353640001,-0.111561495597,-0.00922529082291,0.978059663011,-0.20066745084050006,0.0133012713785,-0.054358090424499995,0.035674917213049995,0.03972657899835,-0.012292433964525,0.05401720711019999,-0.02118044803284,-0.037369616666525,6.325778484345,0.6096906363965,-3.4548026323300003,-0.0013364553452000073,2.2660791873900004,0.8421517014500001,2642762.5,1521541878.0,640285736.0,,,,,,2146829.5,1521541879.0,462510159.5,,-1.912999999525,-2.9169999796900004,-5.283000564575,0.4249999970195,-0.2740000039335,-0.142999999225,-77.0,-75.5,-74.5,-59.0,7.0,-223.5,-193.0,-187.5,-180.0,-176.0,4.0,-1.2500000596065,-2.4699999690055003,-0.1650009155299994,0.10799999535099997,-0.148000001907,-0.052999999374050005
21,47.7825621538,4777.5,1521541879.0,563263535.0,,2642419.5,1521541878.0,742197137.5,,0.7488206565485,-0.1080706122905,-0.00977179601313,0.9784576549475,-0.198190833661,0.01516545027245,-0.05576889404435,-0.01774538417118,-0.0006019709812000017,-0.006229984088654999,-0.02647312574550001,0.024603500337099998,0.0367150496169,6.104034662245,0.379127025604,0.968315631151,0.18317390233300002,2.785462379455,0.947481870651,1843977.0,1521541878.0,743142956.5,,,,,,2146838.5,1521541879.0,552266942.0,,0.39200000762950005,0.43300001435,-2.458001708985,0.2335000038145,-0.08150000125149999,-0.07300000265239999,-63.5,-62.0,-61.0,-53.0,27.5,-219.0,-200.5,-200.0,-187.0,-175.0,4.0,2.3050000071545,3.3499999940400005,2.8249988555899996,-0.19149999320499997,0.19250000268200002,0.06999999657260002
22,47.88512625640001,4788.5,1521541879.0,668694972.5,,2642430.0,1521541878.0,847191356.0,,0.7488399167420001,-0.1104987236285,-0.008733606547575,0.9789439764815,-0.1967730492665,0.01585031095955,-0.05193869694185,0.016079215002605,-0.03712289666435,0.008639111777290499,-0.07697169904234999,-0.03077611655675,0.021624055946224997,5.22492003441,0.2070082426075,-0.4766321033235,0.6847154498100001,2.1815683245649997,0.9322986900804999,1843985.0,1521541878.0,855632069.0,,,,,,2146849.5,1521541879.0,663799153.0,,-1.7929999947550002,2.1380000274600004,-1.983001327515,0.10449999943350001,-0.08999999985115001,-0.09400000050664999,-66.5,-63.0,-60.0,-56.0,9.0,-219.5,-196.0,-187.0,-187.0,-175.5,4.0,-2.1850000023845,1.7050000131100003,0.4750003814699999,-0.129000004381,-0.008499998599650019,-0.020999997854249997
23,47.987690359,4798.5,1521541879.0,770563006.0,,2642441.5,1521541878.0,962191211.0,,0.7490895107365001,-0.1101416279145,-0.00902958988437,0.9786323399765,-0.1979434870875,0.015550629792149996,-0.05343327501315,-0.006142713660475,0.002233126618145,-0.003362640618598,0.043787377413999996,0.0327601233615,-0.06082227744735001,4.599295139315,0.7881570756434999,0.541580438614,0.159364923835,2.055077910425,0.8510182797904999,1843992.0,1521541878.0,954121519.5,,,,,,2146859.5,1521541879.0,762196890.0,,-2.31299997568,-0.6170000273735,-3.91800079346,0.30300000309950004,-0.0924999974666,-0.0760000012815,-60.5,-60.0,-59.0,-59.0,16.0,-214.5,-193.5,-188.0,-185.0,-166.0,4.0,-0.5199999809249998,-2.7550000548335003,-1.934999465945,0.198500003666,-0.0024999976154499864,0.017999999225149985
24,48.090254461499995,4809.5,1521541879.0,878509997.5,,2642452.0,1521541879.0,67191745.0,,0.7486003436800001,-0.110100300983,-0.008628723757670001,0.978657607791,-0.197872307519,0.0151019292811,-0.053364485963,0.0027971900424499994,-0.0040358836638,0.00264643697348,-0.00317687112597,-0.00849203141527,-0.00442346464904,4.68118000031,0.385418653488,0.409123182297,0.582127928734,2.10627937317,0.8883620500560001,1844000.0,1521541879.0,66127733.0,,,,,,2146870.5,1521541879.0,873078043.0,,-1.6529999494549998,0.4829999908805001,-2.65299949646,0.15450000017850002,-0.09250000119210001,-0.062499998137350014,-70.0,-68.5,-61.0,-60.0,58.0,-211.5,-192.0,-186.0,-182.0,-167.0,4.0,0.6600000262250001,1.1000000182540002,1.265001297,-0.14850000292100002,-3.725500019591266e-09,0.013500003144149987
25,48.1928185641,4818.5,1521541879.0,968652009.5,,2642460.0,1521541879.0,147777165.0,,0.74933244918,-0.110335687673,-0.008494702049029999,0.978541463961,-0.198284010137,0.0156287398769,-0.0538126111928,-0.00665283439288,0.008871719055530001,-0.0070348449038800005,-0.00912564368414,0.00606563596706,0.0172601725495,5.05240488052,0.457044124603,0.649036586285,0.444127738476,2.32516288757,0.918305695057,1844005.0,1521541879.0,145638646.0,,,,,,2146879.5,1521541879.0,963165445.5,,-1.078000020983,0.3179999973626,-2.848001098635,0.237000003457,-0.0619999989867,-0.055000001564600005,-68.0,-65.0,-60.0,-41.5,2.0,-206.5,-192.5,-188.5,-183.5,-156.5,4.0,0.5749999284719998,-0.16499999351790012,-0.19500160217500007,0.08250000327849999,0.030500002205400015,0.007499996572750009
26,48.2953826667,4830.5,1521541880.0,88522433.5,,2642470.0,1521541879.0,246798029.0,,0.7487809235755,-0.10992142264,-0.008814975826025,0.9786712751090001,-0.19775245051399998,0.01535317262415,-0.05348432036115,0.0036971280691750017,-0.0048911053652300005,0.00390709806603,0.0007206168522749996,-0.005993778763250003,-0.01146806016175,4.211283683775,0.323984891176,0.7429047226909999,0.5790403187275,1.978466510775,0.9057468175885,1844012.5,1521541879.0,251438158.5,,,,,,2146891.5,1521541880.0,81785465.0,,-1.637999963765,1.0980000060035,-2.88800010681,0.222499996424,-0.06550000049175,-0.0520000010729,-63.0,-62.0,-61.0,-55.0,24.0,-225.0,-195.0,-191.0,-181.0,-167.0,4.0,-0.5599999427819999,0.7800000086409,-0.039999008174999684,-0.014500007033,-0.0035000015050500044,0.003000000491700003
27,48.397946769200004,4840.5,1521541880.0,188645481.5,,2642481.0,1521541879.0,356799100.0,,0.748425735922,-0.110299247614,-0.00904110793851,0.978722953256,-0.197603939835,0.0150184869989,-0.0531837266518,0.0157760462073,0.021729806148900004,0.0109406941214,0.0183880532096,-0.039945997573,0.021764671178000003,3.621550321580001,0.258869469166,1.0578150749200002,0.540488362312,1.84658968449,0.8910564780239999,1045206.0,1521541879.0,359000064.0,,,,,,2146901.5,1521541880.0,182842326.0,,0.39700012207034996,2.2229999464,-2.81300125122,0.2439999952915,-0.0540000014007,-0.066000001505,-66.5,-66.0,-65.5,-64.0,-14.0,-212.5,-191.0,-185.0,-180.5,-168.5,4.0,2.03500008583535,1.1249999403964999,0.07499885558999964,0.02149999886749998,0.011499999091050005,-0.0140000004321
28,48.5005108718,4850.5,1521541880.0,289350986.0,,2642490.0,1521541879.0,446797491.0,,0.748140518184,-0.1098224501,-0.00912362235052,0.97868293081,-0.197770966273,0.014800207719700004,-0.053360281976,0.0034824112792199995,0.0201734094328,0.0043394880020600005,0.00251317443377,-0.0146659394139,0.0190438547738,3.4523918628699994,0.247316300869,1.1632190942799998,0.544674515724,1.75817167759,0.880127847195,1045209.0,1521541879.0,420000000.0,,,,,,2146911.5,1521541880.0,282548310.5,,0.04699997901950001,1.3280000101775,-3.14800033569,0.23299999535100002,-0.0230000000447,-0.024500000756200003,-70.0,-68.5,-64.0,-63.5,-14.0,-227.5,-200.5,-198.0,-187.0,-174.0,4.0,-0.3500001430508499,-0.8949999362224998,-0.3349990844699997,-0.010999999940499966,0.031000001356,0.0415000007488
29,48.603074974399995,4861.5,1521541880.0,398555993.5,,2642501.0,1521541879.0,556796220.0,,0.748348874703,-0.109768120592,-0.00886627354521,0.978722665792,-0.197449069119,0.0152101274479,-0.0537071745027,0.00442092989503,-0.00235787972912,0.00597137419179,0.0103849426579,-0.008392385906890001,-0.009918241048,2.34275889397,-0.0616298317909,2.3204398155200003,0.464429944754,1.36055409908,0.8130468726160001,1045214.0,1521541879.0,560999936.0,,,,,,2146922.5,1521541880.0,393520901.0,,-0.48299999237049995,0.1679999839514,-2.543000793455,0.2180000022055,-0.04399999883025,-0.026999999769000003,-69.0,-66.0,-64.0,-59.0,-52.0,-215.0,-201.0,-198.0,-191.0,-178.0,4.0,-0.52999997139,-1.1600000262261,0.6049995422349999,-0.014999993145500018,-0.02099999878555,-0.0024999990128
30,48.7056390769,4871.5,1521541880.0,500237941.5,,2642512.0,1521541879.0,666798372.0,,0.7478655242465,-0.11086366661,-0.00846307881841,0.978831095884,-0.1971982637485,0.015218275982200003,-0.05263878376085,-0.010107441037665001,-0.00828650940729,-0.0018206516183905,-0.01800030243605,0.0277128166503,0.0007990940507486,2.923402309415,0.2206745743755,1.74830049276,0.5037690550089999,1.41976046562,0.8014733195305,1045218.5,1521541879.0,667000064.0,,,,,,2146932.5,1521541880.0,493838108.5,,0.17199997901925002,1.39799998812,-2.55300102234,0.13800000399350001,-0.0210000006482,-0.014999999664735,-66.0,-64.0,-61.0,-58.0,-41.0,-216.0,-198.0,-192.0,-190.0,-184.5,4.0,0.65499997138975,1.2300000041686001,-0.010000228885000073,-0.07999999821199999,0.02299999818205,0.012000000104265003
31,48.8082031795,4878.5,1521541880.0,568586945.0,,2642521.0,1521541879.0,756795459.0,,0.7484230938680001,-0.110959408862,-0.00867390414585,0.978660717268,-0.197867690657,0.0155293980916,-0.0532016472102,-0.0008528963103999999,-0.00651898650789,-0.00416457364542,-0.005682941044020001,0.00988453553482,-0.021128522180000005,2.22769618034,0.233393549919,2.0974719524400003,0.454644083977,1.23926091194,0.7863447666169999,2642873.0,1521541879.0,744890762.5,,,,,,2146939.5,1521541880.0,563865056.5,,-0.8629999279989999,0.997999995203,-2.56299934387,0.17099999636399998,-0.0255000013858,-0.0645000021905,-63.5,-62.5,-61.0,-57.0,-40.0,-189.0,-186.0,-183.0,-178.0,-174.0,-1.0,-1.0349999070182498,-0.39999999291700006,-0.00999832152999991,0.03299999237049997,-0.0045000007376000024,-0.049500002525765
32,48.910767282100004,4890.5,1521541880.0,688538431.5,,2642532.5,1521541879.0,871871012.0,,0.7474794585754999,-0.1108775459895,-0.00900652473651,0.9788375883495,-0.197198044347,0.015002514785450003,-0.052581230585650014,-0.0061586793510700006,-0.007725420061630002,-0.002698716970125,-0.02928313502595,0.003515778417450001,0.011572673181850002,2.59732747078,0.277572453022,2.0270512104,0.467611223459,1.440119385715,0.80649754405,1045226.5,1521541879.0,869500032.0,,,,,,2146951.5,1521541880.0,684027237.5,,1.4370002031349998,1.3680000167345,-2.22300109863,0.2069999948145,-0.030499999411400008,-0.019499999470985,-66.0,-65.5,-64.0,-62.0,-16.5,-200.0,-190.0,-180.0,-167.0,-167.0,-1.0,2.3000001311339995,0.3700000215314999,0.3399982452399999,0.035999998450500004,-0.004999998025600007,0.045000002719515
33,49.0133313846,4902.5,1521541880.0,808408021.5,,2642545.0,1521541879.0,997093129.0,,0.7474856645669999,-0.1107121722,-0.00917576932533,0.978722504208,-0.197639566825,0.0147251655016,-0.0531416115895,0.00114822164999,-0.0021029260712,0.00189191546945,0.00569342043221,-0.00776064477784,-0.008036645253430001,2.16840434074,-0.07156059145930001,2.33629202843,0.5890839695929999,1.36103212833,0.8241851329800001,2642898.0,1521541879.5,495186399.0,,,,,,2146963.5,1521541880.0,802677900.5,,-0.658000063896,1.2780000206065,-2.45300064087,0.225999996066,-0.017500000074499998,-0.04649999924005,-69.5,-67.0,-64.0,-57.5,-39.5,-215.0,-201.0,-192.0,-185.0,-180.0,-1.0,-2.0950002670309997,-0.0899999961279998,-0.22999954223999985,0.019000001251500004,0.01299999933690001,-0.026999999769065
34,49.1158954872,4910.5,1521541880.0,888447046.0,,2642553.0,1521541880.0,77109114.5,,0.7475972205875,-0.111141805021,-0.00875525453901,0.9788673195190001,-0.197040411456,0.015053912721949999,-0.05260233588435,-0.004401157318130001,0.004186913874375,-0.0048031056238500005,0.00010576509194999696,0.0075266829486599985,0.007632768802709998,2.081903100015,-0.305821657181,2.063670754435,0.7815371155740001,1.25384986401,0.8424776196479999,1045234.5,1521541880.0,72500096.0,,,,,,2146971.5,1521541880.0,884190229.0,,-0.2729999542235,0.8730000007900001,-2.43799934387,0.218499995768,-0.03949999995530001,-0.0335000008345,-64.0,-63.0,-63.0,-62.0,-60.5,-223.5,-213.5,-206.0,-191.0,-184.5,-1.0,0.3850001096725,-0.4050000198165,0.015001296999999969,-0.0075000002979999925,-0.02199999988080001,0.012999998405550002
35,49.218459589700004,4920.5,1521541880.0,988448500.0,,2642561.5,1521541880.0,162165874.0,,0.7475634200050001,-0.1110825789065,-0.008828885275674998,0.9787355713735,-0.1976074181285,0.014856964411399998,-0.0529827713528,0.0015833957222950007,-0.011898563125515,-0.00103642990735,-0.003310643070360501,-0.0060632390438918994,-0.004848592821899997,2.19824552536,-0.1448373049499,2.042864322665,0.6792532205580001,1.3136830329899998,0.8341495990755001,2642914.5,1521541880.0,160245002.5,,,,,,2146981.5,1521541880.0,983901692.0,,-0.9079999446870001,-0.22699998207400002,-2.93799934387,0.247000001371,-0.05749999918044999,-0.025499999523150005,-67.5,-67.0,-62.5,-60.5,-37.0,-240.0,-216.0,-204.5,-197.0,-191.0,-1.0,-0.6349999904635001,-1.0999999828640001,-0.5,0.028500005603000006,-0.017999999225149985,0.008000001311349994
36,49.321023692299995,4933.5,1521541881.0,118402480.5,,2642574.0,1521541880.0,287167238.0,,0.748040614189,-0.111793296718,-0.008577652488430001,0.978572783479,-0.198374473356,0.0150920004488,-0.0530575845481,0.0125124370746,-0.017780906570299997,0.00290353764004,-0.0047568504883,-0.0123395221592,-0.0359908861347,2.35308647156,0.0204364061356,1.84050893784,0.574084758759,1.3133430481,0.8093016147609999,1844085.0,1521541880.0,282609431.5,,,,,,2146994.5,1521541881.0,114450318.0,,0.24700002670300006,-0.832000001149,-3.883000946045,0.254999995232,-0.0679999999702,-0.06150000169869999,-71.0,-65.0,-61.5,-53.0,-9.0,-232.0,-223.0,-211.5,-197.5,-195.0,-1.0,1.15499997139,-0.605000019075,-0.9450016021750001,0.007999993861000004,-0.010500000789750004,-0.03600000217554999
37,49.423587794899994,4942.5,1521541881.0,208417892.0,,2642583.0,1521541880.0,377166085.0,,0.7473634429095,-0.1115164215605,-0.00886897090525,0.97841288328,-0.1990363162535,0.0142670356445,-0.05374773271335,-0.004011008998845,-0.0010840705018849992,0.0009332777769199998,0.0070647039056699985,0.0026924165619000013,0.0035221323233795,2.321349143985,0.0736305117607,1.8863538503650001,0.49013777077200005,1.323849439625,0.7963013052944999,1844091.0,1521541880.0,373633484.0,,,,,,2147003.5,1521541881.0,204129086.0,,0.5569999694825001,-0.921999974923,-3.4180007934599996,0.248999990523,-0.04700000025335,-0.033000001683800004,-74.0,-72.0,-69.0,-68.0,8.0,-238.0,-225.5,-211.5,-203.0,-190.0,-1.0,0.30999994277950005,-0.08999997377400004,0.4650001525850005,-0.006000004709000001,0.020999999716849994,0.02850000001489999
38,49.5261518974,4952.5,1521541881.0,308422922.5,,2642592.0,1521541880.0,467166783.0,,0.747152294141,-0.111626426355,-0.00863510074812,0.978443593425,-0.198957732462,0.014092472134200004,-0.0535290333157,-0.00894247466736,-0.0236416717105,-0.00864153944243,-0.0352662288296,0.0214371390449,-0.000715598497773,1.96243739128,-0.191783666611,2.16569805145,0.7313972711560001,1.2376344203899998,0.833608984947,2642946.0,1521541880.0,475264427.0,,,,,,2147013.5,1521541881.0,303955669.5,,0.3870000123975,0.017999992891999994,-4.372998809815,0.254999995232,-0.038999998942,-0.040500000119249986,-71.5,-68.0,-67.5,-66.0,45.0,-249.5,-225.5,-223.0,-203.0,-197.0,-1.0,-0.1699999570850001,0.939999967815,-0.9549980163550003,0.006000004709000001,0.008000001311350001,-0.007499998435449982
39,49.628716,4963.5,1521541881.0,418430447.0,,2642603.0,1521541880.0,577167466.5,,0.7473762995395,-0.11246023130449999,-0.00904915233879,0.9783825930994999,-0.199280215659,0.014183432395549997,-0.0534201261476,0.0050188632473549995,-0.010408566279985002,0.00028372532374999976,-0.003894528494095,-0.009768563603005,-0.004217912979999999,2.26012790203,-0.11796605587005,1.9189395904550002,0.620227009058,1.3149409294149998,0.8216194212435,1844106.0,1521541880.0,584624137.5,,,,,,2147024.5,1521541881.0,414128885.0,,-0.7929999351510001,-0.4719999868425,-4.693000411989999,0.27799999713900003,-0.0489999987185,-0.048000000417250006,-69.0,-68.0,-66.5,-65.5,-38.0,-248.0,-228.0,-219.0,-207.0,-201.0,-1.0,-1.1799999475485001,-0.4899999797345,-0.3200016021749992,0.023000001907000023,-0.009999999776499999,-0.00750000029800002
