,Unnamed: 0,Unnamed: 0.1,.header.seq,.header.stamp.secs,.header.stamp.nsecs,.header.frame_id,.endpoint_state.header.seq,.endpoint_state.header.stamp.secs,.endpoint_state.header.stamp.nsecs,.endpoint_state.header.frame_id,.endpoint_state.pose.position.x,.endpoint_state.pose.position.y,.endpoint_state.pose.position.z,.endpoint_state.pose.orientation.x,.endpoint_state.pose.orientation.y,.endpoint_state.pose.orientation.z,.endpoint_state.pose.orientation.w,.endpoint_state.twist.linear.x,.endpoint_state.twist.linear.y,.endpoint_state.twist.linear.z,.endpoint_state.twist.angular.x,.endpoint_state.twist.angular.y,.endpoint_state.twist.angular.z,.endpoint_state.wrench.force.x,.endpoint_state.wrench.force.y,.endpoint_state.wrench.force.z,.endpoint_state.wrench.torque.x,.endpoint_state.wrench.torque.y,.endpoint_state.wrench.torque.z,.joint_state.header.seq,.joint_state.header.stamp.secs,.joint_state.header.stamp.nsecs,.joint_state.header.frame_id,.joint_state.name,.joint_state.position,.joint_state.velocity,.joint_state.effort,.wrench_stamped.header.seq,.wrench_stamped.header.stamp.secs,.wrench_stamped.header.stamp.nsecs,.wrench_stamped.header.frame_id,.wrench_stamped.wrench.force.x,.wrench_stamped.wrench.force.y,.wrench_stamped.wrench.force.z,.wrench_stamped.wrench.torque.x,.wrench_stamped.wrench.torque.y,.wrench_stamped.wrench.torque.z,.tactile_values.tactile_values_0,.tactile_values.tactile_values_1,.tactile_values.tactile_values_2,.tactile_values.tactile_values_3,.tactile_values.tactile_values_4,.tactile_values.tactile_values_5,.tactile_values.tactile_values_6,.tactile_values.tactile_values_7,.tactile_values.tactile_values_8,.tactile_values.tactile_values_9,.tag,.delta_wrench.force.x,.delta_wrench.force.y,.delta_wrench.force.z,.delta_wrench.torque.x,.delta_wrench.torque.y,.delta_wrench.torque.z,.wrench_stamped.wrench.force.magnitude,.wrench_stamped.wrench.torque.magnitude,.endpoint_state.wrench.force.magnitude,.endpoint_state.wrench.torque.magnitude,.endpoint_state.twist.linear.magnitude,.endpoint_state.twist.angular.magnitude
0,0,53.291603,5325.5,1521532427.0,364066481.5,,1697226.0,1521532426.0,807040310.5,,0.6707548638205001,-0.161796631909,0.129012778163,-0.07485189188995,0.9955888999835,0.01509012538395,0.05451540139160002,-0.0020835672789900005,-0.005949770224774999,-0.0060686487009849995,-0.000853894173655001,0.0002596930673499989,-0.018022298018575002,3.1102626323700004,0.587161630392,4.3424847126,0.7380836606029999,1.516852617265,0.7765131592750001,1184431.0,1521532426.0,814065938.0,,,,,,1202614.5,1521532427.0,359604121.5,,1.125000071525,1.33700001277,-0.8310001373295001,-0.04750000126659999,-0.1569999977945,-0.0944999977946,13.0,14.5,16.5,20.0,40.5,118.0,120.0,121.0,122.0,124.0,5.0,0.0,0.0,0.0,0.0,0.0,0.0,1.934878658551973,0.18930266509212015,5.373608275794437,1.8570358206238367,0.00875040087022668,0.018044384212806047
1,1,53.3941671026,5336.5,1521532427.0,474496006.5,,1697237.0,1521532426.0,917072505.0,,0.6706332274260001,-0.1615871596,0.12953958853599998,-0.075661817464,0.995525357507,0.0146638796586,0.0546765266931,0.00928140855166,-0.020035938482599998,0.009136121970030001,-0.0027878531800100003,-0.014394288820400001,-0.0111643137203,3.0509955882999997,0.47618299722699997,4.25959444046,0.8645561337469999,1.46250116825,0.836286067963,671287.0,1521532426.0,924000000.0,,,,,,1202625.5,1521532427.0,470225388.5,,1.339999985695,1.456999987735,-1.146000671385,-0.05049999989569999,-0.13499999791400005,-0.08049999922515,16.0,19.0,20.5,45.5,75.0,106.0,120.0,122.0,123.5,129.0,5.0,0.21499991416999986,0.1199999749649998,-0.3150005340554999,-0.002999998629100012,0.021999999880499943,0.01399999856945,2.2873055031493412,0.1650923962558387,5.261128122738686,1.8936053873500651,0.023896696429268706,0.018428499039359204
2,2,53.49673120510001,5343.5,1521532427.0,545302033.0,,1697244.5,1521532426.0,992035734.0,,0.6707240862395,-0.1624761360995,0.129068020028,-0.0752331558704,0.9955670038155,0.01459043284155,0.0545268008299,-3.509077345e-05,-0.004401636346650001,-4.627410268999953e-05,-0.00842253966623,0.005258667041134999,-0.002801361306000002,2.510880470275,0.5757460594180001,4.2171461582199985,0.7982001602650001,1.27804207802,0.7867724895479999,1697597.0,1521532426.0,985128985.0,,,,,,1202632.5,1521532427.0,539785955.5,,-0.4900000572200001,1.3970000151550002,-1.261000442507,-0.06600000150505,-0.1039999984203,-0.0810000002384,11.5,13.0,14.0,18.0,54.0,120.5,126.0,127.0,129.0,131.0,5.0,-1.830000042915,-0.059999972579999776,-0.1149997711220001,-0.015500001609350009,0.03099999949370005,-0.0005000010132499981,1.9446930900328525,0.14742116506360206,4.941692623052698,1.6998605823261828,0.004402019443745274,0.010316994651810735
3,3,53.599295307700004,5353.5,1521532427.0,645227074.5,,1697256.5,1521532427.0,112032692.5,,0.6697496370580001,-0.16195286493549998,0.12846174433500002,-0.07556756478735001,0.995584065458,0.014798808489150004,0.0536859498333,-0.00250576341585,-0.006424482880454999,-0.004787926914590001,-0.007532376966739998,0.003060972102385,-0.001456396970709999,3.5045818090400003,0.6926754713059999,4.32258725166,0.701726824045,1.5997007489200001,0.7677178978920001,1184451.5,1521532427.0,95544586.5,,,,,,1202642.5,1521532427.0,638868209.0,,-0.3199999809265001,1.2020000223079998,-0.49100189209,-0.06000000052155,-0.103499997407,-0.08549999818205001,12.0,13.5,23.0,32.0,88.0,114.0,118.0,124.0,128.0,134.5,5.0,0.1700000762935,-0.19499999284700031,0.769998550417,0.006000000983500002,0.000500001013299986,-0.004499997943650011,1.3372684470432077,0.14704590852847815,5.607731583538626,1.908102144127301,0.008395062520132113,0.008259984571229402
4,4,53.701859410299996,5367.5,1521532427.0,784196495.5,,1697270.5,1521532427.0,252035896.5,,0.6696338917410001,-0.162369479067,0.1285702826915,-0.0754818941186,0.995593883952,0.014204360959100003,0.0537910762082,-0.010548837784615,-0.008208064538979999,-0.006057426773135,-0.01470319938269,0.01988033879865,-0.00467959122225,2.8065016269699994,0.6782240569590001,4.364522218705,0.6800553500650001,1.3919232487650002,0.7679393887520001,1184461.5,1521532427.0,241544586.0,,,,,,1202656.5,1521532427.0,780342667.5,,0.2,1.49199998416,-0.20600013732925,-0.0700000021607,-0.127000000328,-0.09349999949340004,13.5,16.0,20.0,21.0,23.5,105.0,116.0,119.5,124.0,134.5,5.0,0.5199999809265001,0.28999996185200017,0.28500175476075,-0.010000001639149998,-0.023500002920999977,-0.008000001311350022,1.5193748745168554,0.17254347362643366,5.2331150810194105,1.7290623223011188,0.014674560340741891,0.02516566146246912
5,5,53.8044235128,5377.5,1521532427.0,884294986.0,,1697280.5,1521532427.0,352036898.5,,0.6687910389659999,-0.16239015586449998,0.127965006983,-0.07578504401605,0.995621205137,0.01432558286555,0.05281833300795,-0.005264143172704999,-0.01580654460821,0.00412374595954,-0.01968482635355,0.00715555705952,-0.0039081985314899995,3.1631081104299996,0.6328677237035001,4.259123802185,0.7632190287115,1.48630720377,0.796815097332,1184468.5,1521532427.0,342071278.5,,,,,,1202666.5,1521532427.0,880376517.0,,-0.13000004291545,0.34700000323380004,-0.3060005187985,-0.06100000068545,-0.1330000013115,-0.099500000477,14.5,16.5,18.0,19.5,29.5,105.0,110.5,114.0,121.0,125.0,5.0,-0.33000004291545004,-1.1449999809262,-0.10000038146924996,0.009000001475250007,-0.006000000983500009,-0.0060000009835999854,0.48056771729614467,0.1769470274613476,5.342837264629393,1.8510879744361495,0.017162847564809628,0.02130653423630891
6,6,53.9069876154,5387.5,1521532427.0,984922051.0,,1697290.5,1521532427.0,452037472.0,,0.6693638395920001,-0.1619566757145,0.12856461412450002,-0.07566193452810001,0.995587282657,0.0144304336669,0.0535994104865,-0.006468441857539999,-0.008219298094570001,-0.004643761159875,-0.0008615288457000016,0.020262921903000004,-0.0198636208943,2.86085486412,0.6844666600229999,4.2475650310500015,0.673297345638,1.364278793335,0.7538927495479999,1184475.5,1521532427.0,442555815.0,,,,,,1202676.5,1521532427.0,980224752.0,,0.22999997139000006,1.39199999012,-0.536000061035,-0.06799999997020001,-0.129500001669,-0.08850000053644999,4.5,6.0,26.0,34.0,61.0,112.0,115.0,120.0,128.0,148.5,5.0,0.36000001430545003,1.0449999868862,-0.22999954223650002,-0.006999999284750015,0.0034999996425000013,0.010999999940550023,1.509258104090551,0.17095759861196533,5.166700480504062,1.6979223243151682,0.011443868180896754,0.028388231206461632
7,7,54.0095517179,5396.5,1521532428.0,75286507.0,,1697299.0,1521532427.0,537235393.0,,0.6692255526690001,-0.16180068258199998,0.128268091424,-0.07580856749310001,0.995582017801,0.01470028145,0.0534173066596,0.013761699619,0.011966958413700001,0.009389537148790001,-0.00226710040125,-0.022374867049099998,0.021418387685199998,2.97858047485,0.542949318886,4.25125980377,0.789862394333,1.4078992605200005,0.754797399044,671311.0,1521532427.0,531000064.0,,,,,,1202685.5,1521532428.0,72000551.5,,-2.08000000119,0.2470000017436,-1.5560005188,-0.054999999701950006,-0.1055000014603,-0.07349999994039999,11.0,12.0,22.5,37.0,54.0,106.0,120.0,122.0,126.0,128.0,5.0,-2.30999997258,-1.1449999883764,-1.020000457765,0.013000000268250005,0.02400000020870001,0.015000000596049999,2.6093191871286288,0.13984813286768114,5.219190121770518,1.7820724012670783,0.020512334775625064,0.03105675048564765
8,8,54.1121158205,5404.5,1521532428.0,155802964.5,,1697305.0,1521532427.0,597279562.0,,0.669755768513,-0.162728226473,0.128598109532,-0.0754684536578,0.995581827207,0.014200312419000001,0.054034146290300004,-0.015702919950099998,-0.0064807641995600004,-0.0132957283599,0.0041729385089,0.0387062436732,-0.0150061301928,3.00532269478,0.6068862676619999,4.3308968544,0.7528390884399999,1.4212081432299999,0.775710821152,1184486.0,1521532427.0,606685626.0,,,,,,1202693.5,1521532428.0,151746588.0,,-0.370000052452,-0.502999990806,-0.8859985351559999,-0.08800000324844999,-0.116500001401,-0.0769999995828,4.5,12.5,20.5,29.0,85.0,114.0,120.0,122.0,125.0,144.0,5.0,1.7099999487380002,-0.7499999925495999,0.670001983644,-0.033000003546499984,-0.010999999940700014,-0.0034999996424000123,1.083929164596975,0.16506135475607672,5.306311619674088,1.785588574537467,0.021572167072174186,0.04172254376774574
9,9,54.21467992310001,5417.5,1521532428.0,285252570.5,,1697318.5,1521532427.0,732276378.0,,0.6693389409955001,-0.162363880713,0.128175030272,-0.07548866875205001,0.9956115726695,0.0144874089307,0.0533750948882,0.00297096416007,-0.0026129362740700012,-0.004933617893310001,0.0120552069569,0.00374421827902,-0.03164709478864998,2.973597168925,0.5945158898830001,4.35580039024,0.7918680310249999,1.42456966639,0.7767205238339999,671319.0,1521532427.0,734000128.0,,,,,,1202706.5,1521532428.0,280669191.5,,-0.55,1.31700000204,-0.5010002136230001,-0.0679999999702,-0.11799999699,-0.08049999922515,11.5,13.5,15.0,22.0,30.5,112.0,116.5,117.5,118.0,119.0,5.0,-0.17999994754800006,1.819999992846,0.38499832153299984,0.02000000327825,-0.0014999955890000055,-0.0034999996423499963,1.5126103990861797,0.15820318947744497,5.307421813458686,1.8054773565744016,0.006324132314393799,0.03407177415187584
10,10,54.317244025600004,5425.5,1521532428.0,364109992.0,,1697326.0,1521532427.0,807289032.0,,0.669905949326,-0.162392592417,0.128542145655,-0.0748677430199,0.9956276270669999,0.014936138456700002,0.053827140410199995,0.00113481347294,-7.22256621961e-05,0.006646974093890001,-0.0021498639415300004,-0.012567481653400001,0.0121699204522,3.25872302055,0.7436465024950001,4.12112903595,0.685039401054,1.51293897629,0.7849608659739999,1184500.5,1521532427.0,813673935.5,,,,,,1202714.5,1521532428.0,360261594.0,,-0.729999947548,0.17700000330819998,-1.4110000610350002,-0.05150000005965,-0.14850000292049995,-0.0539999995381,8.0,10.0,12.0,29.5,60.0,105.5,109.0,111.0,125.0,136.0,5.0,-0.17999994754799994,-1.1399999987318,-0.909999847412,0.016499999910549998,-0.030500005930499938,0.02649999968705,1.59848368675816,0.1661941660337307,5.306221855170187,1.8369613191584924,0.006743536369701776,0.017625846756638742
11,11,54.419808128199996,5439.5,1521532428.0,505395531.0,,1697341.0,1521532427.0,957282708.0,,0.6698472002884999,-0.1627653000095,0.128587694212,-0.07540222103275,0.995589740163,0.01433535293135,0.053943523162799996,-0.0017997477418500007,-0.004783489578,-0.005890342155364999,-0.007524210008315001,0.00863010010054,-0.00043663251605000064,3.1364568471900003,0.8106971383095001,4.2211477756499995,0.6161554157735,1.4562531113600001,0.725234925747,1697694.0,1521532427.0,955348343.5,,,,,,1202728.5,1521532428.0,500797127.5,,0.3200000047685,2.89700010456,-0.271000671387,-0.06599999964240001,-0.13250000029800002,-0.07750000059605,5.5,8.0,9.5,10.0,28.0,115.0,116.0,117.5,121.0,124.0,5.0,1.0499999523165,2.7200001012518,1.139999389648,-0.014499999582750013,0.016000002622499926,-0.023500001057950002,2.9271916528927,0.16708830038083025,5.320966072831435,1.7396224642881433,0.007798525192906591,0.011457879906363145
12,12,54.5223722308,5447.5,1521532428.0,584271073.0,,1697348.0,1521532428.0,27287596.0,,0.6699171876950001,-0.16300813602699998,0.12860580761149998,-0.07495967621225,0.9956231786175,0.014193112348749997,0.05397967891284999,-0.0017538126219349994,-0.004118983647745,-0.0013428927579245,0.008952780985409999,0.005439756361965,-0.01549394709736,2.88453221321,0.448748618364,4.41779565811,0.8233521282674999,1.4009341597549998,0.7949958145620001,1697701.5,1521532428.0,30343013.5,,,,,,1202736.5,1521532428.0,580675411.5,,-1.160000014305,1.922000021115,-1.476000595095,-0.0645000003278,-0.1039999984205,-0.05700000002985,10.0,12.0,15.5,17.5,24.0,112.5,117.0,125.0,132.5,138.0,5.0,-1.4800000190735,-0.9750000834449996,-1.2049999237079998,0.0014999993146000143,0.028500001877500025,0.0205000005662,2.6866823167383327,0.1350009248751767,5.295169486271932,1.8090173001555752,0.004673889810696792,0.01870309154407495
13,13,54.6249363333,5457.5,1521532428.0,684591531.5,,1697360.5,1521532428.0,152273019.0,,0.669390166057,-0.16278482275,0.128215114053,-0.07526805296975,0.9956282910545,0.014560877913099997,0.0533571488851,-0.008349694089065001,0.00831329206787,-0.00503983256154,0.00030087827308285,0.008216741895065001,0.02532043577608,2.8471269607550003,0.437348037958,4.41784405708,0.8089541196825001,1.393694639205,0.7843954861164999,1184524.5,1521532428.0,147179821.5,,,,,,1202746.5,1521532428.0,681052026.5,,-0.8500000119200001,2.29200002588,-0.610998916626,-0.06900000199675001,-0.13650000095349998,-0.07400000095364999,8.5,10.0,17.0,26.0,72.5,117.5,120.0,121.0,129.5,144.5,5.0,0.3100000023849999,0.3700000047650003,0.8650016784689999,-0.00450000166895001,-0.032500002532999984,-0.01700000092379999,2.5197388386529402,0.16990953674528456,5.27396922152953,1.7922242587745498,0.012815152306353448,0.026621980448417463
14,14,54.72750043590001,5469.5,1521532428.0,804851054.5,,1697372.5,1521532428.0,272277687.0,,0.6699272720165,-0.16299442992500002,0.12852328845,-0.07447835506200001,0.9956577142120001,0.0147227140273,0.053866957453000006,0.005331952427025,-0.007277035772130002,0.004633771797279999,-0.0031701472530899985,-0.007398120883050001,-0.014026811442800005,3.0206629037850004,1.8261137604750002,4.278341293335,0.2365812808275,1.43137705326,0.6716798245905,1184532.5,1521532428.0,271182390.5,,,,,,1202758.5,1521532428.0,801902970.0,,0.464999985695,0.501999999769,-0.6209991455080001,-0.05900000222030001,-0.1359999999405,-0.1255000010135,19.0,22.0,29.5,33.0,51.0,117.5,119.0,121.0,125.5,133.0,5.0,1.3149999976150002,-1.7900000261109998,-0.010000228882000028,0.009999999776450004,0.0005000010129999899,-0.05150000005985002,0.924050282823447,0.19423503932143632,5.546467350192767,1.5987384894970116,0.010141834517590247,0.01617199633497237
15,15,54.830064538500004,5478.5,1521532428.0,894150495.5,,1697381.5,1521532428.0,362284138.5,,0.6679915258835,-0.16420949868899998,0.1294543737405,-0.07727744454854997,0.9955661189245,0.0129544587144,0.052035157264550005,-0.047688281238550005,-0.020110836091700002,0.0127451980488,-0.07064133716649999,0.1074827649502,0.132832255323,-0.259472243488,0.7272962331774999,8.335576057434999,0.774271070957,0.8360374271869999,0.8510684967040001,1697734.5,1521532428.0,360362523.0,,,,,,1202767.5,1521532428.0,890790596.5,,1.945000123975,0.03700001575050002,-0.5110004425050001,-0.03800000064075,-0.17149999737750002,-0.07499999925494999,18.0,20.5,21.0,34.5,59.5,118.0,121.0,122.5,123.5,126.0,5.0,1.4800001382799999,-0.4649999840185,0.10999870300299996,0.021000001579550003,-0.035499997437000025,0.05050000175855002,2.0113467964696214,0.1910006519293115,8.371267160067134,1.422241841973567,0.053301575671807294,0.18489767800652807
16,16,54.932628641,5487.5,1521532428.0,984061002.5,,1697390.5,1521532428.0,452277123.5,,0.6576566951064999,-0.1630597183005,0.1349515143695,-0.0731210538446,0.9963151844225,0.018211847274300003,0.04095085779220002,-0.1532612212115,0.02693857332225,0.07853700669485,0.1674352179435,0.33474780285350003,-0.14118048317300005,-0.12141032144424999,0.08007167279739999,8.2045249939,0.7087603211405,0.4316679537300001,0.7757210731505001,1184545.5,1521532428.0,448685052.0,,,,,,1202776.5,1521532428.0,980817540.0,,1.3349998712515,-0.5279999967666,-0.51600151062,-0.0440000016242,-0.15649999678100002,-0.114999998361,24.5,27.5,29.5,34.0,63.0,112.0,116.5,121.0,142.0,151.0,5.0,-0.6100002527235002,-0.5650000125171001,-0.005001068114999896,-0.0060000009834499995,0.015000000596500003,-0.03999999910605002,1.5255380073237026,0.19913123501453162,8.205813933697716,1.1359672523582685,0.17430648318540962,0.40002821469490724
17,17,55.0351927436,5500.5,1521532429.0,114048480.5,,1697401.5,1521532428.0,561785754.0,,0.6454215816794999,-0.16395778324600002,0.14619077397199998,-0.06929733035739999,0.9969135974845,0.0207475206553,0.030505345937250006,-0.07433983338764999,-0.047877625668800015,0.12755191366649998,-0.0323274336083,0.0912807730927,-0.06929880514674999,1.300797700885,0.08965650200834999,7.57354283333,0.7246449589730001,0.5026770234105,0.7765919566155,1697755.0,1521532428.0,564886003.0,,,,,,1202789.5,1521532429.0,112204283.0,,0.5450000286100001,0.576999999955,-2.06099967957,-0.0650000013411,-0.08049999922515,-0.104499999434,32.0,35.5,36.0,44.5,52.0,117.5,123.0,127.5,136.0,138.5,5.0,-0.7899998426414998,1.1049999967216002,-1.54499816895,-0.0209999997169,0.07599999755585002,0.010499998927000015,2.208545609744253,0.14705611150611236,7.684963499930516,1.1751125790790056,0.15520363574276075,0.11907798660905906
18,18,55.1377568462,5508.5,1521532429.0,194144010.0,,1697409.5,1521532428.0,641790212.0,,0.6447828366470001,-0.16954132783,0.1560166100275,-0.072000634915,0.99674271493,0.0137567788617,0.033608537444799996,0.0378217839,-0.0788773955007,0.145215634983,-0.208571547898,-0.2073383351145,0.1265854035945,0.8457718193535,-0.0103233158587,7.326475858685,0.9715342521665,0.466026186943,0.847831606865,1697762.0,1521532428.0,634878011.0,,,,,,1202797.5,1521532429.0,192265996.5,,-0.660000014305,0.967000008004,-1.525999832155,-0.10550000146050001,-0.08750000223515,-0.06799999810755,19.5,22.5,23.5,36.5,96.0,125.5,127.5,139.0,145.0,147.5,5.0,-1.205000042915,0.390000008049,0.5349998474150002,-0.0405000001194,-0.007000003010000006,0.03650000132645,1.9233732144592801,0.1530049033264737,7.375139663027199,1.3710863005838256,0.16952790773754048,0.32017985602439586
19,19,55.240320948699996,5519.5,1521532429.0,304182529.0,,1697420.0,1521532428.0,746789327.5,,0.6486568873825,-0.17126869737150002,0.17051360094,-0.06904462728935,0.9965337230325,0.0139948610264,0.044228497353949986,0.021090825955200003,0.017994224623599998,0.1386445156225,0.08652368874469997,-0.185315310232,-0.07890466433639999,0.2809790372850001,-0.09757848083949999,5.234208106995,1.004844307898,0.5120949596165,0.8386762738225,1697773.0,1521532428.0,744868629.0,,,,,,1202808.0,1521532429.0,296247979.0,,-0.40500001907350003,0.4219999913124999,-1.576000976565,-0.0415000002831,-0.131500005722,-0.07799999788405,17.5,22.0,26.5,55.0,62.0,119.5,126.0,131.0,134.5,135.0,5.0,0.2549999952315,-0.5450000166915001,-0.050001144410000135,0.06400000117740001,-0.04400000348684999,-0.0099999997765,1.6810378003635489,0.15842506493069564,5.242652504853696,1.405464771188673,0.14138923852781285,0.2192123604508014
20,20,55.3428850513,5527.5,1521532429.0,384090065.5,,1697428.0,1521532428.0,826784830.0,,0.6507332338385,-0.1718860560475,0.17903747010200002,-0.0657308369166,0.996442231703,0.01446812079115,0.05070961066884999,0.016887797932050003,-0.0249051761056,0.085918559487,-0.04329493835629699,-0.1259149703995,-0.06107006446275001,4.849787235259999,3.203023552895,1.63951808214,-0.4123894870285,1.880420804025,0.7302578687669999,1184572.0,1521532428.0,834437476.5,,,,,,1202816.5,1521532429.0,381363092.0,,0.0700000047685001,0.6019999984675,-2.836001205445,-0.08600000292064999,-0.1004999987783,-0.06599999964240001,22.5,30.5,43.5,45.0,65.0,115.0,119.0,134.0,137.0,152.0,5.0,0.4750000238420001,0.18000000715500009,-1.26000022888,-0.04450000263755,0.031000006943699986,0.011999998241649991,2.900035661178661,0.14782506624245736,6.038858803561726,2.0589618850570734,0.0910355116433464,0.1464874883103228
21,21,55.4454491538,5539.5,1521532429.0,505499958.5,,1697441.0,1521532428.0,956778659.0,,0.654051177479,-0.17178940348299998,0.18467190074999998,-0.0683269545102,0.9959186454790001,0.0108311913826,0.057966923043099985,-0.0077279143573300004,0.024520964943900003,0.0110797564657,0.057257983495800004,-0.0018105873303099998,-0.0524787750365,0.433939725161,0.200992643833,4.76407527924,0.632939815521,0.626139819622,0.770431160927,1697793.0,1521532428.0,944854593.0,,,,,,1202828.5,1521532429.0,502771439.0,,-0.3099999904633578,-0.232999980077,-0.7310016632080001,-0.0420000012964,-0.15049999952350002,-0.07950000092389999,16.5,17.5,26.5,33.5,79.0,111.0,113.0,118.5,128.0,133.0,5.0,-0.3799999952318579,-0.8349999785444999,2.104999542237,0.04400000162425,-0.050000000745200016,-0.013500001281499974,0.8274976836318194,0.17531257830621055,4.788017856505285,1.1773818656304136,0.027995702981590244,0.07769026148635079
22,22,55.548013256400004,5552.5,1521532429.0,634162425.5,,1697455.0,1521532429.0,96784959.0,,0.6521031686909999,-0.16959344957000005,0.184696390443,-0.06978544889589999,0.9958854467370001,0.0117828661649,0.0565979872827,-0.0214818433946,0.0132844684452,-0.00931004640817,-0.010731489791600001,0.0241849853782,0.0513961825483,1.07965004444,-0.58357000351,5.86260604858,1.1605350971200001,0.6168628335,0.853846728802,1184590.5,1521532429.0,95451753.0,,,,,,1202841.5,1521532429.0,631863380.0,,-0.8099999904615001,0.4420000020415,-1.3909996032700005,-0.06749999895690001,-0.0935000032188,-0.0625,15.5,16.5,26.5,31.0,57.0,116.0,120.0,126.0,133.0,145.0,5.0,-0.4999999999981423,0.6749999821185,-0.6599979400620002,-0.02549999766050001,0.056999996304700026,0.01700000092389999,1.6692345199670462,0.131166880198841,5.989686790501049,1.5672956655611772,0.026918834700334137,0.057806971650737254
23,23,55.650577358999996,5559.5,1521532429.0,705201506.0,,1697462.0,1521532429.0,166783590.0,,0.6518081067270001,-0.1700099279905,0.1841832409475,-0.0684493396634,0.996017957473,0.0125338284484,0.05572790005965,0.016376205942349998,0.00502137915589,0.009319043592954998,0.034936548137800005,-0.0270952067482,-0.030985776677595007,0.19202066957970002,-0.2167540565135,5.48431968689,0.8039688467980001,0.3385320603850001,0.721503794193,1697815.5,1521532429.0,169847723.0,,,,,,1202848.5,1521532429.0,701858036.0,,0.3399999856950999,1.83700004257,-1.101000595095,-0.08100000023845,-0.129500001669,-0.0769999995828,7.0,12.0,15.5,17.0,60.0,118.0,118.0,121.0,126.0,142.0,5.0,1.1499999761566002,1.3950000405285001,0.28999900817500035,-0.013500001281549991,-0.035999998450200014,-0.014499999582800004,2.168495205683977,0.1710562784777311,5.491959275756706,1.1320501700742394,0.019499716489755986,0.053989174663318484
24,24,55.75314146149999,5568.5,1521532429.0,795316576.5,,1697471.5,1521532429.0,261781365.5,,0.6523337455365,-0.17043301827399998,0.184652918224,-0.0681069624324,0.995993995845,0.0123756468401,0.0566055031196,-0.004107002308955,-0.007774727444945,6.804592136999991e-05,-0.014915461129185003,0.0195931783014,-0.005903309226255,0.88824775815,0.288003206253,5.099940299985,0.5889574289320001,0.585624486208,0.6915704011914999,1697824.5,1521532429.0,259857693.0,,,,,,1202857.0,1521532429.0,785893319.0,,0.0699998855591,2.39699998535,-0.8659999847409999,-0.0619999989867,-0.152999997139,-0.101999998093,9.0,10.5,16.5,32.5,43.0,119.0,123.0,125.0,125.5,139.0,5.0,-0.27000010013599995,0.5599999427800001,0.235000610354,0.01900000125175,-0.02349999547000001,-0.024999998510200003,2.5496009270702737,0.1940541125816632,5.184719952907929,1.0807851367153178,0.008793093031257988,0.025322177561723794
25,25,55.8557055641,5582.5,1521532429.0,934119939.0,,1697485.5,1521532429.0,401783804.5,,0.6522323091359999,-0.1717059263865,0.184322769826,-0.0671850492977,0.9960945033625,0.012246930759999998,0.05596100518864999,0.0009384097515550008,-0.0021759059895699994,-0.00034708713033000053,0.0005444217956150008,-0.0006532190139999991,-0.01053261028363,1.174166977405,0.0514200627805,5.5213406085950005,0.6875529587264999,0.7361291348935001,0.7163848876954999,1184612.0,1521532429.0,401931107.0,,,,,,1202871.5,1521532429.0,932887900.0,,0.4150000333785,0.497000005469,-0.811001586914,-0.058000000193699996,-0.14400000125149998,-0.08150000125170001,7.0,9.5,14.0,14.0,37.0,104.0,113.5,116.0,121.0,137.5,5.0,0.3450001478193999,-1.899999979881,0.05499839782699989,0.003999998792999997,0.00899999588750003,0.020499996841299998,1.037765680256082,0.1753346816432171,5.645043332854492,1.2360511646412988,0.0023949215463770065,0.010566880786619114
26,26,55.9582696667,5591.5,1521532430.0,24257897.5,,1697494.5,1521532429.0,491779724.5,,0.652702412191,-0.1715398668465,0.184752518375,-0.067438849789,0.996032926106,0.0123476081577,0.05672663127975,0.0013654545413555002,-0.003843032270865,-0.0009241559110099996,0.0007697088357745,0.0015039361904100007,-0.0028983312807399995,1.6182379722599998,0.4125936925415,4.859309673305002,0.577655136585,0.8644355237479999,0.7078317105770001,671388.5,1521532429.0,496000000.0,,,,,,1202879.5,1521532430.0,13145605.5,,0.4999999523165,-0.7230000194159999,-0.9259994506835,-0.05550000071524999,-0.15150000154999999,-0.0525000002235,6.5,10.5,15.0,17.5,36.5,105.5,112.0,119.0,120.5,128.5,5.0,0.08499991893800007,-1.2200000248849998,-0.11499786376949996,0.0024999994784500185,-0.007500000298500038,0.029000001028200013,1.2767944090800925,0.16967248030399698,5.138269960897807,1.2577598984062404,0.004181797136073542,0.0033547876191512105
27,27,56.0608337692,5601.5,1521532430.0,124131440.5,,1697502.0,1521532429.0,566910058.5,,0.652429297402,-0.1720333708715,0.1841437389465,-0.0668754028819,0.996112764893,0.0124065930822,0.05597281435635,0.0010425568428700004,0.005848485489324999,-0.004429321320645001,0.00283123614998,-0.00204801374242,0.007878094027999001,2.062237262725,0.559416264296,4.827811717985,0.506979137659,1.0293489694620002,0.7045019865035,1697855.0,1521532429.0,564963588.5,,,,,,1202890.0,1521532430.0,117216968.5,,0.689999890325,-0.3580000098795,-1.095999526975,-0.058500001206999996,-0.142000004649,-0.1009999997915,15.0,16.0,19.5,37.0,63.0,108.0,117.0,118.0,121.0,136.0,5.0,0.1899999380085,0.3650000095364999,-0.17000007629150005,-0.0030000004917500184,0.009499996901000007,-0.048499999568,1.3436810703629258,0.18381308827017195,5.27953928566155,1.3464435361133131,0.0074101683281137766,0.008618272677287965
28,28,56.1633978718,5613.5,1521532430.0,244349956.0,,1697513.5,1521532429.0,681894139.5,,0.6522827771955,-0.17199203105099994,0.183759452693,-0.06711252964105001,0.9961105760169999,0.01245440788905,0.0557180609999,-0.0017711621588250004,-0.00957264766428,-0.0037303082428100003,-0.004553852360754651,0.008506111350899997,-0.012622346887885,1.7340295314799998,0.42104229331,5.159737825390001,0.542650103569,0.935068786143,0.6967342495915,1697867.5,1521532429.0,689989647.0,,,,,,1202902.0,1521532430.0,237275312.0,,-0.675,0.3720000036065,-1.08100013733,-0.06599999964235001,-0.1339999958875,-0.07349999994039999,12.5,16.0,19.0,54.0,69.0,110.0,118.5,120.5,121.5,122.0,5.0,-1.364999890325,0.7300000134860001,0.014999389645000027,-0.007499998435350006,0.008000008761500005,0.02749999985110001,1.3276182808287609,0.1664759707641887,5.459581435930856,1.286180929836942,0.010425344036705704,0.015887578248290724
29,29,56.26596197439999,5622.5,1521532430.0,334054946.5,,1697523.0,1521532429.0,776895671.0,,0.651293130263,-0.171710725721,0.182818867578,-0.0672106220309,0.996164212714,0.012765798846799998,0.054558482148699995,0.0048112368631800006,0.00726222795339,0.00164991081619,0.0196827294648,-0.00914628993888,-0.005929746882540001,2.56242990494,0.545795321465,4.53148317337,0.4923504590990001,1.18725311756,0.683010876179,1697875.0,1521532429.0,764947943.0,,,,,,1202911.0,1521532430.0,327278538.5,,-0.3349999666215,0.8970000151555,-2.00100212097,-0.0419999994338,-0.150499999523,-0.107499998063,9.0,12.0,14.5,15.5,34.0,109.5,115.5,116.5,122.5,131.5,5.0,0.34000003337850004,0.5250000115489999,-0.92000198364,0.02400000020855001,-0.0165000036355,-0.0339999981226,2.2182974311286148,0.1896589027501931,5.234336567436158,1.4555008748570852,0.008866237121913782,0.02249947459212229
30,30,56.3685260769,5632.5,1521532430.0,434066533.5,,1697533.0,1521532429.0,876931581.0,,0.651823638417,-0.172212480924,0.183197553649,-0.0663137244364,0.996200066522,0.012795891034,0.054992568460599994,-0.0223731606703,-0.00398562001009,-0.0108764118594,-0.009486767647110001,0.0345562001202,0.00150098304164,2.14740991592,0.549900531769,4.90226602554,0.491666138172,1.04708206654,0.683641016483,1697886.0,1521532429.0,874968503.0,,,,,,1202921.0,1521532430.0,427339414.0,,0.7099999904629999,0.9669999781999999,-0.8560016632080001,-0.0630000010133,-0.133000001311,-0.0930000022054,10.5,11.5,15.5,19.5,23.5,113.0,115.0,120.0,120.5,123.0,5.0,1.0449999570845,0.06999996304450007,1.145000457762,-0.021000001579499997,0.01749999821199999,0.014499995857599991,1.473746176148092,0.17408906021518472,5.380146106472864,1.3436820624361088,0.025194043347172075,0.03586617734340885
31,31,56.471090179499996,5644.5,1521532430.0,554098486.5,,1697545.0,1521532429.0,996899365.0,,0.651849536586,-0.172428255676,0.183033864928,-0.0668568622288,0.996170362907,0.012535346368499999,0.0549329876329,0.011414513412600002,-0.00858522116198,0.0131809392317,-0.00278136764163,-0.026337012517499998,-0.0128637613506,2.42017889023,0.328779816628,4.75385284424,0.656704306602,1.15942418575,0.76620465517,1184653.5,1521532429.5,500989857.0,,,,,,1202933.0,1521532430.0,547796811.0,,-0.415000009537,0.4320000115785,-1.10599975586,-0.0625,-0.1134999990465,-0.07800000160935,6.0,8.0,14.5,22.0,30.0,101.0,108.0,112.0,115.5,116.5,-1.0,-1.125,-0.5349999666215001,-0.249998092652,0.0005000010132999999,0.01950000226450001,0.015000000596049999,1.2578093964833916,0.15123656976609232,5.344574715842748,1.5370733757423043,0.01943538777272794,0.029442326511164983
32,32,56.5736542821,5652.5,1521532430.0,634052514.5,,1697553.0,1521532430.0,76904286.5,,0.6520048737295001,-0.17201782535049998,0.1831390111655,-0.0666231908404,0.9961726951515,0.012889793222749999,0.055091349791199985,0.0036162934995500016,-0.007632282287433499,0.0006853465977000005,-0.005922581355689999,-0.005729768587349997,-0.005542342746455,1.9127202034,0.4833536595105,4.771556854245,0.5413830578325,1.02665835619,0.7254725694655,1184658.5,1521532430.0,81488282.0,,,,,,1202941.0,1521532430.0,627675210.0,,-1.16000001431,2.2170000378,-0.48599891662600003,-0.0640000030398,-0.136999994516,-0.0909999981523,13.0,20.0,26.0,32.0,58.0,103.0,104.5,107.0,113.0,131.5,-1.0,-0.745000004773,1.7850000262215002,0.6200008392340002,-0.0015000030397999964,-0.023499995469500004,-0.012999996542950004,2.5488986146502666,0.17648228962192508,5.163321038822705,1.3687342491110885,0.008473429739422974,0.009931001011908715
33,33,56.6762183846,5663.5,1521532430.0,744070052.5,,1697565.5,1521532430.0,201899753.5,,0.6512300960349999,-0.1720997668535,0.1827524869755,-0.0668825329338,0.9961990697415,0.0129244795389,0.05428691338130001,-0.00608094905457,-0.0002287458473850001,-0.004017589185595,-0.008774097748299998,0.00989918184955,0.008365954419255,2.85032761097,0.6273124217985,4.682047605515001,0.452922850847,1.2906005382549999,0.6887822747229999,1184668.5,1521532430.0,211994362.0,,,,,,1202952.0,1521532430.0,737554199.0,,0.160000038147,1.39699998535,-0.8560016632080001,-0.0689999982715,-0.12099999934399999,-0.0640000030398,7.0,10.0,11.0,25.0,71.0,100.0,103.5,111.0,116.0,120.0,-1.0,1.320000052457,-0.8200000524500002,-0.3700027465820001,-0.0049999952317,0.015999995172,0.026999995112500008,1.6461919142948684,0.15329057372131336,5.5171965838376105,1.5314078098717072,0.007291864571642945,0.015651446768022294
34,34,56.778782487200004,5671.5,1521532430.0,824055909.5,,1697574.5,1521532430.0,292048696.5,,0.6520191465555001,-0.17238914279400006,0.1827587479665,-0.06636827227685,0.996198530331,0.0132377017919,0.054847348777250005,-0.00189282881329,0.006788585392635001,-0.007344686435775,0.016516853666730003,0.00712613407527,-0.0008240199231125,2.3397713899649997,0.511550396681,4.506491661069998,0.498459979892,1.1597338318850001,0.6962849795815,1184673.0,1521532430.0,288055321.5,,,,,,1202960.0,1521532430.0,817021294.5,,0.5300000429155001,1.2620000246915,-1.196001815795,-0.0595000013709,-0.1064999997615,-0.07099999859930001,4.0,6.0,11.5,24.0,35.0,93.0,97.5,103.5,105.5,106.5,-1.0,0.3700000047685,-0.13499996065849995,-0.340000152587,0.009499996900599994,0.014499999582500006,-0.006999995559500011,1.817681064212508,0.1411506284556934,5.103398970973823,1.4416163446504788,0.010179003457577536,0.018007422101472017
35,35,56.8813465897,5683.5,1521532430.0,944128513.0,,1697586.5,1521532430.0,412048995.5,,0.6512056615995,-0.17275215799799998,0.1819227671955,-0.06655971493955001,0.9962524314815,0.013027393743650001,0.05367519901825,-0.015238760061950001,-0.0002847919854500002,-0.019443844535000004,0.01309420219635,0.04674918905875,0.005930046734890001,2.99809217453,0.500074595213,4.7944598197950015,0.5031786710025,1.3982071280450001,0.7132410407065,1184682.5,1521532430.0,413069107.5,,,,,,1202972.0,1521532430.0,937103269.0,,1.12000007629,2.20700004734,-0.996001052856,-0.0680000036955,-0.123000003397,-0.0759999975562,7.0,9.5,16.0,25.0,32.0,103.0,106.5,108.5,116.0,124.0,-1.0,0.5900000333744999,0.9450000226485002,0.20000076293900004,-0.008500002324599992,-0.0165000036355,-0.004999998956899995,2.6678207355702575,0.15977797397261123,5.676748739497301,1.6482975247253697,0.024705546037315354,0.04890920427780059
36,36,56.98391069229999,5693.5,1521532431.0,44070481.5,,1697596.5,1521532430.0,512052162.5,,0.6507762029099999,-0.1721985207105,0.18118806278549998,-0.0674022478803,0.9962319723435,0.0132094705944,0.0529552955086,-0.001048791440055,0.00647435132183,-0.005355044044125,0.010743234500004998,0.00031170977482000017,0.0088020252683405,3.0936853885650004,0.5803365707400001,4.553559541705,0.4313665777445001,1.424459278585,0.6715050935745001,1697949.5,1521532430.0,510107697.5,,,,,,1202982.5,1521532431.0,43068651.5,,-0.6799999952319999,-0.7630000110715001,-0.456000137329,-0.07349999994039999,-0.1280000023545,-0.05650000087915,13.0,20.0,28.5,35.5,78.0,96.0,99.0,104.0,104.0,113.0,-1.0,-1.8000000715220001,-2.9700000584115003,0.540000915527,-0.005499996244899996,-0.0049999989574999884,0.01949999667705,1.1191537587189242,0.15804588160826827,5.535574434384519,1.6328136609663697,0.008467212365219922,0.013892080453636909
37,37,57.0864747949,5705.5,1521532431.0,164106011.0,,1697606.5,1521532430.0,612296236.5,,0.6510053671714999,-0.171549172927,0.1814905421105,-0.06706484502099999,0.9962347023820002,0.0138251157308,0.0531728560236,-0.00908144496317,0.00984773339533,-0.013238966037305,0.009843333384015,0.03468778229705,0.015402228045725,4.679973840715,2.0995797514900003,3.4657064676300005,-0.2409681156275,1.903756201265,0.5560295581815,1184696.0,1521532430.0,609690380.0,,,,,,1202993.5,1521532431.0,155000507.0,,0.5949999809279001,-0.07300000973050003,-0.995999145508,-0.06749999895695,-0.135499998927,-0.07300000265239999,12.5,15.0,17.5,23.5,72.0,102.5,107.0,109.0,117.5,124.5,-1.0,1.2749999761598998,0.690000001341,-0.5399990081789999,0.0060000009834499934,-0.0074999965725000015,-0.016500001773249985,1.1624836672304348,0.16806397578200882,6.1904371091560195,1.9978794198288157,0.0188340308320205,0.039209209142354776
38,38,57.189038897399996,5714.5,1521532431.0,254068016.5,,1697615.0,1521532430.0,697290843.5,,0.6508577710815,-0.172095129621,0.1807986673615,-0.0673211113628,0.9962508825765,0.01301594590975,0.052748697167150006,-0.0021826266378950007,0.0015824316601049998,-0.007829832822475,-0.002638893611919999,0.00900018254697,0.010821752796969996,4.361199140549998,1.53328186274,3.896404504775,-0.036603786051285,1.851980686185,0.592013448477,1697968.0,1521532430.0,695381481.0,,,,,,1203003.0,1521532431.0,248618605.0,,1.4550001144400002,0.2719999853520001,-1.27100067139,-0.059000002220249995,-0.13650000095349998,-0.06650000065565,10.0,15.0,15.5,17.0,43.5,108.0,109.0,120.5,123.5,128.5,-1.0,0.8600001335121001,0.3449999950825001,-0.275001525882,0.008499996736699995,-0.0010000020264999963,0.006500001996749993,1.951013078307199,0.16289720872223823,6.045905993229832,1.9446470688361888,0.008280955924726222,0.014320522999267293
39,39,57.291603,5726.5,1521532431.0,374377012.0,,1697627.0,1521532430.0,817321889.0,,0.6507238747995,-0.17154732755600002,0.18063861423900002,-0.06774837073505,0.99623343119,0.013112304316,0.052507447589150005,-0.01433201306295,0.00623708982433,-0.007198353276784999,0.00589797120924,0.0302633185835,0.004832828505060003,3.898927927015,1.0068760514275,4.266337871549998,0.15589656680825,1.6682651639,0.5780465900899999,671441.0,1521532430.0,816999936.0,,,,,,1203015.0,1521532431.0,368731652.0,,0.21999998092700002,0.0370000008494,-0.915999221802,-0.0689999982715,-0.123000003397,-0.0680000036955,16.5,24.0,35.0,41.5,51.0,106.5,114.0,118.0,121.5,141.0,-1.0,-1.2350001335130003,-0.2349999845026001,0.35500144958799995,-0.009999996051249994,0.013499997556499985,-0.001500003039849998,0.9427743982589926,0.1565694769095082,5.86660695779234,1.7724418909909485,0.01720825899998985,0.0312091452531267
