,Unnamed: 0,Unnamed: 0.1,.header.seq,.header.stamp.secs,.header.stamp.nsecs,.header.frame_id,.endpoint_state.header.seq,.endpoint_state.header.stamp.secs,.endpoint_state.header.stamp.nsecs,.endpoint_state.header.frame_id,.endpoint_state.pose.position.x,.endpoint_state.pose.position.y,.endpoint_state.pose.position.z,.endpoint_state.pose.orientation.x,.endpoint_state.pose.orientation.y,.endpoint_state.pose.orientation.z,.endpoint_state.pose.orientation.w,.endpoint_state.twist.linear.x,.endpoint_state.twist.linear.y,.endpoint_state.twist.linear.z,.endpoint_state.twist.angular.x,.endpoint_state.twist.angular.y,.endpoint_state.twist.angular.z,.endpoint_state.wrench.force.x,.endpoint_state.wrench.force.y,.endpoint_state.wrench.force.z,.endpoint_state.wrench.torque.x,.endpoint_state.wrench.torque.y,.endpoint_state.wrench.torque.z,.joint_state.header.seq,.joint_state.header.stamp.secs,.joint_state.header.stamp.nsecs,.joint_state.header.frame_id,.joint_state.name,.joint_state.position,.joint_state.velocity,.joint_state.effort,.wrench_stamped.header.seq,.wrench_stamped.header.stamp.secs,.wrench_stamped.header.stamp.nsecs,.wrench_stamped.header.frame_id,.wrench_stamped.wrench.force.x,.wrench_stamped.wrench.force.y,.wrench_stamped.wrench.force.z,.wrench_stamped.wrench.torque.x,.wrench_stamped.wrench.torque.y,.wrench_stamped.wrench.torque.z,.tactile_values.tactile_values_0,.tactile_values.tactile_values_1,.tactile_values.tactile_values_2,.tactile_values.tactile_values_3,.tactile_values.tactile_values_4,.tactile_values.tactile_values_5,.tactile_values.tactile_values_6,.tactile_values.tactile_values_7,.tactile_values.tactile_values_8,.tactile_values.tactile_values_9,.tag,.delta_wrench.force.x,.delta_wrench.force.y,.delta_wrench.force.z,.delta_wrench.torque.x,.delta_wrench.torque.y,.delta_wrench.torque.z,.wrench_stamped.wrench.force.magnitude,.wrench_stamped.wrench.torque.magnitude,.endpoint_state.wrench.force.magnitude,.endpoint_state.wrench.torque.magnitude,.endpoint_state.twist.linear.magnitude,.endpoint_state.twist.angular.magnitude
0,0,52.0116,5200.5,1521530167.0,214969515.5,,1471221.0,1521530166.0,757141178.5,,0.7670972337955,-0.149594257392,-0.01854288232205,0.988120842088,0.142689344986,0.054367190952550014,0.017336648060450002,0.0236573592931,0.0012132646749500008,0.013895852206435,0.01216169826484,-0.0514788197486,-0.006009924751444999,-3.529165625575,4.44714641571,6.687119960785,-2.242294669155,-1.2218423485799998,-2.416823387145,1026724.5,1521530166.0,751618721.5,,,,,,976836.5,1521530167.0,201806833.0,,-1.0710000514975,-0.1920000255094999,-2.73499832153,-0.08500000089410001,-0.0200000004843,-0.08999999985099999,100.5,103.5,104.0,112.0,135.5,-93.5,-92.0,-90.5,-80.0,-77.0,5.0,0.0,0.0,0.0,0.0,0.0,0.0,2.9434878866533856,0.12539936261619913,8.772097504327666,3.5159379108220112,0.027463382319688718,0.053236218713502675
1,1,52.1141641026,5212.5,1521530167.0,335107564.5,,1471231.0,1521530166.0,857147258.0,,0.7667123432095,-0.1494640159185,-0.018003012532349996,0.9882158385595,0.14219500805399998,0.05398842174415,0.017178905101099998,-0.01496891042175,0.00361607431714,-0.001152728335967,-0.011811460810155,0.0275330945485,0.007398558151839998,-2.656547904015,4.58947777748,5.78999400139,-2.284569978715,-1.052664220335,-2.4238539934150003,1026732.0,1521530166.0,857621370.5,,,,,,976849.0,1521530167.0,326745106.0,,-0.8759999394419999,-0.896999979019,-2.32999954224,-0.0930000022054,-0.0189999993891,-0.06599999964240001,94.0,101.0,104.5,112.0,120.0,-98.0,-92.0,-90.0,-80.0,-78.0,5.0,0.19500011205550005,-0.7049999535095001,0.4049987792900001,-0.008000001311299992,0.001000001095200001,0.024000000208599975,2.645918124791673,0.11561141959074375,7.851406470973302,3.493197694063878,0.015442572819902665,0.0308596915832389
2,2,52.216728205100004,5221.5,1521530167.0,424787997.5,,1471239.0,1521530166.0,937140496.0,,0.766254381235,-0.149541144688,-0.01848801427175,0.988139769575,0.1428613373725,0.053517457363649996,0.01749531541685,-0.0008601396110600001,-0.00149349933721,-0.0060185248012400005,0.008613560788827001,0.002979129339870001,-0.012537037673065,-2.205838680265,4.561624526975,6.395315647125,-2.25155675411,-0.8871815800664999,-2.425126552585,1471592.0,1521530166.0,935264242.0,,,,,,976858.5,1521530167.0,423222431.0,,0.9890000700945001,0.09799996614449996,-1.18999824524,-0.06799999997020001,-0.08599999919535,-0.09499999880775001,87.0,93.0,99.5,103.0,120.0,-99.5,-98.5,-97.0,-82.5,-80.5,5.0,1.8650000095365,0.9949999451635,1.140001297,0.025000002235199992,-0.06699999980624999,-0.028999999165349982,1.5504260561811802,0.1450689478524605,8.159301736963462,3.4260527971764327,0.006260432988532194,0.015499869505977893
3,3,52.3192923077,5232.5,1521530167.0,539546012.5,,1471251.0,1521530167.0,57142450.5,,0.7660375940745,-0.14966114057899998,-0.0189882709293,0.9881883356235,0.1426851936575,0.0531274996812,0.01738310091055,0.0004120901125699997,0.01091518000672,0.001212250845815,0.009315369115645001,-0.0009540378298750008,0.006425733807404999,-2.123028874395,4.58843135834,6.571285724640001,-2.24046897888,-0.8868768215175,-2.403883218765,1026746.0,1521530167.0,59124550.0,,,,,,976870.0,1521530167.0,536919302.5,,-0.221000087261,1.152999983543,-1.86000022888,-0.1064999997615,-0.02599999960515,-0.0654999986291,93.0,98.0,104.0,105.0,115.0,-91.5,-88.0,-86.0,-84.0,-83.5,5.0,-1.2100001573555,1.0550000173985,-0.6700019836399997,-0.03849999979129999,0.0599999995902,0.02950000017865,2.1995115030508887,0.12770473659610046,8.291124773308518,3.4036607162478094,0.010990019333611618,0.011356775286373015
4,4,52.421856410299995,5239.5,1521530167.0,605526446.5,,1471257.0,1521530167.0,117139457.0,,0.765869667568,-0.149169373396,-0.018999023126400002,0.988119658723,0.143188866951,0.0531169363969,0.017177878070100003,0.00952377423452,-0.0162866449421,0.00500270833539,3.72443128269e-05,-0.0171509011289,-0.021811953633099998,-2.49750375748,4.54770421982,6.25307655334,-2.23537874222,-1.03197622299,-2.41346287727,581890.5,1521530167.0,125499904.0,,,,,,976876.0,1521530167.0,598205311.0,,0.684000122547,1.9429999947499998,-1.05999908447,-0.0810000002384,-0.07400000095369999,-0.0810000002384,95.5,100.5,107.0,111.5,131.0,-94.0,-89.5,-86.5,-84.5,-81.0,5.0,0.905000209808,0.790000011207,0.8000011444099997,0.025499999523100003,-0.04800000134855,-0.0155000016093,2.3166146002993355,0.13637448521768725,8.125275692031982,3.447708819773817,0.019518815789620003,0.027747362360495555
5,5,52.5244205128,5253.5,1521530167.0,744604945.0,,1471271.0,1521530167.0,257142684.0,,0.766398942212,-0.149985240737,-0.018610544548200002,0.988269534154,0.141990827603,0.0535082273135,0.017285900309400002,-0.0115193130308,-0.0281507562959,-0.01456166601,-0.0328601321586,0.023471210524200002,-0.0158983620768,-2.8730778694200003,4.57052278519,6.42409801483,-2.2745480537400002,-1.0766893625299998,-2.41475319862,1026761.0,1521530167.0,269612342.5,,,,,,976890.0,1521530167.0,738839627.5,,0.16900001764299993,1.947999975085,-1.5300003051750002,-0.08800000324825,-0.03900000080465,-0.08349999785420001,95.0,100.5,101.0,109.0,116.0,-95.0,-93.5,-92.0,-86.0,-78.0,5.0,-0.5150001049040001,0.004999980335000043,-0.4700012207050002,-0.0070000030098500005,0.03500000014904999,-0.002499997615800012,2.482773820292555,0.1274254694953333,8.391262734406228,3.487672840506002,0.033722422358417575,0.04339866271761156
6,6,52.6269846154,5263.5,1521530167.0,844679474.0,,1471283.5,1521530167.0,382142071.0,,0.765688623757,-0.149750748221,-0.019154497877200003,0.9881744665035,0.1428128805535,0.052951776869800016,0.0176504008587,0.006571790875849999,0.007236932872499998,0.00421609154011,0.003217774448365001,-0.016104629156900002,0.009524647385250001,-2.10732471943,4.70316696167,6.566113471985,-2.292270541195,-0.855525404215,-2.41340506077,581900.5,1521530167.0,378000000.0,,,,,,976900.0,1521530167.0,838909053.0,,-0.326000106335,0.882999992371,-0.870000457764,-0.0790000036359,-0.06599999964240001,-0.0610000006855,95.5,99.5,105.0,119.5,124.0,-91.5,-89.5,-87.0,-86.0,-82.5,5.0,-0.4950001239779999,-1.0649999827140002,0.6599998474110002,0.008999999612349999,-0.02699999883775001,0.02249999716870001,1.2817432864529414,0.11965784809572674,8.34712184345286,3.436706554048208,0.010645988004481478,0.01898504834060672
7,7,52.7295487179,5274.5,1521530167.0,954606055.5,,1471294.5,1521530167.0,492141371.0,,0.766492477971,-0.149173471266,-0.018596668846349997,0.988151970006,0.142719037056,0.05379166658375,0.01712694074885,-0.0022704310492499997,0.004592829573350001,0.005267846697335,0.0009137775865749996,0.00212952184506,6.175147950499959e-05,-2.8756090402599996,4.556206703185,6.2906806469,-2.225225806235,-1.128430366515,-2.39553833008,1026776.5,1521530167.0,493620114.0,,,,,,976911.5,1521530167.0,953088529.0,,-0.6210000038144999,0.5729999899864999,-2.69000015259,-0.09750000014925,-0.023500000592339997,-0.06900000199675001,92.5,97.0,104.5,112.5,121.5,-96.5,-93.0,-90.0,-86.0,-81.0,5.0,-0.29499989747949995,-0.3100000023845001,-1.819999694826,-0.018499996513349992,0.042499999050060015,-0.008000001311250005,2.819586993550006,0.12173537009634972,8.282560586911222,3.458842128760701,0.007348411356603553,0.0023181169106703038
8,8,52.8321128205,5284.5,1521530168.0,54607510.0,,1471304.5,1521530167.0,592141800.5,,0.766735740326,-0.14918498618249998,-0.018466185035599998,0.9881590213615,0.142589080482,0.0539884781883,0.017183968382299998,-0.001146135387235,0.015141475464735004,-0.003546393143699999,0.005401513403450003,-0.00303796979765,0.016614245503400002,-2.655318379405,4.449583530425,6.31014752388,-2.194837927815,-1.003202319145,-2.4070237875,1026783.5,1521530167.0,594599774.0,,,,,,976921.0,1521530168.0,48826495.0,,-0.63599998951,1.9029999882,-3.19000015259,-0.0929999984801,-0.013000000326450002,-0.08999999985099999,92.5,95.0,99.0,103.5,112.5,-94.0,-91.5,-91.0,-86.0,-76.0,5.0,-0.014999985695500097,1.3299999982135,-0.5,0.004500001669149989,0.010500000265889998,-0.020999997854249983,3.768554884205635,0.13006921118760698,8.165015068165172,3.408444210501911,0.015593422007523774,0.01773242118793513
9,9,52.93467692310001,5293.5,1521530168.0,144630551.0,,1471313.5,1521530167.0,682141264.0,,0.7661208550409999,-0.1499072019445,-0.018553644223550003,0.9881613803715,0.14276316463199998,0.053329031370199995,0.0176526845515,-0.0281925652889,-0.0018052496934500009,-0.017367656448500003,0.009724358602945002,0.05780893675945,-0.0077627166739050015,-2.013632893565,4.563108205795,6.384447574615001,-2.20381772518,-0.8268302381035,-2.40653347969,581912.5,1521530167.0,680500096.0,,,,,,976930.0,1521530168.0,138392986.0,,-0.006000053882500023,0.5929999560108998,-0.7700000762945,-0.08850000053644999,-0.0635000001639,-0.054999999701950006,93.0,93.0,97.0,104.5,149.5,-102.0,-100.0,-99.0,-87.0,-78.0,5.0,0.6299999356275,-1.3100000321891,2.4200000762955,0.004499997943650011,-0.050499999837449995,0.035000000149049984,0.9718976622922075,0.12202253924165588,8.101718630071522,3.36628343983817,0.0331619534186048,0.0591328680993581
10,10,53.037241025600004,5301.5,1521530168.0,224610566.5,,1471321.5,1521530167.0,762141647.0,,0.7663948638054999,-0.15017632964799998,-0.0186484729114,0.9882211935455,0.14226838194750002,0.053526515596050005,0.01770435288645,-0.004299328329854999,0.00860587693969575,-0.00534562706028,0.01090499438757,0.008997298748835002,0.008127492519959999,-2.40370965004,5.089244842525,6.42130422592,-2.5485029220599995,-0.9649173617344999,-2.481054902075,1026795.0,1521530167.0,762112063.5,,,,,,976938.0,1521530168.0,217793433.0,,-1.85600001812,1.7029999852200002,-1.64999923706,-0.0680000036955,-0.052000001072899996,-0.08900000154969999,94.0,96.0,99.5,112.0,136.0,-94.0,-90.0,-86.5,-84.5,-82.5,5.0,-1.8499999642375002,1.1100000292091003,-0.8799991607655001,0.02049999684095,0.011499999091000005,-0.03400000184774998,3.0112194372412224,0.12348684500794492,8.538816142222574,3.68531763703421,0.011005501835749184,0.01630725059691936
11,11,53.139805128199995,5314.5,1521530168.0,354861974.5,,1471333.0,1521530167.0,877149125.0,,0.766746944849,-0.149708836806,-0.018683687424000003,0.988104788858,0.142932058641,0.0539069428386,0.017702947840599996,-0.00768665086677,-0.0111712770709,-0.012180731762700002,-0.00023359742841900008,0.0251501728672,0.00211382367188,-2.7986440658599996,4.72704267502,6.192028999330001,-2.3364605903599998,-1.0697423219700002,-2.42144322395,1026803.0,1521530167.0,872620697.0,,,,,,976951.0,1521530168.0,348122812.0,,0.10399996042300001,1.23299998641,-1.5199981689500002,-0.0630000010133,-0.06599999964240001,-0.0560000017285,88.0,90.0,98.0,105.0,113.0,-93.0,-89.0,-86.0,-80.0,-76.5,5.0,1.959999978543,-0.4699999988100001,0.1300010681099999,0.0050000026821999935,-0.01399999856950001,0.032999999821199985,1.9599743344917553,0.10705606136069366,8.277594106222974,3.53083333117446,0.01822778810545264,0.025239928952443733
12,12,53.2423692308,5325.5,1521530168.0,464791416.5,,1471344.0,1521530167.0,987140628.5,,0.7662216604159999,-0.14938773960149998,-0.01906958974645,0.9881079957725001,0.14309525836249998,0.053431384252450004,0.0176367550433,-0.0036927888986350004,0.004299664132705,-0.004606809244455,-0.003584969608330001,0.0049402186719750005,0.02734855380855,-1.5939722061200001,5.098004579545,5.853934526445,-2.52880513668,-0.6742777228354999,-2.47577738762,1026810.5,1521530167.0,986120666.0,,,,,,976962.0,1521530168.0,458122851.0,,-0.356000077724,0.462999975681,-0.800000762939,-0.0879999995232,-0.0780000016093,-0.06499999761580001,89.0,98.0,105.0,111.0,145.0,-102.0,-101.0,-88.0,-86.0,-79.0,5.0,-0.460000038147,-0.7700000107290002,0.7199974060110002,-0.02499999850990001,-0.012000001966899987,-0.008999995887300015,0.9905080784744175,0.13436145227403584,7.9245786971201,3.602635082805625,0.007303868353054277,0.02802144113065448
13,13,53.3449333333,5332.5,1521530168.0,534582018.5,,1471351.0,1521530168.0,57141947.5,,0.7658361742794999,-0.14874123450549998,-0.019142208244099998,0.9880745865125,0.14341741575300002,0.053242153990949996,0.01747262586895,-0.010228619640405001,0.006146736403099999,-0.0045601563387715,-0.01358709730682,0.01337121959033,0.025906178774950002,-1.6378384232499998,5.0301609039300015,5.97005224228,-2.487883090975,-0.6840819716455001,-2.45676290989,1471704.0,1521530168.0,55216626.0,,,,,,976969.0,1521530168.0,527346233.0,,-0.755999934673,0.08300004005429999,-0.570001220703,-0.08900000154969999,-0.0769999995828,-0.05099999904630001,98.0,100.0,106.0,108.5,114.5,-97.5,-93.5,-92.0,-86.0,-80.0,5.0,-0.399999856949,-0.3799999356267,0.22999954223600005,-0.0010000020264999826,0.0010000020264999963,0.013999998569500002,0.9504347949636027,0.1282614521760938,7.97662567729315,3.5627537683231627,0.012775055929087417,0.03216409217244426
14,14,53.447497435900004,5345.5,1521530168.0,664650559.0,,1471363.0,1521530168.0,177142614.0,,0.7654039100544999,-0.1479229849085,-0.01965431664675,0.9879647722265,0.14456049831899995,0.0522651147061,0.017208763550750003,-0.010461044638825,-0.0024350656522700003,-0.00099385996206,-0.011567071848845,0.048589187424300004,-0.008975530839395,1.42825162411,4.78370976448,5.130721569059999,-2.338141441345,0.4517285227775,-2.22462666035,1026824.5,1521530168.0,187116845.5,,,,,,976982.0,1521530168.0,657963362.0,,-0.25599993467300003,1.6329999774700001,-1.75999984741,-0.126000002027,-0.0270000007004,-0.046999998390699994,96.0,104.0,108.0,117.0,124.5,-94.0,-90.5,-87.0,-83.0,-82.0,5.0,0.5,1.5499999374157,-1.1899986267070002,-0.03700000047730002,0.0499999988824,0.0040000006556000075,2.414502921069433,0.1371641367025339,7.158776825112769,3.2588230752781913,0.010786600821878054,0.05074708306453709
15,15,53.5500615385,5355.5,1521530168.0,766191958.5,,1471374.0,1521530168.0,287140928.0,,0.762104985837,-0.148303315814,-0.0170925338093,0.9883624803990001,0.144454041339,0.0443288028089,0.0175383728458,-0.0620751496591,-0.0432853032673,0.027994525326400004,-0.06477078503269999,0.265414456401,-0.0521154314676,0.613564133644,4.35450029373,5.8393845558200015,-1.9469680786099997,0.353881895542,-2.08290433884,1471726.5,1521530168.0,280215220.5,,,,,,976992.5,1521530168.0,764061545.5,,-0.330999982357,0.4179999887945,-1.5600009918200002,-0.07149999961254999,-0.05449999868870002,-0.04549999907615,111.0,115.0,120.0,125.0,137.0,-94.5,-94.0,-85.0,-81.5,-80.0,5.0,-0.07500004768399998,-1.2149999886755,0.19999885558999986,0.05450000241445002,-0.027499997988300013,0.001499999314549999,1.6486018541272844,0.10076085409320727,7.3100304886462775,2.8730484819921176,0.08068850681721806,0.2781296576373053
16,16,53.65262564100001,5363.5,1521530168.0,844627976.0,,1471383.5,1521530168.0,382141208.0,,0.7569236540175001,-0.1495678172245,-0.01307829362765,0.9888303309344999,0.14406310359149999,0.0334468575263,0.0184790100178,-0.037279945788550005,-0.0019588332793,0.0585192025465,-0.03450401402865,0.19382103711300008,-0.00767852075755,3.66339838505,5.47837781906,5.373099088670001,-2.566389918325,1.33929145336,-2.231333732605,1471736.0,1521530168.0,375198342.0,,,,,,977000.5,1521530168.0,845259929.0,,0.4290000081065,0.012999987601999996,-0.449998474121,-0.07200000062584999,-0.07000000029805001,-0.05150000005965,110.0,115.0,117.0,141.5,157.0,-91.0,-88.0,-84.0,-81.0,-78.5,5.0,0.7599999904635,-0.4050000011925,1.1100025176990005,-0.0005000010132999999,-0.01550000160934999,-0.006000000983499995,0.6218590140411713,0.11285499607014902,8.503135014370992,3.6549841362424957,0.06941273984285315,0.19701797149669456
17,17,53.7551897436,5376.5,1521530168.0,974702477.0,,1471397.0,1521530168.0,517141139.5,,0.7595500938915,-0.14898686805199998,-0.003013706246045,0.9890706842585,0.14313093832149998,0.0302802471663,0.0183230342756,0.0626653825876,0.002547545116399999,0.0935463160833,0.002663434283700002,-0.070696665194,-0.013909623562419999,2.26745915413,5.4285354614250005,6.857011318205,-2.63877403736,0.8059234023109999,-2.328902721405,1026847.5,1521530168.0,515618976.0,,,,,,977013.0,1521530168.0,968964128.0,,0.583999979496,0.702999985218,-1.21999893188,-0.0790000036359,-0.109999999404,-0.0680000036955,106.0,109.5,116.0,118.0,134.5,-90.5,-88.5,-84.0,-78.0,-69.0,5.0,0.15499997138950006,0.6899999976160001,-0.7700004577590001,-0.007000003010050007,-0.039999999105949986,-0.016500003635849997,1.5243563720653308,0.15154207648682996,9.034875344441016,3.6105995120485668,0.11262483479999892,0.07210124811252819
18,18,53.8577538462,5384.5,1521530169.0,54806589.5,,1471405.0,1521530168.0,597141121.0,,0.767373868258,-0.14762609829,0.00599983165931,0.98883730344,0.14314902718699998,0.037085127731800005,0.018271197059599998,0.118114225235,0.00677993323097,0.123444989515,0.0160497317939,-0.208938520447,-0.009761119472889998,2.9375627040900003,5.59722232819,5.6310787200900005,-2.7189140319800003,1.21470355988,-2.41414523125,1026852.5,1521530168.0,589627665.0,,,,,,977020.5,1521530169.0,46237402.0,,-1.0610000014299998,0.6379999876019999,-1.6450000762950001,-0.06000000238415,-0.105499997735,-0.06499999947845,108.0,118.0,120.0,123.0,125.5,-93.5,-90.0,-86.5,-82.0,-74.0,5.0,-1.644999980926,-0.06499999761600006,-0.4250011444149999,0.01900000125175,0.004500001669000012,0.0030000042170499897,2.058832251113521,0.1376780655746641,8.465649412980653,3.8335486757376644,0.17098421896139768,0.20978126386930174
19,19,53.9603179487,5395.5,1521530169.0,166091084.0,,1471416.0,1521530168.0,707141730.0,,0.779116703027,-0.145914668097,0.019684721341299997,0.988473472064,0.142391704706,0.0481910320507,0.01795610999,0.13325894630100002,9.87911156656e-05,0.14719620367699998,0.025176398239000003,-0.280023861887,-0.0121558799786,1.1522994041399999,5.2908973693800005,3.19710493088,-2.67430591583,0.561833620071,-2.4969708919499998,1471768.5,1521530168.0,700256523.5,,,,,,977032.0,1521530169.0,158927371.0,,-1.27600003481,0.123000001907,-3.10999832153,-0.08500000089410001,-0.00899999961257,-0.0619999989867,96.0,100.0,107.0,111.0,112.5,-92.0,-88.0,-86.0,-80.5,-79.5,5.0,-0.21500003338000015,-0.5149999856949999,-1.4649982452349999,-0.02499999850995001,0.09649999812243,0.0030000004917500045,3.363836299409301,0.10559356050145323,6.2883120810874855,3.7016797245751825,0.1985564879470278,0.2814160259694755
20,20,54.0628820513,5403.5,1521530169.0,244738936.0,,1471423.0,1521530168.0,777210753.5,,0.7863079932075,-0.143643346924,0.027661074295900003,0.9879736002385,0.14300714686350002,0.0561280047838,0.0174787781707,0.09550177828255,0.00620003382874,0.1117888040185,0.03059309541025,-0.20262209894949998,-0.00999161003377,1.896475076674,5.385741472244999,2.099458754065,-2.71750175953,0.9050410687935001,-2.54908657074,1026866.0,1521530168.0,776117681.0,,,,,,977039.5,1521530169.0,234877274.0,,-1.3759999990485,1.3079999893885,-2.339999771115,-0.08050000295045,-0.010499999974855,-0.052999999374150016,97.5,104.5,109.0,114.5,160.5,-96.5,-90.0,-86.5,-78.0,-77.5,5.0,-0.0999999642385001,1.1849999874815,0.769998550415,0.004499997943650011,-0.0015000003622850002,0.008999999612549985,3.01327710283008,0.09695102066587187,6.083630164821457,3.834287090761272,0.14715898470189806,0.20516209381985884
21,21,54.1654461538,5417.5,1521530169.0,384623407.5,,1471435.0,1521530168.0,897407622.5,,0.7942165751085,-0.14237019172499998,0.03644700425945,0.987423119125,0.143241312289,0.06463324124730001,0.017299589173549998,0.05465331144855,0.0173833815693,0.07394348037889999,0.02981156829355,-0.10212809244644999,-0.0030037271513705,-2.6773353815050003,3.92036819458,3.556948184965,-1.9555580616,-0.7619117200375,-2.29147231579,1026875.0,1521530168.0,906246718.5,,,,,,977053.5,1521530169.0,375254103.5,,-1.17099995613,1.13299997747,-1.905000305175,-0.1085000000894,-0.0670000016689,-0.0819999985397,108.0,114.0,115.0,119.5,133.0,-95.0,-88.0,-88.0,-79.0,-77.0,5.0,0.20500004291850016,-0.1750000119184998,0.43499946593999983,-0.027999997138950003,-0.056500001694045,-0.028999999165549982,2.5067820026720167,0.15160887178375548,5.932056297495733,3.1073400482488616,0.09357780023927072,0.10643260425110114
22,22,54.268010256400004,5426.5,1521530169.0,474663018.5,,1471444.0,1521530168.0,987406034.0,,0.7960725998964999,-0.14251493894950001,0.0394177802085,0.987321235894,0.1430508954065,0.06654784736910001,0.017424070731900002,0.023346791776160003,-0.0037928713546999983,0.02565575589555,0.0070931007635100015,-0.04741034853735,-0.00881649918905,-0.2297568321200001,4.58140492439,3.24417245388,-2.2394951582000004,-0.08459371328349996,-2.370119452475,1026880.5,1521530168.5,491749659.0,,,,,,977062.5,1521530169.0,465112591.5,,-0.3459999680520001,0.6180000066746,-0.8549991607665,-0.057499999180449984,-0.092000000179,-0.06399999931455,101.0,109.0,114.0,117.5,125.5,-84.0,-79.0,-73.5,-72.5,-67.5,5.0,0.8249999880779999,-0.5149999707954002,1.0500011444085002,0.05100000090895001,-0.0249999985101,0.017999999225150002,1.1102538228050423,0.1259613029900459,5.618426309354296,3.261895289387556,0.03489521987213614,0.04874201354914291
23,23,54.370574358999995,5437.5,1521530169.0,586655974.0,,1471455.0,1521530169.0,97402005.0,,0.796499735509,-0.142780417248,0.0392427552878,0.987302385803,0.14288982447999998,0.0671296910295,0.0176097027062,-0.019305202530700002,0.0176750235975,-0.0205546808773,-0.0247214837334,0.0208172351231,0.0637393787699,1.68463969231,4.98305177689,4.15960693359,-2.41450047493,0.926788926125,-2.40715408325,1026889.0,1521530169.0,107226878.5,,,,,,977074.0,1521530169.0,580296143.0,,0.143999922276,1.2829999834299999,-1.96999893188,-0.0920000001788,0.0040000001899899995,-0.0419999994338,97.5,105.5,117.0,120.0,127.5,-59.0,-55.0,-51.5,-51.0,-48.5,5.0,0.4899998903280001,0.6649999767554001,-1.1149997711135,-0.03450000099835001,0.09600000036899001,0.021999999880749996,2.35535999938549,0.10121264736611883,6.7060529185239,3.5331488841446057,0.033280507957228804,0.07146479862228654
24,24,54.4731384615,5447.5,1521530169.0,688169478.5,,1471465.0,1521530169.0,197422092.0,,0.7939947290845001,-0.1424130762,0.0367692303379,0.9874509555365001,0.143254052335,0.06415960374249999,0.0173891709706,-0.0156939958171,-0.0045096730894200006,-0.013497727193885,-0.01066884437561,0.032468646340099994,-0.0016988131901300007,1.165544837711,4.835278511045,5.425446510315,-2.33239340782,0.505746871233,-2.3715858459500003,1026896.0,1521530169.0,207754643.5,,,,,,977084.0,1521530169.0,680703543.0,,0.684000122547,0.952999985218,0.009998703002946169,-0.08799999952314999,-0.0765000022948,-0.06499999947849999,103.0,107.0,109.5,118.5,131.0,-55.0,-54.0,-51.5,-50.5,-47.0,5.0,0.5400002002709999,-0.3299999982120001,1.9799976348829464,0.00400000065565001,-0.08050000248478999,-0.023000000044699997,1.173100640836736,0.13349625537588614,7.360290951068274,3.3645591585398735,0.021185544493383546,0.03421875511652102
25,25,54.5757025641,5458.5,1521530169.0,794731974.0,,1471477.0,1521530169.0,317403936.5,,0.7937226599259999,-0.14264396243299998,0.03661628804325,0.987547901378,0.1427019008455,0.0639587184832,0.0171451199048,0.004040829396760001,0.0077190217565125,0.0075181003430199985,0.002459135250300001,-0.01899715906609,0.012462905043500002,0.214343100786,4.606870889660001,5.538247823715,-2.1755599975599997,0.2274813354014001,-2.31709623337,581977.0,1521530169.0,312000000.0,,,,,,977094.5,1521530169.0,784202982.5,,-0.1860000014305,1.3429999858139998,-0.0349994659423,-0.0879999995232,-0.07400000095369999,-0.07300000078975001,100.0,104.0,106.0,108.5,112.0,-50.0,-48.0,-45.0,-44.0,-37.5,5.0,-0.8700001239775,0.3900000005959998,-0.04499816894524617,-5.0015547259363296e-14,0.002500001341100011,-0.008000001311250018,1.3562705943302007,0.1361947141872044,7.2070376241376195,3.1864940005649958,0.011507972534680057,0.02285308296236837
26,26,54.6782666667,5465.5,1521530169.0,864637016.5,,1471485.0,1521530169.0,397400214.0,,0.794020187578,-0.141901057367,0.0372525949046,0.9875141314489999,0.142768532992,0.0644309978452,0.016781915653899998,-0.003599512920940001,-0.00463265970283,-0.00461743054971,-0.00227667839231,0.00772123914766,-0.018929022960900002,-0.06493002176280001,4.58674287796,4.8393821716300005,-2.16552662849,0.10789799690199996,-2.3209917545299996,1026909.5,1521530169.0,403729688.5,,,,,,977101.5,1521530169.0,856616443.5,,0.35899995565399995,0.952999970315,-0.409999465942,-0.0920000001788,-0.0759999975562,-0.0670000016689,95.5,96.5,107.0,115.0,125.5,-48.0,-44.0,-41.0,-38.5,-33.0,5.0,0.5449999570844999,-0.3900000154989999,-0.3749999999997,-0.0040000006555999945,-0.001999996602500012,0.0059999991208500155,1.0978112194966354,0.13685393631559967,6.667986648106997,3.176184862540431,0.007465835122183864,0.02056960643113154
27,27,54.7808307692,5477.5,1521530169.0,984642028.5,,1471497.5,1521530169.0,522408126.5,,0.7945550236865,-0.1426231545825,0.0373793963816,0.987463195644,0.1428446063035,0.0649172809336,0.017247304772449998,-0.010790739844880002,-0.008592922963844998,-0.013002810188719998,-0.011220689326485,0.028499932293669997,0.00409403821021,-0.05358952283875,4.67937040329,4.761901378635,-2.23068153858,0.14993211627,-2.333614706995,581985.5,1521530169.0,523500032.0,,,,,,977113.5,1521530169.0,977441991.5,,-0.8610000133515,0.31799996495225,-3.0700012207050005,-0.1009999997915,-0.0010000000474950001,-0.054999999701950006,91.0,97.0,98.5,105.5,139.0,-49.5,-49.0,-47.0,-41.5,-39.0,5.0,-1.2199999690055,-0.6350000053627499,-2.6600017547630004,-0.008999999612699995,0.07499999750870501,0.012000001966949987,3.2042709772787803,0.1150086949982152,6.676457439989445,3.23174525090611,0.018956567839836836,0.03090163682674314
28,28,54.8833948718,5488.5,1521530170.0,94607472.0,,1471508.5,1521530169.0,632416559.5,,0.79365594035,-0.14230427672350002,0.03673710258285,0.987496755527,0.1430266824875,0.06405144354289999,0.0170566291036,-0.0136734027856,-0.007691178828949999,-0.0137821452938,-0.00031204179623499985,0.02503385714645,0.0021177390915500006,0.31082671880720003,4.8993732929250005,5.11533999443,-2.32930970192,0.311209768057,-2.36638200283,1026926.0,1521530169.0,635249142.5,,,,,,977125.0,1521530170.0,89131732.0,,0.934000122547,0.14299998283399998,-0.829999542236,-0.0630000010133,-0.103000000119,-0.0280000008643,87.5,95.0,97.0,105.5,133.0,-48.5,-48.0,-47.5,-47.0,-41.5,5.0,1.7950001358985002,-0.17499998211825005,2.2400016784690004,0.0379999987782,-0.102000000071505,0.02699999883765001,1.2576583256673113,0.12394353634050709,7.08993477904884,3.3350110930116044,0.020882138406196717,0.025125210299047098
29,29,54.9859589744,5496.5,1521530170.0,174860000.0,,1471516.5,1521530169.0,712405414.5,,0.7925751499975,-0.14171141391550002,0.0363959684327,0.9874931045445,0.143396958869,0.06329361087195,0.016983958674899997,-0.0170800941565,0.0019757204082150003,-0.01526322249844,-0.013658419143725,0.015808581052355,0.00883760492786,1.640494704245,4.861770868300001,4.9816467762,-2.2101067304599997,0.7340624630450001,-2.3007494211200004,581993.0,1521530169.0,715000064.0,,,,,,977132.5,1521530170.0,166480082.0,,1.25400005579,1.05799997449,0.254999542236,-0.08750000223515,-0.099500000477,-0.036999999545500005,91.0,94.5,99.5,102.0,112.0,-54.5,-50.5,-50.0,-47.5,-37.5,5.0,0.3199999332429999,0.914999991656,1.084999084472,-0.024500001221850004,0.003499999641999985,-0.008999998681200005,1.6603929813398792,0.13756998383528746,7.151562308567987,3.2736626824491704,0.022991282012172085,0.022684067299659612
30,30,55.088523076899996,5507.5,1521530170.0,284603476.0,,1471526.5,1521530169.0,812649748.0,,0.7927885675949999,-0.1418708322845,0.036266006788050004,0.987463174086,0.14335621924500005,0.06378557497665,0.017225705698650003,-0.0006360689613349999,0.0149381049715,-0.001241845458795,0.010712453750695,-0.009608138569945,0.0050519885682,0.695293754339,4.787907600405001,5.16135406494,-2.256994605065,0.5754745304584999,-2.327949523925,1026938.0,1521530169.0,810358066.0,,,,,,977144.0,1521530170.0,279071272.0,,1.9239998936700002,0.392999982834,-1.0500007629399999,-0.082000002265,-0.0599999986589,-0.032999999821200006,88.5,91.5,92.0,131.0,148.0,-55.5,-53.0,-52.0,-50.0,-34.5,0.0,0.6699998378800001,-0.6649999916559999,-1.3050003051760002,0.005499999970150007,0.03950000181810001,0.003999999724299999,2.2268197456292413,0.1068316441824575,7.074395265922838,3.293105611492225,0.015003124474810456,0.015251084572359686
31,31,55.191087179499995,5518.5,1521530170.0,394664525.5,,1471536.0,1521530169.0,907638640.0,,0.7916962206735,-0.14194351133150002,0.03564943746915,0.9874899011105,0.1437719643395,0.06243472630295,0.017179125375600002,-0.003913804023945,-0.01122456795221,0.0007856902620299999,-0.0026962554440450003,0.01586974701835,-0.0142456610262,0.9893257617964999,4.93275117874,4.696270227435,-2.31418800354,0.41962236166,-2.3356041908250003,1471889.0,1521530169.0,905691261.5,,,,,,977155.0,1521530170.0,390073629.0,,0.3739999413490001,0.292999958992,-1.21999893188,-0.0780000016093,-0.0860000029206,-0.054999999702,97.5,99.5,120.5,126.0,138.0,-53.0,-52.5,-52.0,-51.5,-46.5,-1.0,-1.5499999523210002,-0.10000002384200002,-0.16999816893999986,0.004000000655699998,-0.0260000042617,-0.021999999880799998,1.3092449449536592,0.12847178959061017,6.882278234960243,3.314603442092715,0.01191327397651362,0.021495523299500403
32,32,55.2936512821,5526.5,1521530170.0,474842428.5,,1471543.5,1521530169.0,982639993.5,,0.7917639358599999,-0.14135918382450002,0.035299761251949995,0.9874651356415001,0.143887558403,0.06262389477725,0.0169463481158,0.0023015135874190004,-8.457060871500024e-05,-0.007782856554479999,-0.00393712806005,-0.00588594142871,0.00839354056805,1.115238189696,4.82356643677,4.333217859265,-2.28032743931,0.5748580396175,-2.33747136593,1471897.5,1521530169.0,990695337.5,,,,,,977163.0,1521530170.0,469186688.0,,1.0639999985700002,0.052999949455300004,-0.969998931885,-0.09600000083450001,-0.0610000006855,-0.0140000004321,73.5,82.0,92.0,128.5,143.5,-53.5,-52.0,-43.5,-42.0,-40.0,-1.0,0.6900000572210001,-0.2400000095367,0.249999999995,-0.0179999992252,0.0250000022351,0.0409999992699,1.4407646995457881,0.11459930303432828,6.579310481011182,3.315739341794773,0.008116463092292418,0.01098165775877845
33,33,55.3962153846,5540.5,1521530170.0,614628553.0,,1471559.0,1521530170.0,137650035.0,,0.7899624708349999,-0.142212398131,0.0326293543812,0.987650986461,0.143666767459,0.060051297802999996,0.017298280316700002,-0.0217542392674,0.005237167937760001,-0.0162882281617,-0.0116442888886,0.0422895689432,0.0171394134429,1.4195388555500001,4.83781480789,4.14558172226,-2.3172852993,0.560055792332,-2.35481858253,1026960.5,1521530170.0,132846235.5,,,,,,977176.5,1521530170.0,606119336.5,,1.0140000462535,0.872999994458,-1.5449996948249998,-0.07399999722839999,-0.09849999845015,-0.0334999999031,74.0,76.5,82.0,91.0,103.0,-52.0,-50.5,-49.5,-46.5,-41.5,-1.0,-0.04999995231650023,0.8200000450027001,-0.5750007629399998,0.02200000360610001,-0.03749999776464999,-0.019499999471,2.0438564384846383,0.1276734086565815,6.527280482237006,3.3509169201138236,0.027676365924000686,0.04709306316528476
34,34,55.498779487200004,5547.5,1521530170.0,684631466.5,,1471565.0,1521530170.0,197635541.0,,0.7890645487289999,-0.14210141264,0.0315847344398,0.987704822844,0.14362954942,0.0592848301238,0.017176855984,-0.0250631744294,-0.00598797708228,-0.022562059985700003,-0.013220674504,0.049074472224699996,0.0186460435275,1.7369852066,4.91114139557,4.44900989532,-2.25028276443,0.8534368276600001,-2.27429485321,1471918.0,1521530170.0,195691124.0,,,,,,977183.5,1521530170.0,677413425.0,,1.4839998364450002,0.657999998331,-1.130000686645,-0.08250000327825,-0.044999999925499995,-0.034500000998400004,79.0,84.5,88.0,93.0,106.0,-50.0,-49.0,-48.0,-45.0,-44.0,-1.0,0.4699997901915003,-0.21499999612700005,0.4149990081799997,-0.008500006049850005,0.05349999852464999,-0.0010000010953000044,1.9779082547455418,0.10010744529302434,6.850555923710409,3.3112752857523913,0.03425003843523049,0.05413654031892869
35,35,55.6013435897,5561.5,1521530170.0,824648976.0,,1471581.5,1521530170.0,362664136.5,,0.7880584325390001,-0.1426647792745,0.030280887408150006,0.9877636533230001,0.14366863912199998,0.05821508849265,0.017114836185200002,-0.0056514226375525,-0.008699613215854999,-0.009731798192985001,-0.01038480436038,0.00697779863972,-0.0011772247014999995,2.0173797011400003,4.9835412502250005,4.53242278099,-2.204956769945,0.9883342981325,-2.23443031311,1026976.5,1521530170.0,363365321.0,,,,,,977197.5,1521530170.0,816181106.5,,1.718999969955,0.7279999706910001,-0.5249992370605,-0.08449999988080001,-0.07349999994039999,-0.0625,75.0,77.0,80.5,90.5,107.0,-53.0,-52.0,-51.5,-44.0,-41.5,-1.0,0.23500013350999985,0.0699999723600001,0.6050014495845001,-0.0019999966025500138,-0.02850000001489999,-0.0279999990016,1.9392186707397119,0.12825268017119176,7.0319528238536275,3.291096757364663,0.014224266026853756,0.01256661026123065
36,36,55.70390769229999,5568.5,1521530170.0,894613981.0,,1471588.5,1521530170.0,432667115.0,,0.78801394603,-0.1423291911615,0.029501406778799998,0.9877279715485,0.14401016271650002,0.05793966144965,0.01724681308625,0.00331900394548,-0.011161985835955,-0.009499923781899998,-0.0036241005864,-0.005641631012599999,-0.011011924338139998,2.328360319135,5.069498300555001,3.722442030905,-2.299898982045,0.9881413877005001,-2.2827051878,582021.5,1521530170.0,433500032.0,,,,,,977204.5,1521530170.0,887504072.0,,1.713999855515,0.6829999744894999,-0.745000457764,-0.0815000012517,-0.0815000012517,-0.054499998688699994,77.0,84.0,89.0,90.0,109.5,-57.0,-53.5,-49.0,-49.0,-41.0,-1.0,-0.005000114440000036,-0.044999996201500185,-0.22000122070350006,0.002999998629100012,-0.008000001311300006,0.0080000013113,1.9898015358137273,0.1274941185511022,6.706537815333678,3.3877281036274636,0.015028448584404214,0.012892811298223322
37,37,55.8064717949,5581.5,1521530171.0,24636506.5,,1471601.5,1521530170.0,562667944.0,,0.7876170506865001,-0.142202552988,0.02932339223705,0.9877596016299999,0.1440292949225,0.0574433668789,0.0169329348262,0.0017044526181965,-0.003390719817249999,-0.003576942150528999,-0.0023415706810849994,0.0016871393495535,-0.0005926973310499999,1.834306240085,5.04056072235,3.954513549805,-2.2784656286200002,0.8148051798345,-2.263602256775,1026990.5,1521530170.0,564356701.0,,,,,,977217.5,1521530171.0,17955889.5,,-0.9809999585135,0.15299997329720005,-2.195001220705,-0.07400000095369999,-0.039499999955300014,-0.034500000067050014,76.5,78.0,81.0,83.5,93.5,-51.5,-50.5,-49.5,-45.5,-29.0,-1.0,-2.6949998140285,-0.5300000011922998,-1.450000762941,0.007500000298000006,0.04200000129639999,0.019999998621649997,2.409107774535808,0.09070005591091304,6.664091025316481,3.3134888378814162,0.00521504120357642,0.0029462998091780252
38,38,55.909035897399995,5589.5,1521530171.0,104606032.0,,1471609.5,1521530170.0,642667319.0,,0.787340080426,-0.1436035943045,0.0288315285948,0.9878832861294999,0.143282090035,0.0569881520821,0.017582410588899998,-0.0058378012362400025,-0.013653570121589999,0.0032392865920650004,-0.015164129055135,0.012494655159089998,-0.00973809730114,1.930121958255,5.173712730409999,4.235335588455,-2.35504972935,0.83818089962,-2.28851413727,582029.5,1521530170.0,636499968.0,,,,,,977225.5,1521530171.0,97394517.5,,0.978999960423,0.987999997472,-1.255000686645,-0.0839999988675,-0.0609999988228,-0.056499999016550013,75.0,76.5,85.0,86.0,96.5,-49.5,-49.0,-49.0,-48.0,-43.0,-1.0,1.9599999189365,0.8350000241747999,0.9400005340600001,-0.009999997913800004,-0.021499998867499998,-0.021999998949500003,1.8733957513009174,0.11819157988195163,6.959219908680718,3.389115431006143,0.015198449853999997,0.021929381126512302
39,39,56.0116,5601.5,1521530171.0,224621533.5,,1471621.5,1521530170.0,762667917.0,,0.787156704189,-0.14184486982150002,0.028884714635,0.987717679339,0.1443898012245,0.05717897457155,0.0171975195949,0.02481690512,0.0063376980642650006,0.01610602136715,-0.00374872102005,-0.05848633979355,0.025387870441700003,1.727722644805,5.021952629089999,4.095481395725002,-2.317095160485,0.8315309286115,-2.289752960205,1027004.5,1521530170.0,765359700.5,,,,,,977237.5,1521530171.0,217983517.0,,0.9440001130079999,1.082999980451,-1.1150012969949998,-0.05800000019375,-0.0930000022054,-0.05100000090895,77.5,78.5,89.0,109.5,129.0,-55.0,-52.5,-49.5,-46.5,-43.5,-1.0,-0.03499984741499995,0.09499998297900004,0.13999938965000025,0.02599999867375,-0.0320000033826,0.005499998107600004,1.8185854566988362,0.12088838043994264,6.706564068800473,3.362044361210612,0.030256389751058585,0.0638689973093151
