,Unnamed: 0,Unnamed: 0.1,.header.seq,.header.stamp.secs,.header.stamp.nsecs,.header.frame_id,.endpoint_state.header.seq,.endpoint_state.header.stamp.secs,.endpoint_state.header.stamp.nsecs,.endpoint_state.header.frame_id,.endpoint_state.pose.position.x,.endpoint_state.pose.position.y,.endpoint_state.pose.position.z,.endpoint_state.pose.orientation.x,.endpoint_state.pose.orientation.y,.endpoint_state.pose.orientation.z,.endpoint_state.pose.orientation.w,.endpoint_state.twist.linear.x,.endpoint_state.twist.linear.y,.endpoint_state.twist.linear.z,.endpoint_state.twist.angular.x,.endpoint_state.twist.angular.y,.endpoint_state.twist.angular.z,.endpoint_state.wrench.force.x,.endpoint_state.wrench.force.y,.endpoint_state.wrench.force.z,.endpoint_state.wrench.torque.x,.endpoint_state.wrench.torque.y,.endpoint_state.wrench.torque.z,.joint_state.header.seq,.joint_state.header.stamp.secs,.joint_state.header.stamp.nsecs,.joint_state.header.frame_id,.joint_state.name,.joint_state.position,.joint_state.velocity,.joint_state.effort,.wrench_stamped.header.seq,.wrench_stamped.header.stamp.secs,.wrench_stamped.header.stamp.nsecs,.wrench_stamped.header.frame_id,.wrench_stamped.wrench.force.x,.wrench_stamped.wrench.force.y,.wrench_stamped.wrench.force.z,.wrench_stamped.wrench.torque.x,.wrench_stamped.wrench.torque.y,.wrench_stamped.wrench.torque.z,.tactile_values.tactile_values_0,.tactile_values.tactile_values_1,.tactile_values.tactile_values_2,.tactile_values.tactile_values_3,.tactile_values.tactile_values_4,.tactile_values.tactile_values_5,.tactile_values.tactile_values_6,.tactile_values.tactile_values_7,.tactile_values.tactile_values_8,.tactile_values.tactile_values_9,.tag,.delta_wrench.force.x,.delta_wrench.force.y,.delta_wrench.force.z,.delta_wrench.torque.x,.delta_wrench.torque.y,.delta_wrench.torque.z,.wrench_stamped.wrench.force.magnitude,.wrench_stamped.wrench.torque.magnitude,.endpoint_state.wrench.force.magnitude,.endpoint_state.wrench.torque.magnitude,.endpoint_state.twist.linear.magnitude,.endpoint_state.twist.angular.magnitude
0,0,56.5305,5651.5,1521530384.0,429280996.0,,1492939.0,1521530383.0,937572363.0,,0.763577861529,-0.130967335527,-0.0120068055159,0.878000501773,-0.471742107714,0.061772318810599997,0.052523169415100004,-0.00805254804022,0.0120046524536,0.0029985631954299995,-0.00248257258619,-0.00223465109717,0.0199901718428,6.90306043625,2.14488077164,3.3325586319,-0.27660214901,2.9926261901899998,0.08260294795039999,1041880.0,1521530383.0,942307404.0,,,,,,998536.5,1521530384.0,426876669.5,,1.329000097515,0.0850000202657,0.0470008850098,-0.0375000014901,-0.152000002563,-0.0219999998808,1.0,2.0,5.0,20.0,42.5,120.0,123.0,147.0,160.5,166.5,5.0,0.0,0.0,0.0,0.0,0.0,0.0,1.332544688118096,0.15809570166726453,7.959818084989269,3.0065168401421203,0.014763014316485738,0.020267308713207564
1,1,56.6330641026,5661.5,1521530384.0,532120942.5,,1492950.0,1521530384.0,47558169.0,,0.7638780963609999,-0.130685759034,-0.011410630345700001,0.877958990189,-0.47182645726800004,0.06192048607030001,0.05228440659630002,-0.0131082678666,-0.00159052533711,-0.014523766041299999,-0.0109990414853,0.0288440316738,0.00284270405692,6.60239553452,1.9898471832299998,3.35012292862,-0.211866781116,2.84836554527,0.123671129346,1041887.5,1521530384.0,48317790.5,,,,,,998546.5,1521530384.0,527051678.5,,2.088999968765,0.950000015834,0.527000427246,-0.06399999931455,-0.14099999517200001,-0.02700000070035,-4.0,14.0,18.0,18.0,84.5,115.0,121.5,142.5,147.5,159.0,5.0,0.75999987125,0.8649999955683,0.4799995422362001,-0.02649999782445,0.011000007391000016,-0.005000000819549997,2.3546019514776244,0.15718141934906088,7.666449128750771,2.858910344983808,0.019628964245037128,0.031000613593117114
2,2,56.7356282051,5674.5,1521530384.0,661203503.0,,1492963.5,1521530384.0,182565051.5,,0.7637148478075001,-0.13045739764300002,-0.011257041506650002,0.8779310467745001,-0.4719005186015,0.061782399983750014,0.05224584905730001,-0.010082845355389999,-0.005752552311350001,-0.004802191403215,-0.021458205708815004,0.0202676825074,0.0015841068321000018,6.4912378788,1.882573843,3.4318376779549995,-0.1822690293195,2.8217180967299997,0.1212080419066,1041896.5,1521530384.0,169319379.5,,,,,,998559.5,1521530384.0,660406318.5,,2.719000083205,-0.4899999678135,-0.09299850463884997,-0.0279999999329,-0.1639999970795,-0.005999999819325,-8.0,-1.0,11.0,22.5,34.5,109.5,114.0,123.0,147.5,159.0,5.0,0.63000011444,-1.4399999836475,-0.61999893188485,0.035999999381649994,-0.023000001907500008,0.021000000881025,2.764364328881251,0.1664812272784842,7.5800899283153145,2.8301954713209256,0.012562510530488718,0.029559143101891415
3,3,56.838192307700005,5683.5,1521530384.0,749585986.0,,1492973.5,1521530384.0,282567807.0,,0.7639649168964999,-0.1309211261725,-0.011381070564700002,0.8777043816200001,-0.472347263601,0.0617741446226,0.052026609720400005,0.0013873661119799992,-0.011877574463025,0.003637647401325,-0.0040055536253499995,0.005005186449395,-0.01771215643417,6.5891909599300025,2.070795118805,3.344036221505,-0.253613598645,2.8520106077200005,0.112100839615,1493325.5,1521530384.0,270619194.0,,,,,,998568.5,1521530384.0,746328054.5,,3.2689999163150003,1.4750000059600001,-0.38299942016599997,-0.0429999995977,-0.16849999874850002,-0.05849999934435,-15.0,-9.0,9.0,27.0,71.5,117.5,121.5,127.5,145.5,163.5,5.0,0.5499998331100002,1.9649999737735,-0.2900009155271501,-0.014999999664799996,-0.0045000016690000255,-0.052499999525024994,3.606753945904402,0.1834761550363852,7.673865269942347,2.8654582464603218,0.012499361522483484,0.018836582407307106
4,4,56.9407564103,5691.5,1521530384.0,831459044.5,,1492982.0,1521530384.0,367570158.0,,0.7645897108390001,-0.13150548830199998,-0.010894796473600001,0.8777160947,-0.472230779836,0.0625081674261,0.0520122743679,0.00430494956739,-0.00976351053492,-0.00399115168485,-0.00034318568240599995,-0.0072815521918500005,-0.006754289800289999,6.50049972534,2.0163390636400003,3.3770754337299995,-0.253960043192,2.8119404315900005,0.09855091571810001,1493334.0,1521530384.0,355618758.0,,,,,,998576.5,1521530384.0,828520816.5,,1.799000006915,0.815000016987,0.6120014190675,-0.06250000186265,-0.12700000405349998,-0.01500000059605,-6.0,-3.5,-3.0,19.0,47.0,113.5,116.5,124.0,155.0,171.0,5.0,-1.4699999094000002,-0.6599999889729999,0.9950008392335,-0.01950000226495001,0.041499994695000035,0.0434999987483,2.0676488554659405,0.14233850947758925,7.597812736821612,2.825104772807111,0.011392454543018645,0.009937766823665442
5,5,57.043320512799994,5703.5,1521530384.0,949343442.5,,1492993.5,1521530384.0,482568937.0,,0.7637265591425,-0.13076080955699998,-0.011621088863399999,0.8779110484475,-0.471947816624,0.061688193301300015,0.052265470593250006,0.00950067724033,-0.013008200967674998,0.001986715201205,-0.006139700371489996,-0.01475306437491,-0.007317646398600002,6.438250064850001,1.855043292045,3.365792393685,-0.180366486311,2.797083735465,0.1218598783015,1041917.5,1521530384.0,471310519.0,,,,,,998588.5,1521530384.0,947105454.5,,3.458999973535,0.9000000029780001,0.482000350952,-0.06300000101325,-0.1405000016095,-0.027499999851,-12.5,-10.0,-9.5,7.5,14.0,115.0,118.0,124.5,162.0,170.0,5.0,1.65999996662,0.08499998599100013,-0.13000106811550005,-0.0004999991505999918,-0.01349999755600001,-0.012499999254950002,3.606522585620861,0.15641451522075564,7.498053610790603,2.805540825318119,0.016230317240616226,0.01757545953643479
6,6,57.1458846154,5715.5,1521530385.0,71303009.5,,1493005.5,1521530384.0,602566986.5,,0.7640563673734999,-0.1301877937075,-0.0109380573435,0.8779697124155,-0.471850158396,0.0619875175327,0.051808382237050005,0.0030608276359255005,-0.00901388811251,-1.2527247648999966e-05,0.0024195865997085,-0.002900111394805,-0.01787421779435,6.3706243038200006,1.78264516592,3.4576907157850005,-0.09521770477315,2.793044805525,0.12943251431,1041926.0,1521530384.0,601808884.0,,,,,,998600.0,1521530385.0,62967999.0,,2.28400002122,1.225000005961,-0.04800033569335,-0.046000000089449995,-0.14999999851,-0.01250000065194,-11.0,-2.5,2.5,12.0,113.5,123.5,129.5,133.5,157.5,161.5,5.0,-1.174999952315,0.3250000029829999,-0.5300006866453499,0.017000000923799996,-0.009499996900500018,0.01499999919906,2.5922162609944572,0.15739202513954736,7.464469364531266,2.7976630377393668,0.00951940132853049,0.01826889999905919
7,7,57.2484487179,5723.5,1521530385.0,149791002.0,,1493011.0,1521530384.0,657679864.0,,0.763904591106,-0.13035174277,-0.011352144443399999,0.877902533361,-0.47202649854999995,0.061638187017599995,0.05175770944159999,0.0023843772190100003,-0.01019328517,-9.97267740906e-05,0.000717245640962,-0.0028243307945000004,-0.025319756391599998,6.43161344528,1.86235928535,3.4805467128800003,-0.168536111712,2.80848932266,0.123446315527,1493364.0,1521530384.0,655770087.0,,,,,,998608.5,1521530385.0,147013326.0,,1.963999968765,1.265000003205,-0.517999649048,-0.039499999955300014,-0.14699999988100002,-0.0279999999329,-10.0,-8.0,-4.5,2.0,72.0,114.5,116.0,118.5,146.0,161.0,5.0,-0.3200000524550002,0.03999999724399994,-0.46999931335465,0.006500000134149996,0.002999998628999995,-0.015499999280959999,2.3928736953360956,0.1547683751860344,7.5464057032322085,2.816248513406339,0.01046891888921422,0.025486885833232137
8,8,57.3510128205,5734.5,1521530385.0,259895562.5,,1493022.0,1521530384.0,767681945.0,,0.7639087336570001,-0.131129305908,-0.011126207895,0.877669790207,-0.4723300879640001,0.0620006939783,0.052497059990999996,0.010474868176299999,-0.00471935941044,0.00111136749649,0.01504725295,-0.028169548853500002,-0.0287513837739,6.48047351837,2.05368423462,3.24460911751,-0.288036286831,2.7731916904400005,0.0888013988733,1493375.0,1521530384.0,765744362.0,,,,,,998619.0,1521530385.0,252753843.0,,2.1889999926100003,0.5199999928475,-0.068000793457,-0.05700000002980001,-0.1359999999405,-0.0259999996051,-11.5,-8.0,33.0,35.0,57.0,110.5,113.0,117.5,147.5,156.5,5.0,0.22500002384500029,-0.7450000103575,0.449998855591,-0.0175000000745,0.010999999940500022,0.0020000003278000038,2.2509431507967417,0.1497364350005649,7.532704977844984,2.789523748401994,0.01154254539813578,0.04297191376777496
9,9,57.4535769231,5746.5,1521530385.0,380237459.5,,1493034.0,1521530384.0,887678737.0,,0.764029479681,-0.130295651322,-0.011221715858100001,0.8777681556970001,-0.472235337889,0.0618635626778,0.051862800792699996,0.028829769347700002,0.00801536553056,0.0160271785827,0.00604866913938,-0.0518960238934,-0.003952120346239999,6.17212915421,1.77895855904,3.4528288841199988,-0.153968334198,2.7011408805799997,0.143501907587,1493387.0,1521530384.0,885766504.5,,,,,,998631.5,1521530385.0,377858212.5,,1.75400004983,-0.07500000596060001,0.392000198364,-0.06499999947849999,-0.145499996841,0.0019999999203700004,-4.0,1.5,14.0,23.0,78.0,114.0,119.0,127.0,149.5,169.0,5.0,-0.4349999427800004,-0.5949999988081,0.46000099182099996,-0.007999999448699979,-0.009499996900500018,0.027999999525470002,1.7988344368549172,0.15937141843071329,7.292592073744704,2.709328533448336,0.033945134239708484,0.05239659291913164
10,10,57.556141025600006,5754.5,1521530385.0,459266066.0,,1493042.0,1521530384.0,967678271.0,,0.7639087180485,-0.129809871323,-0.01138558738865,0.8782247850630001,-0.471419561575,0.0617629496025,0.051673592892150004,-0.0003678617547150003,-0.0005794965660350005,0.0006567391918250003,-0.002132848957145,-0.004534319695570001,0.019786094157349998,6.3477332592,1.90509569645,3.417494535445,-0.1640189513565,2.7632855176950004,0.128074862063,1493395.0,1521530384.0,965760007.0,,,,,,998639.5,1521530385.0,457507994.0,,2.47400007844,-0.6599999845025,-0.892999649048,-0.030500001274050007,-0.167999997735,0.002500000060535,-7.0,-3.5,2.0,3.5,59.0,108.0,112.5,114.5,143.5,152.0,5.0,0.7200000286100001,-0.5849999785419,-1.284999847412,0.03449999820444999,-0.022500000893999974,0.0005000001401649994,2.7117752010194867,0.17076445566036197,7.456700077271621,2.7711102899378557,0.0009499710030876266,0.02041074770259895
11,11,57.6587051282,5763.5,1521530385.0,549456476.5,,1493051.0,1521530385.0,57706554.0,,0.763803277585,-0.130425946139,-0.011636155757899998,0.877885915615,-0.472020974179,0.061690133216000004,0.0520273636116,-0.01051917071,0.00543324540746,-0.0083102496278,0.00107838884397,0.0160279677378,-0.00155340813172,6.7059998512300005,2.18481016159,3.40931677818,-0.341646134853,2.9021241664899997,0.107183754444,1041958.5,1521530385.0,65367127.5,,,,,,998648.5,1521530385.0,547505300.0,,2.52899990678,0.9300000041725001,-0.612998962402,-0.0405000001192,-0.167499996722,-0.014999999664700003,-4.0,3.0,8.0,31.0,55.5,121.0,130.0,133.0,150.0,157.5,5.0,0.05499982834000017,1.5899999886749998,0.280000686646,-0.009999998845149993,0.0005000010129999899,-0.017499999725235003,2.7634232871856654,0.17297831916591805,7.833726465792852,2.9241298049850624,0.014464900862437914,0.016139137186555248
12,12,57.761269230799996,5777.5,1521530385.0,689892411.0,,1493067.5,1521530385.0,222688063.5,,0.7643277570435001,-0.13029821216300005,-0.0108951907628,0.8779115110735001,-0.471907545206,0.06235527568475,0.0518300969102,0.006138854252145,0.0062583675207082,0.0054798034414265005,0.00364815493678,-0.015859163782375,0.019000742773375,5.995000362395,1.8441246151900001,3.59261393547,-0.17771822959199998,2.60857486725,0.1448042169215,590518.0,1521530385.0,217999872.0,,,,,,998662.5,1521530385.0,689155829.0,,1.9389999926099997,0.2900000333785,-0.9279994964605001,-0.030500000342700007,-0.158000007272,-0.0185000002384,-11.5,-10.0,0.0,14.0,44.0,106.0,107.0,121.0,148.0,156.0,5.0,-0.5899999141700003,-0.6399999707940001,-0.3150005340584999,0.009999999776499995,0.009499989449999996,-0.0035000005736999986,2.1691021313280876,0.16197685738301493,7.228257039618825,2.6186284326753806,0.010338323912027702,0.025017000944535888
13,13,57.8638333333,5784.5,1521530385.0,759717464.0,,1493074.5,1521530385.0,292678393.0,,0.7637922141425,-0.1299290888865,-0.011465131090799998,0.8780608646885,-0.4717094714095,0.061718950817499986,0.05186286238469999,-0.0027201161121399994,0.0006159977305249999,-0.00249300919553,-0.00383185428668,0.005873721946325001,0.01345865511411,5.884485721590001,1.5219051837900002,3.6372165679900004,-0.01970824599268,2.57929778099,0.17122180014850005,1493427.5,1521530385.0,290735844.0,,,,,,998669.5,1521530385.0,758579066.5,,2.769000154735,0.4249999940395,-0.898000717163,-0.02799999993295,-0.159999996424,-0.025499999523150005,-13.5,-12.0,-5.5,-3.5,12.0,111.5,115.0,129.0,160.0,164.0,5.0,0.8300001621250002,0.134999960661,0.029998779297499945,0.0025000004097500035,-0.0019999891520000035,-0.006999999284750005,2.9418348253906594,0.16442095008728622,7.083269863453207,2.5850497795644363,0.003740799341923156,0.015176268126836949
14,14,57.9663974359,5797.5,1521530385.0,898799538.5,,1493088.5,1521530385.0,432683622.5,,0.764020537793,-0.1304820332625,-0.01122510612595,0.877837286928,-0.472105447446,0.0618459736936,0.05189460666435,0.016144781362649997,5.216271725999935e-05,0.007426106940125,0.01168153069729,-0.030390716718200005,-0.00214961265509,6.587097406390001,2.17662894726,3.5516793727900002,-0.2262241691353,2.87443959713,0.121901847422,1041985.0,1521530385.0,437865562.5,,,,,,998683.5,1521530385.0,897387701.5,,2.15900002122,0.950000001864,-0.41300010681149996,-0.05749999918045001,-0.140500001609,-0.03050000034275,-16.0,-14.5,-12.0,-5.5,9.0,117.5,118.0,126.0,149.0,161.0,5.0,-0.6100001335149998,0.5250000078244998,0.4850006103515,-0.029499999247500013,0.019499994815000005,-0.0050000008195999965,2.394650325913132,0.15484427783676252,7.793714915393173,2.885903746256054,0.017770868028405797,0.03262935268503703
15,15,58.068961538500005,5802.5,1521530385.0,962796926.0,,1493095.0,1521530385.0,497673055.0,,0.764424662642,-0.131160914211,-0.010908455406899999,0.877710052471,-0.472313981007,0.0619831289289,0.0519871028739,-0.00193624100876,-0.0178954699312,0.00874382376614,-0.0203951582422,0.019489724268099997,-0.023022468406700004,8.42409610748,2.7342839241,4.81522655487,-0.491920560598,3.7603807449300004,0.0082346200943,1041988.5,1521530385.0,500382776.5,,,,,,998689.5,1521530385.0,957970741.5,,1.179000002145,-0.8250000059604999,0.006999969482445001,-0.05900000035765,-0.1435000002385,-0.0030000001424950002,-9.5,-6.0,0.5,4.5,43.0,118.0,128.0,129.5,138.0,161.0,5.0,-0.9800000190750002,-1.7750000078244998,0.4200000762939449,-0.0015000011771999847,-0.002999998629499984,0.027500000200255,1.4389979202436292,0.1551845678909703,10.08107685618836,3.792428904244278,0.020011280002933396,0.036412166693406814
16,16,58.171525641,5816.5,1521530386.0,100486516.5,,1493108.5,1521530385.0,632539331.0,,0.758783846611,-0.13479516109,-0.005616879800265001,0.8815252598805,-0.464970251424,0.05504523287185,0.0607057183424,-0.05837795631680001,-0.05876308943225,0.060138567574449985,-0.09123961346814999,0.1992862918205,0.01182932148951,6.205950736995,0.000543534755999997,8.082383632660001,1.1124525368235,3.3424475193000003,0.3674845546485001,1041997.5,1521530385.0,623869253.5,,,,,,998703.5,1521530386.0,97897268.0,,1.7540000498299997,0.7350000113249999,-0.392997741699,-0.03649999946355,-0.1494999974965,-0.0530000012368,1.5,6.0,8.0,25.0,75.0,127.0,132.5,142.0,149.0,165.0,5.0,0.5750000476849997,1.5600000172854998,-0.39999771118144495,0.022500000894099998,-0.005999997258000017,-0.050000001094305004,1.9419547925819247,0.16276209430759198,10.190130030128618,3.541828759816738,0.10236080193734079,0.21949857862930475
17,17,58.274089743599994,5825.5,1521530386.0,190483450.5,,1493116.0,1521530385.0,707381382.0,,0.755483714675,-0.138409157587,8.77233834707e-05,0.881352087594,-0.4651945916570001,0.0506651358866,0.0651577592621,-0.011382858871500002,-0.0322135735604,0.107215334192,-0.012801895802200002,0.06915292490069999,-0.022856637889099998,9.813899040219999,1.12716817856,7.8237357139600014,0.8630177974700001,4.4602470397900005,0.16995596885699998,1493469.0,1521530385.0,705489804.0,,,,,,998712.5,1521530386.0,187351291.0,,2.8139999926050003,1.3499999985100002,0.31699943542449993,-0.0530000012368,-0.1404999941585,-0.01849999977275,-7.5,-2.0,17.0,17.5,161.0,132.0,136.0,147.5,154.0,168.0,5.0,1.0599999427750006,0.6149999871850003,0.7099971771234999,-0.01650000177325,0.009000003337999996,0.03450000146405,3.1371299935478274,0.15129936708800565,12.601347665876158,4.546150944046574,0.11252738192778694,0.07394891110791071
18,18,58.3766538462,5836.5,1521530386.0,300475596.5,,1493127.0,1521530385.0,817383873.5,,0.7573782085704999,-0.1420124360235,0.010757458883530002,0.8808887910555001,-0.46621770262900003,0.0497467056193,0.0648154302155,0.05333055793715,-0.034891516337399994,0.12606018844550002,0.02825300687725,-0.08137643314889999,-0.03024410703846,7.324131011964999,0.6661034077404999,8.052577733995,1.0303986370554998,3.568224549295,0.369256451726,1042010.5,1521530385.0,815220796.0,,,,,,998723.5,1521530386.0,298220262.0,,2.52400003076,0.334999990463,-0.08300018310549998,-0.0634999983013,-0.1539999991655,-0.01850000023845,-5.5,-4.0,1.0,7.0,54.0,120.0,121.0,133.0,155.0,157.0,5.0,-0.28999996184500043,-1.015000008047,-0.3999996185299999,-0.0104999970645,-0.013500005006999992,-4.657000028662762e-10,2.5474870322108094,0.16760220623864636,10.905530569039867,3.7323314580270885,0.1412541589940832,0.09129656225837395
19,19,58.4792179487,5846.5,1521530386.0,401913523.0,,1493136.5,1521530385.0,912380747.0,,0.7643872512650001,-0.14548153071800002,0.0233393214525,0.879260450034,-0.4692210107835,0.05495180364495,0.06092973460615,0.07715186205005001,-0.0616189941932,0.13143475411299999,-0.016761657951560004,-0.17057121781450002,-0.1145267252765,6.594490528109999,0.406611427665,3.9837995767549996,1.021521776912,3.1865007877350005,0.4287883490325,1493490.0,1521530385.0,915459853.0,,,,,,998733.5,1521530386.0,399237680.0,,3.054000002145,0.5300000131106999,0.3170013427735,-0.05900000035765,-0.13000000268200002,-0.039499999955300014,-5.5,-5.0,5.5,14.0,125.0,119.0,120.0,130.5,156.0,170.0,5.0,0.5299999713850001,0.1950000226476999,0.400001525879,0.004499997943650004,0.023999996483499986,-0.020999999716850005,3.1158154435587493,0.14812579362147368,7.715134298649219,3.373596516954457,0.16439101207765688,0.20613554843006968
20,20,58.5817820513,5856.5,1521530386.0,500535964.5,,1493146.0,1521530386.0,7380421.0,,0.774473916121,-0.148715979049,0.0349077622221,0.8764049649150001,-0.47426789746200004,0.0630911659972,0.054806967455199994,0.0956352695902,-0.04356921898609999,0.10872539513900001,0.031138698434900008,-0.18613833061700005,-0.13113139421199999,7.43559932709,5.3212647438,3.3794531822200002,-1.28760075569,3.4164566993700003,0.07222080230710001,1493499.0,1521530386.0,5436424.0,,,,,,998743.5,1521530386.0,498745847.0,,2.133999925855,0.474999976158,0.19700050354,-0.042500000447050004,-0.125999998301,-0.0219999994151,-2.5,15.0,20.0,39.0,49.0,117.0,120.5,124.5,140.5,172.0,5.0,-0.9200000762899999,-0.055000036952699886,-0.12000083923350001,0.016499999910600003,0.004000004381000011,0.017500000540200008,2.195083109883145,0.1347822302238528,9.748061327127925,3.6517540893397378,0.1512137334397265,0.22980978920204032
21,21,58.6843461538,5863.5,1521530386.0,570498466.0,,1493153.0,1521530386.0,77373636.0,,0.7820913437235001,-0.151065313357,0.04113721724585,0.8746914485825,-0.4769167603235001,0.06983226157505,0.05087002963005001,0.09768259063864998,-0.0474942281134,0.0643031017315,-0.009211071201395,-0.2309257738495,-0.0350361356313,3.9121172428105004,2.222682476045,3.0521450042750002,-0.08343118429149997,2.7938470840450003,0.338458433747,1042029.5,1521530386.0,81724572.0,,,,,,998750.0,1521530386.0,563492595.5,,2.97900019288,0.35000000596040004,0.0670013427732,-0.0534999994561,-0.118499998003,-0.035000000148999996,0.0,9.0,13.0,31.0,58.0,130.0,133.5,137.0,159.0,181.5,5.0,0.8450002670250001,-0.12499997019759995,-0.1299991607668,-0.010999999009049998,0.007500000298000006,-0.013000000733900004,3.000238546063424,0.13464582978668038,5.436963108016607,2.8155099720856085,0.1262239244765325,0.23375005381954983
22,22,58.786910256400006,5875.5,1521530386.0,692419052.0,,1493167.5,1521530386.0,222385994.0,,0.782915677298,-0.152844187003,0.0434016646552,0.873817732495,-0.4784432709215001,0.07045034320915,0.0507074617777,-0.0059504246975100004,0.005062126510442499,-0.015200439764749999,0.02013626855891,0.01270311182241,-0.0006875768179849999,5.126064300535,2.11249864101,4.00630438328,0.14199388027215,2.5864200592050004,0.34969741105999996,1493521.0,1521530386.0,225473350.5,,,,,,998762.5,1521530386.0,690397880.5,,1.623999935385,2.35000000596,0.457000732422,-0.0634999983013,-0.1539999991655,-0.049499999731800005,0.5,3.5,5.5,14.5,48.0,129.5,133.0,136.0,167.5,180.0,5.0,-1.355000257495,1.9999999999996,0.3899993896488,-0.009999998845200005,-0.0355000011625,-0.014499999582800004,2.8928749519425705,0.17377715471455765,6.840296816145993,2.6138131654720094,0.017090525092291774,0.023818293879491675
23,23,58.889474359,5887.5,1521530386.0,813559889.0,,1493180.0,1521530386.0,347376858.5,,0.7811441132435,-0.151616344712,0.040921228894,0.8743297453554999,-0.4777628631615,0.06839403362774997,0.05110987054365,-0.0253451793205,-0.0012705279567650002,-0.0202044748735,-0.011300374461105,0.05675484081755,0.0030081103184500003,6.408674478529999,2.02455854416,6.182888746265,-0.018637008965,3.02013504505,0.2076404988765,1493532.0,1521530386.0,335439312.0,,,,,,998774.5,1521530386.0,809342228.5,,2.238999944925,-0.775000053644,0.1920013427735,-0.03099999949335,-0.1294999942185,-0.0010000000474950001,-11.0,-4.0,8.5,30.5,61.0,120.0,124.0,127.5,171.0,172.0,5.0,0.6150000095400001,-3.125000059604,-0.2649993896485,0.03249999880795,0.024500004947,0.048499999684305004,2.3771012498732955,0.13316248897972066,9.132253780923053,3.0273218535887474,0.03243783533146309,0.05794703742966157
24,24,58.992038461499995,5898.5,1521530386.0,921461939.0,,1493190.5,1521530386.0,452376422.0,,0.7804443591405001,-0.15135535901,0.040425637752050006,0.8744739835234999,-0.4775212312505,0.06795834956635,0.051481116634400005,0.010329297877775,0.008083541741199997,0.01457924780156,0.003823995812599997,-0.033051064608,0.015495595100500003,5.3289709091200015,1.6333162784550002,5.4004633426650015,0.187928259373,2.6684409379950003,0.32596154511,1042055.5,1521530386.0,448244514.5,,,,,,998785.5,1521530386.0,918327598.0,,0.963999968768,1.745000001785,-0.2280006408695,-0.05750000104305,-0.14449999481450002,-0.035000000149,-10.5,-9.0,-8.5,21.0,31.0,130.0,139.5,156.0,168.0,176.0,5.0,-1.2749999761570003,2.520000055429,-0.42000198364299995,-0.026500001549700003,-0.015000000596000013,-0.034000000101504994,2.0065655330068983,0.1594098448395559,7.76084127728314,2.6948367295866182,0.01961103026841838,0.03670298738816246
25,25,59.0946025641,5906.5,1521530386.5,500597476.5,,1493198.0,1521530386.0,527378388.0,,0.780678777983,-0.150287901864,0.0409397638557,0.8747004146420001,-0.477114186656,0.0682835314402,0.0509764342673,0.00428283600078,-0.006224322743149999,-0.0069845536793299995,-0.00131327712362,-0.00304451913809,0.0049160536013400005,5.29487800598,1.79393482208,4.9596738815300005,0.08892273902889998,2.65900993347,0.31110250949900004,590570.0,1521530386.0,532000000.0,,,,,,998793.5,1521530386.5,498841973.5,,0.9339999973775,0.339999985695,0.08200073242205,-0.04799999855459999,-0.13499999791349998,-0.024999999441200002,-12.0,-6.0,-3.0,25.0,112.0,127.0,134.5,154.0,169.0,169.0,5.0,-0.02999997139050004,-1.40500001609,0.31000137329155,0.009500002488450015,0.009499996901000035,0.010000000707799998,0.9973365056446709,0.14544414484587065,7.473439653547275,2.678623872667664,0.010289259833433782,0.005929702909663171
26,26,59.1971666667,5915.5,1521530387.0,91076492.5,,1493207.0,1521530386.0,617379049.0,,0.780172290098,-0.150479127511,0.0402502639249,0.875073614848,-0.476386309614,0.0681173228643,0.0515973151872,-0.0036848525524600002,0.000765595171968,-0.015825802713600002,-0.00527391366732,0.0041456775119,0.0257805602703,5.7955908775300005,1.7798411846200002,5.09362745285,0.129595592618,2.87976121902,0.289053112268,1042067.0,1521530386.0,624232003.0,,,,,,998802.5,1521530387.0,90688546.0,,2.1190000593700002,1.1650000035769998,-0.1730003356935,-0.05700000002980001,-0.1314999982715,-0.0635000001639,-23.0,-19.0,-13.0,13.0,122.0,123.0,136.0,139.0,156.0,164.0,5.0,1.1850000619925,0.8250000178819998,-0.25500106811554996,-0.009000001475200019,0.003499999641999985,-0.0385000007227,2.4243175072779843,0.15675936836316037,7.918443590163768,2.897131581048639,0.016267154201964795,0.026639033301784597
27,27,59.2997307692,5928.5,1521530387.0,221189021.5,,1493218.0,1521530386.0,726838684.5,,0.7796083074054999,-0.150146202422,0.0397424648471,0.8748458188860001,-0.47694488412299996,0.0672247671416,0.051470137137350006,-0.002354965178589999,-0.003824040985995,-0.008196789736009999,-0.005342989718405,0.014711148507150003,-0.001617351583635001,5.682567358015,1.89589059353,4.6698970794650005,0.09710943698865,2.75600862503,0.301238551736,1042075.0,1521530386.0,733962242.0,,,,,,998815.5,1521530387.0,220558110.0,,2.0239999115450003,0.025000017881500025,0.387001037598,-0.05199999921025,-0.14999999851,-0.0415000002831,-22.5,-19.5,-14.0,-12.5,20.0,119.5,124.0,136.5,162.0,165.5,5.0,-0.09500014782499956,-1.1399999856955,0.5600013732915,0.0050000008195500096,-0.018500000238500014,0.02199999988080001,2.060817907028705,0.1640921981520246,7.595650838065745,2.7741230053917953,0.009346470586873951,0.015734714985518167
28,28,59.4022948718,5939.5,1521530387.0,330577492.0,,1493228.5,1521530386.0,831830100.5,,0.779267652965,-0.15012230643700006,0.0394459453844,0.8752089827249999,-0.476226339818,0.06725455799565,0.051905397867800004,-0.0038775196542015,0.004844355495462501,-0.0016683076395599993,0.0111226235679,0.0077903542485950016,0.005284614862065,5.976227045060001,2.046154737475,4.879887342455,-0.002529576420785,2.918761253355,0.2734147161245,1042082.0,1521530386.0,834943140.0,,,,,,998826.0,1521530387.0,323535459.0,,1.3740000546000002,0.194999974966,0.10700035095205,-0.05849999934435,-0.1264999993145,-0.0429999995977,-19.0,-17.0,-11.0,-7.5,140.5,121.0,124.0,127.0,153.5,163.5,5.0,-0.6499998569450001,0.16999995708449994,-0.28000068664595,-0.006500000134100001,0.023499999195500002,-0.0014999993146000007,1.3918872854442654,0.14585437845762347,7.9821888839371935,2.931540424390692,0.006425432998277308,0.014571531442925448
29,29,59.504858974399994,5949.5,1521530387.0,432059526.0,,1493238.0,1521530386.0,926829888.0,,0.777310979511,-0.150811676123,0.038111556273300005,0.875492873551,-0.47572899356299997,0.0658426962425,0.053468611326599996,-0.0162167530976,-0.00036637539509300004,-0.0103107468962,-0.0183643950034,0.028093458302700002,0.038628629020699995,6.4639968872099995,2.2888200283099995,4.121790409090003,-0.0808684378862,3.0915393829299997,0.23854860663400002,590586.0,1521530386.0,935000064.0,,,,,,998836.0,1521530387.0,423606133.0,,1.1639998972399999,-0.0800000011921,-0.027999877929700004,-0.039000000804699994,-0.126000002027,-0.0370000004768,-25.0,-21.5,-14.0,-1.0,89.0,129.0,137.5,151.0,163.0,183.0,5.0,-0.2100001573600001,-0.2749999761581,-0.13500022888175,0.01949999853965,0.0004999972874999982,0.005999999120899997,1.1670817255571884,0.13698905287961446,8.000694285892937,3.101783502790029,0.01922053104147091,0.051172887189070274
30,30,59.6074230769,5957.5,1521530387.0,512213468.0,,1493247.0,1521530387.0,16856445.0,,0.777134763745,-0.150026013295,0.0377269842694,0.8758999943770001,-0.475014413171,0.0659757133755,0.0529878512039,-0.026025543401399998,0.019237751076799998,-0.0245139978365,0.0112945491717,0.0424255752157,0.0605247278742,7.10022878647,2.39729189873,4.56884717941,-0.11360941827299999,3.4614772796599995,0.194439470768,590589.0,1521530387.0,22000128.0,,,,,,998844.5,1521530387.0,509168189.0,,0.7640000402930001,-0.2050000011923,-0.297998428345,-0.04450000077485,-0.1215000003575,-0.022999999579050003,-7.5,-5.0,-3.5,5.0,81.0,119.5,124.5,132.0,167.0,177.0,5.0,-0.399999856947,-0.12500000000019998,-0.26999855041529996,-0.0054999999701499935,0.0045000016695000145,0.014000000897749998,0.845295288850375,0.13142107949819334,8.776936926783538,3.4687950019156886,0.04059995154872726,0.07477124418933344
31,31,59.7099871795,5969.5,1521530387.0,631048082.5,,1493259.0,1521530387.0,136830185.0,,0.774946144612,-0.14938966605999998,0.035441575871900007,0.876438273574,-0.474149016173,0.063885838887,0.0543807196225,-0.0318847198997,0.0018423551732799999,-0.012090321465200001,-0.0223935821777,0.0659820696488,0.006919618028640001,7.45511293411,3.01515030861,4.0053935051,-0.41912227869,3.39109444618,0.153573259711,1042103.5,1521530387.0,141971755.5,,,,,,998856.5,1521530387.0,630206186.5,,0.929000002146,-1.3849999487399998,0.562002182007,-0.0495000015944,-0.155000001192,-0.0079999998561,-12.5,5.5,6.5,34.0,58.0,122.5,125.0,128.5,153.0,176.0,-0.5,0.16499996185299992,-1.1799999475477,0.860000610352,-0.0050000008195500096,-0.0335000008345,0.014999999722950004,1.7598614475513972,0.1629087183826059,8.98404237381717,3.4203464405678847,0.034149751226015,0.07002133354593282
32,32,59.8125512821,5979.5,1521530387.0,730619906.5,,1493269.0,1521530387.0,236832819.0,,0.7734076130665,-0.1480734058685,0.033837704493299994,0.8770902869974999,-0.4730174282855,0.0627530125155,0.05503746294050001,-0.003949768608454999,0.012025808864139998,-0.010260358168415,0.007307623555930002,0.0011650262087500012,0.027064859801087696,6.194473743435001,2.370263934135,4.616792440415001,-0.10574549436560003,3.09496998787,0.254254460335,1042110.5,1521530387.0,242446854.0,,,,,,998866.0,1521530387.0,724183011.5,,2.2990000069150005,-0.6800000250354999,-0.07299995422365,-0.047499999403950006,-0.1335000023245,-0.03199999965725,-7.0,-1.0,13.5,19.5,51.0,114.0,118.5,145.0,154.0,171.5,-1.0,1.3700000047690004,0.7049999237044998,-0.63500213623065,0.0020000021904499968,0.02149999886750001,-0.02399999980115,2.398568335311735,0.14526699742915028,8.08111554882368,3.1071959490825316,0.01629403880691724,0.02805824805925684
33,33,59.9151153846,5987.5,1521530387.0,810511469.5,,1493279.0,1521530387.0,336836003.5,,0.7728301593029999,-0.14715714451849998,0.03377578211045,0.8773288161795001,-0.4726509645575001,0.062246266837050014,0.05495905728835,-0.002313660887450001,0.02172872798125,-0.0016147679775299992,0.02397307394165,0.007208107572750002,0.00494646805829,7.093407869335,2.215826153755,4.085864067079998,0.019817359745505,3.2736186981200004,0.2416276037695,1042117.5,1521530387.0,342974242.5,,,,,,998874.0,1521530387.0,803789153.0,,2.07399998307,-0.769999939203,-0.427997589111,-0.0379999987781,-0.171000003815,-0.032999999821200006,-10.0,-10.0,-7.0,6.0,52.5,124.0,125.0,135.5,162.5,187.5,-1.0,-0.22500002384500029,-0.08999991416750007,-0.35499763488735003,0.009500000625850005,-0.037500001490500014,-0.0010000001639500072,2.253343687152897,0.17825263308031333,8.480601742745847,3.282583739576427,0.021911141503959328,0.02551730070449924
34,34,60.01767948720001,6000.5,1521530387.0,940705418.0,,1493292.5,1521530387.0,471834495.0,,0.7726164883215001,-0.1462409157615,0.0332346061214,0.8778962046280001,-0.4715413994675,0.06247097095335,0.055174604125600005,-0.0038163615819999993,0.0143510790818,-0.0026376413332550004,0.012219027945294999,0.0068106793351649965,0.01190376302777,7.223714113235,2.13196313381,4.529238939285,0.04797592014075,3.45458424091,0.229536831379,1042126.0,1521530387.0,471464925.0,,,,,,998887.0,1521530387.0,934737771.0,,1.38399992585,0.43999997973399996,-0.177997589111,-0.0599999986589,-0.119000002742,-0.0179999992251,-9.5,6.5,11.5,19.5,66.0,122.5,125.0,141.0,161.5,164.0,-1.0,-0.6900000572200002,1.209999918937,0.25,-0.0219999998808,0.052000001073000006,0.015000000596100006,1.4631264192297446,0.13448048357946818,8.788703986527876,3.4625339165727436,0.015082282265610146,0.018368167332525248
35,35,60.1202435897,6007.5,1521530388.0,10562419.5,,1493299.5,1521530387.0,541840648.5,,0.7719790682675001,-0.144397383012,0.0333102659274,0.8783913485200001,-0.470724558129,0.06188915513485,0.05492441414365,0.01191082707005,0.008435343684390001,0.0102406690936505,0.0077917160277,-0.023361066261550004,0.015274705734070004,7.739906072615,2.3305922746650003,4.24050855637,-0.07813664525724498,3.614653348925,0.17891938984349998,1042131.0,1521530387.0,536958094.5,,,,,,998894.0,1521530388.0,4919807.0,,1.7140000879799997,-0.639999943972,-0.23799896240200002,-0.0430000014603,-0.138999998569,-0.00499999988824,-19.0,-6.0,4.0,14.0,71.0,123.0,124.5,138.0,164.0,181.5,-1.0,0.3300001621299997,-1.079999923706,-0.060001373291,0.0169999971986,-0.019999995827000003,0.01299999933686,1.8450039934872875,0.14558502576381338,9.127963583421984,3.6199221422965366,0.017829585750994404,0.02897873169749287
36,36,60.222807692299995,6021.5,1521530388.0,150772571.0,,1493313.5,1521530387.0,682013559.5,,0.7721743103035,-0.1447267757085,0.033326552863950004,0.878205919683,-0.47103638829850003,0.06215664369065,0.0549144674277,-0.006500849432694999,-0.004773558070735001,-0.006727568930095001,-0.0023626343383049996,0.017336474265260002,-0.013680047677505,7.095688581469999,2.39742600918,4.256528139115,-0.099007718265,3.3794730901700003,0.219627045095,590615.0,1521530387.0,680000000.0,,,,,,998908.0,1521530388.0,143915516.0,,2.57399998307,0.7800000131129999,0.192001342773,-0.0460000000894,-0.141000002623,-0.0240000002086,-25.5,-22.0,-6.0,-4.0,91.0,122.0,123.5,154.0,168.0,170.5,-1.0,0.8599998950900005,1.419999957085,0.430000305175,-0.002999998629099998,-0.0020000040539999986,-0.019000000320360002,2.6964310576996544,0.15024313880481732,8.614782627192302,3.3880491339997376,0.010502765526775782,0.022209887109694418
37,37,60.3253717949,6028.5,1521530388.0,221174955.0,,1493318.0,1521530387.0,727190842.5,,0.771906135387,-0.1444788014905,0.03317763294425,0.8783360463784999,-0.4707775717925,0.06195785504610001,0.055274621936599995,-0.0033851739004215004,0.00642323786728,-0.001396181512021,0.007473105646815,0.00268940128492,0.0069085025141850005,7.243356704709999,2.27718234062,4.2362043857600025,-0.044720813632000006,3.4027434587450003,0.199302010238,1042144.5,1521530387.0,734625054.0,,,,,,998915.5,1521530388.0,219337292.5,,1.7639999210799997,-0.35499997735050004,0.2170009613035,-0.058999998495,-0.1374999955295,-0.004499999922705,-22.5,-19.0,-6.0,16.0,98.0,123.0,128.5,141.0,150.0,166.5,-1.0,-0.8100000619900003,-1.1349999904635,0.024999618530500037,-0.012999998405599995,0.003500007093499985,0.019500000285895002,1.8124045140905336,0.14969134441351933,8.69466522426431,3.4088684762672647,0.007393693924572742,0.010526518620526355
38,38,60.4279358974,6038.5,1521530388.0,320981025.5,,1493328.5,1521530387.0,832191000.5,,0.7719719495980001,-0.1438685137745,0.03311438544195,0.8784632219555,-0.4705423059495,0.06218508021665,0.05500275449425,0.00506201935335,-0.005803679098640001,0.005925649437255,-0.017721670486294996,-0.01322147622175,-0.005600351935435,6.7206196785,2.01471436024,4.398202180865001,0.0549968406558,3.2820191383350004,0.24966248869899998,1493682.0,1521530387.0,835273725.0,,,,,,998925.5,1521530388.0,319339738.5,,1.954000097515,1.4200000062600002,-0.5229988098145,-0.054999999702,-0.126000002027,-0.034500000067050014,-25.0,-22.0,-10.0,3.0,111.0,123.0,127.0,132.0,162.5,169.0,-1.0,0.1900001764350001,1.7749999836105004,-0.739999771118,0.003999998792999997,0.011499993502499998,-0.030000000144345007,2.4714457618840058,0.14174360826030377,8.28069956224499,3.2919607584451422,0.009716998109854776,0.02280852867038666
39,39,60.5305,6050.5,1521530388.0,440499424.5,,1493340.0,1521530387.0,947189216.5,,0.7720062514695001,-0.14391908687350002,0.0331714482483,0.878519377278,-0.4704321386,0.06218599565695,0.0550467737247,-0.0013440363306749998,-0.001259906703,-0.0005278751635610001,-0.011124173108445,-0.0013802135276969995,0.01684386184015,6.718307018280001,2.157569408415,4.2518026828750015,0.05005859583615,3.2369683980949997,0.26133079826850003,1493693.0,1521530387.0,945288796.0,,,,,,998937.0,1521530388.0,435669021.0,,0.19399998784045,0.8350000053625,-0.2880001068115,-0.05849999934435,-0.134500004351,-0.01549999974665,-21.0,-21.0,-19.5,-4.0,64.0,114.0,121.0,131.0,151.5,164.0,-1.0,-1.76000010967455,-0.5850000008975003,0.234998703003,-0.0034999996423499963,-0.008500002324,0.019000000320400008,0.9043257520168853,0.14748813879717285,8.238238950048828,3.2478860908914964,0.0019163639390113768,0.020232842074675274
