,Unnamed: 0,.header.seq,.header.stamp.secs,.header.stamp.nsecs,.header.frame_id,.endpoint_state.header.seq,.endpoint_state.header.stamp.secs,.endpoint_state.header.stamp.nsecs,.endpoint_state.header.frame_id,.endpoint_state.pose.position.x,.endpoint_state.pose.position.y,.endpoint_state.pose.position.z,.endpoint_state.pose.orientation.x,.endpoint_state.pose.orientation.y,.endpoint_state.pose.orientation.z,.endpoint_state.pose.orientation.w,.endpoint_state.twist.linear.x,.endpoint_state.twist.linear.y,.endpoint_state.twist.linear.z,.endpoint_state.twist.angular.x,.endpoint_state.twist.angular.y,.endpoint_state.twist.angular.z,.endpoint_state.wrench.force.x,.endpoint_state.wrench.force.y,.endpoint_state.wrench.force.z,.endpoint_state.wrench.torque.x,.endpoint_state.wrench.torque.y,.endpoint_state.wrench.torque.z,.joint_state.header.seq,.joint_state.header.stamp.secs,.joint_state.header.stamp.nsecs,.joint_state.header.frame_id,.joint_state.name,.joint_state.position,.joint_state.velocity,.joint_state.effort,.wrench_stamped.header.seq,.wrench_stamped.header.stamp.secs,.wrench_stamped.header.stamp.nsecs,.wrench_stamped.header.frame_id,.wrench_stamped.wrench.force.x,.wrench_stamped.wrench.force.y,.wrench_stamped.wrench.force.z,.wrench_stamped.wrench.torque.x,.wrench_stamped.wrench.torque.y,.wrench_stamped.wrench.torque.z,.tactile_values.tactile_values_0,.tactile_values.tactile_values_1,.tactile_values.tactile_values_2,.tactile_values.tactile_values_3,.tactile_values.tactile_values_4,.tactile_values.tactile_values_5,.tactile_values.tactile_values_6,.tactile_values.tactile_values_7,.tactile_values.tactile_values_8,.tactile_values.tactile_values_9,.tag,.delta_wrench.force.x,.delta_wrench.force.y,.delta_wrench.force.z,.delta_wrench.torque.x,.delta_wrench.torque.y,.delta_wrench.torque.z
0,53.785897,5378.5,1521533305.0,316401004.5,,1785021.5,1521533304.0,762457561.0,,0.7861504372904999,-0.1362251694935,-0.012017193497549998,0.020300396715599998,0.9969134996135,0.006599139931830001,0.07554965780405001,-0.0007460729190650003,-0.010428949596479,-0.0007760467647315,-0.002687683572475,0.007258092299365,-0.0137393773278,1.211503028865,-0.8212623596190001,-0.018381748348500003,0.42459912598099997,1.70144510269,0.47509966790700003,1785374.0,1521533304.0,755518700.0,,,,,,1290318.0,1521533305.0,310206043.0,,-4.01299999952,6.69599987268,-7.0400009155299985,-0.337000012398,-0.372999995947,-0.0410000011325,99.5,116.0,262.0,374.0,449.0,14.5,21.0,39.5,48.0,511.0,5.0,0.0,0.0,0.0,0.0,0.0,0.0
1,53.888461102600004,5386.5,1521533305.0,396406054.0,,1785029.5,1521533304.0,842447972.0,,0.7867263265054999,-0.13613791853649998,-0.011613655285100001,0.0202587505718,0.996866332109,0.00674918229065,0.07616709551520001,-0.01079245307486,0.0006606646531999992,-0.01116932701535,0.003867089512525,0.027638903986825003,-0.011363745204825,1.199383080005,-0.7170348465445,-0.05493367277085,0.31490693986400004,1.6440908908849998,0.44475573301349997,1245702.0,1521533304.0,837769043.0,,,,,,1290326.5,1521533305.0,393840316.5,,-3.422999995945,5.386000049114998,-7.035001754765,-0.365000009537,-0.348999992013,-0.019999999553,109.0,147.5,236.0,366.5,395.0,49.5,52.5,57.0,76.5,568.5,5.0,0.5900000035749997,-1.3099998235650014,0.0049991607649984005,-0.027999997139000032,0.02400000393399998,0.021000001579499997
2,53.9910252051,5396.5,1521533305.0,496394037.5,,1785039.5,1521533304.0,942448160.0,,0.7865106874794999,-0.1360330310445,-0.011885621522849998,0.0202259989813,0.996882705179,0.006925412524665,0.07594459459325001,0.008330436033600001,0.006198273216995,0.011760085000900002,0.0012966572299849995,-0.0240207060619,0.01701550438241,1.14751923084,-0.8109435141085001,-0.044820532202699985,0.3338176608085,1.648627519605,0.433182537556,1245709.0,1521533304.0,938269769.5,,,,,,1290336.5,1521533305.0,493936213.0,,-4.70299999714,5.166000020505,-7.920000076295,-0.357500001788,-0.34950000047700003,-0.01150000002234,116.0,126.0,273.5,383.5,414.5,77.0,80.0,97.0,103.0,579.5,5.0,-1.280000001195,-0.22000002860999857,-0.8849983215299995,0.007500007749000004,-0.0005000084640000013,0.008499999530660001
3,54.09358930770001,5408.5,1521533305.0,616400956.5,,1785051.5,1521533305.0,62446230.5,,0.7863391743504999,-0.136475715962,-0.0118850333905,0.02039145652385,0.996897807974,0.006615399149079999,0.07573044357889999,0.007220482578930001,0.006443067969588,-0.0023600263173085,-0.0020679157811600004,-0.010119214924955,0.009260908851471001,1.135386109355,-0.8333476781845001,-0.09485407546180001,0.356519848108,1.6359866857499998,0.447435617447,1785404.5,1521533305.0,60536285.0,,,,,,1290348.5,1521533305.0,615042435.5,,-2.572999972105,4.630999934669999,-7.889999389644999,-0.358000010252,-0.3570000082255,0.011500000488025,100.5,133.5,249.5,424.5,436.0,110.5,118.0,123.0,158.0,641.5,5.0,2.130000025035,-0.5350000858350006,0.03000068665000022,-0.0005000084640000013,-0.0075000077484999594,0.023000000510365
4,54.1961534103,5420.5,1521533305.0,736446976.5,,1785060.5,1521533305.0,152517231.5,,0.7866791723309999,-0.136643906351,-0.0115137722894,0.02034396862645,0.9968721855225,0.0064535387272100005,0.07609138774275001,0.006666370483050001,-0.005278581145815001,0.006022056591591001,-0.005478428185807499,-0.0180417488707,-0.012535746507309998,1.259251117705,-0.6424117982385,-0.202400304377,0.24893526732949997,1.675515294075,0.414907082915,1245724.0,1521533305.0,155299005.5,,,,,,1290360.5,1521533305.0,733135363.0,,-3.667999970915,6.516000044349999,-8.115001678469998,-0.358000010252,-0.3470000028615,-0.033999999985100005,88.0,134.0,229.5,391.0,444.5,-20.5,-15.5,-10.0,-3.5,482.0,5.0,-1.09499999881,1.88500010968,-0.2250022888249985,0.0,0.010000005363999975,-0.045500000473125
5,54.298717512799996,5430.5,1521533305.0,836413502.0,,1785071.0,1521533305.0,257520102.5,,0.7862382268275,-0.13652883551150002,-0.011975395838599998,0.02026231147,0.996905974115,0.006460677680885,0.0756709490935,-0.00186521702465,-0.009794080309925,-0.00032971215553500086,-0.0055916326392399995,0.0017234752245000005,-0.008903520705080499,1.36900514364,-0.717196851969,-0.27111870050450004,0.280319109559,1.70921820402,0.4341057389975001,1785424.0,1521533305.0,255599394.0,,,,,,1290370.5,1521533305.0,834975146.0,,-2.5129999995200003,5.766000044345001,-7.649999618530001,-0.355499997735,-0.34950000047700003,-0.028999999165550006,104.0,129.0,241.5,398.5,431.0,-70.0,-58.5,-50.0,-49.0,398.0,5.0,1.1549999713949997,-0.7500000000049987,0.4650020599399971,0.0025000125169999943,-0.002499997615500016,0.005000000819549998
6,54.4012816154,5439.5,1521533305.0,926452517.0,,1785080.0,1521533305.0,347514137.0,,0.7864287939110001,-0.136280615621,-0.0116626929227,0.0199703267379,0.996888832371,0.00640732678384,0.07597886618689999,-0.00287046734691,-0.0132901909858,-0.00444157483183,-0.00963805088623,0.00839564162425,0.00779566236047,1.3780435323700002,-0.8341930508609999,-0.193224459887,0.39430564642,1.7537550926199998,0.487573593855,1245737.0,1521533305.0,346783934.0,,,,,,1290379.5,1521533305.0,923091336.0,,-3.93799995184,5.575999987125,-7.985000610355001,-0.3654999881985001,-0.34650000929849994,-0.029500001110100007,103.0,125.0,253.0,405.0,414.5,-75.0,-65.0,-59.0,-51.0,392.5,5.0,-1.4249999523199999,-0.19000005722000068,-0.33500099182499987,-0.009999990463500086,0.0029999911785000832,-0.0005000019445500006
7,54.5038457179,5450.5,1521533306.0,36509990.0,,1785091.0,1521533305.0,457516531.0,,0.7865220215355,-0.13681713322300001,-0.012035614775,0.019943185742299998,0.996896543326,0.006330256236914999,0.07589089184379999,-0.0020300833232235003,-0.01131315255777,-0.0040954134984679995,-0.008521443336405001,0.005799070622090001,-0.010444467011854999,1.418755531315,-0.7143436670300001,-0.1569629982115,0.300599306822,1.798843920235,0.4535747915505,1245745.0,1521533305.0,457292208.0,,,,,,1290390.5,1521533306.0,33425559.5,,-2.44299994707,6.676000130175001,-8.504999160765001,-0.352499991655,-0.386000007391,-0.020499999634900002,120.5,131.5,222.0,422.0,441.5,55.5,60.5,85.5,95.0,545.0,5.0,1.49500000477,1.1000001430500008,-0.5199985504100004,0.012999996543500092,-0.039499998092500044,0.009000001475200005
8,54.606409820500005,5461.5,1521533306.0,146485447.5,,1785101.5,1521533305.0,562513666.5,,0.7867057802375,-0.1368805195675,-0.0117840397622,0.020548310719150004,0.9968798142315001,0.006269703081645,0.07595388283345,0.00619576188174,-0.025111345339695,0.0005458797223055001,-0.019765809430255,-0.0011569837395515,-0.0178674074259,1.309457063675,-0.5712702870369999,-0.19289718568349998,0.16102050989849995,1.74691182375,0.39112380147,1245753.0,1521533305.0,568295301.0,,,,,,1290401.5,1521533306.0,143704829.0,,-2.497999984025,5.820999991890002,-8.495000839229997,-0.3569999933245,-0.378999993205,-0.03900000080465,97.0,109.0,232.5,393.5,446.0,144.5,152.0,158.0,209.0,683.5,5.0,-0.055000036954999665,-0.855000138284999,0.00999832153500435,-0.004500001669499987,0.007000014185999992,-0.018500001169749997
9,54.708973923100004,5468.5,1521533306.0,216790079.5,,1785111.5,1521533305.0,662520598.5,,0.786444027068,-0.1362765413555,-0.0120790446443,0.02014980894105,0.9969003909455,0.006504622683574999,0.0757711622932,0.0047012906668995,-0.00446956953902,0.00425760406887,-0.005572737529610001,-0.013450560687750001,-0.0008179244149499991,1.3900209069249998,-0.6532801538705001,-0.3442832529545,0.189945023507,1.7523119449649998,0.40720012784,1245759.0,1521533305.0,658786716.5,,,,,,1290408.5,1521533306.0,213510165.0,,-2.422999966145,6.29600001574,-7.770000457765,-0.377000004053,-0.3564999997615,-0.037499999627449994,92.5,127.0,201.5,393.0,409.0,138.0,144.5,154.0,183.5,657.5,5.0,0.07500001787999988,0.47500002384999807,0.725000381464997,-0.020000010728499995,0.02249999344350001,0.0015000011772000055
10,54.8115380256,5480.5,1521533306.0,336442947.0,,1785123.5,1521533305.0,782508382.0,,0.7865855685709999,-0.136858310584,-0.0117194124773,0.02024868801315,0.996897596946,0.006204696660775,0.07580671497260001,0.006673111576625,-0.021337303169400003,0.00792082682724,-0.005537688831775,-0.006459571054885001,-0.0242334713534,2.54920053482,-0.386981904507,-0.1779313907025,0.1615099646155,2.401631355285,0.4841201603415,1245767.5,1521533305.0,774287253.5,,,,,,1290420.5,1521533306.0,334891591.5,,-1.60799996853,6.450999987125,-7.934999465940001,-0.332000002265,-0.38750000298,-0.04649999924005,96.0,130.0,231.0,423.0,456.0,105.5,111.0,124.0,145.0,608.5,5.0,0.814999997615,0.1549999713850001,-0.16499900817500102,0.04500000178800001,-0.031000003218499994,-0.008999999612600007
11,54.9141021282,5492.5,1521533306.0,456571578.5,,1785135.5,1521533305.0,902513436.0,,0.781074295429,-0.1399484969865,-0.010651458799649998,0.02194322743905,0.9974344986045,0.002474468270325,0.06808964642794997,-0.08657150423514999,-0.03821087650205,0.011303959907105,-0.0864030107457,0.2309642676825,-0.050861357137749995,1.5186935663249999,-1.180973649025,3.10457289219,0.5998766422274999,3.2365330457700003,0.6731399893760001,1785488.5,1521533305.0,900565683.0,,,,,,1290432.5,1521533306.0,454221818.0,,-3.3929999742650003,6.720999968049999,-3.180000305175,-0.453500002623,-0.7335000038144999,0.002500000060539999,85.5,125.0,261.0,406.0,437.0,102.5,110.0,130.0,138.0,619.0,5.0,-1.7850000057350004,0.2699999809249993,4.754999160765001,-0.12150000035800002,-0.3460000008344999,0.04899999930059
12,55.0166662308,5500.5,1521533306.0,536586522.5,,1785143.5,1521533305.0,982513919.0,,0.7698913607885001,-0.144011364782,-0.01025520694035,0.020150132417650003,0.9983433329305,-0.003262064029635,0.053778925111949996,-0.1665174853645,-0.08448029667025,0.01253958415874,-0.15850874276799998,0.441785550053,-0.07707631397504999,3.49262905121,-0.458896562457,3.3785880804049997,0.6468789875505,3.4466372728350003,0.7029429674150001,1245781.5,1521533305.0,975285596.5,,,,,,1290440.5,1521533306.0,533659775.5,,-2.56299998164,5.590999972820001,-0.14500045776384998,-0.359999999404,-0.6504999995230001,-0.01649999991059,96.0,96.0,242.5,303.0,402.0,6.0,9.0,10.0,19.5,459.5,5.0,0.8299999926250003,-1.1299999952299986,3.03499984741115,0.09350000321899998,0.08300000429149978,-0.01899999997113
13,55.1192303333,5512.5,1521533306.0,657490968.0,,1785154.0,1521533306.0,87513690.0,,0.7497129315459999,-0.152980998821,-0.0100041307796,0.021859103928,0.999278173115,-0.0128198537295,0.0283013014231,-0.175924427048,-0.0786514933101,0.0186276970999,-0.148619087444,0.44860470908,-0.046388370542199985,7.6423258781399985,1.02562189102,4.46232700348,0.613473057747,3.99145483971,0.644250631332,1245789.5,1521533306.0,93859542.5,,,,,,1290452.5,1521533306.0,654566860.0,,-0.927999961376,4.731000077725,-0.6250019073484999,-0.2665000110865,-0.32800000906,-0.06000000052155001,150.0,153.0,232.0,323.0,358.0,37.0,37.0,43.0,84.0,369.5,5.0,1.635000020264,-0.859999895095001,-0.48000144958464996,0.0934999883175,0.3224999904630001,-0.04350000061096001
14,55.2217944359,5521.5,1521533306.0,746528387.0,,1785161.5,1521533306.0,162669387.0,,0.7383466298620001,-0.1577327229045,-0.00915350909292,0.0235403724972,0.9994658353665,-0.01745037184315,0.01443276932855,-0.132805468777,-0.056129231587699994,0.014235068189515,-0.08146757429724999,0.3228816440375,-0.07982536193345,7.932423830035,1.2532110214249998,5.485509395599999,0.8203373551365,3.652166843415,0.6107780635355,1785515.0,1521533306.0,165720980.0,,,,,,1290461.5,1521533306.0,744761318.0,,-2.417999956015,4.665999960895,1.72500038147,-0.1304999999705,-0.2405000030995,-0.0534999985248,126.0,142.5,166.0,265.0,283.0,-24.5,-14.5,12.0,75.0,149.0,5.0,-1.4899999946390001,-0.0650001168299994,2.3500022888184997,0.13600001111600002,0.08750000596049998,0.006500001996750007
15,55.3243585385,5533.5,1521533306.0,866486549.0,,1785174.0,1521533306.0,287661243.0,,0.731503853988,-0.162141566166,-0.006505596232959999,0.0246016123173,0.999497287798,-0.0193093520945,0.005203967525640001,0.00166467094003,-0.0103461932281,0.029924039138000007,0.035189563893800006,0.00828799803812,-0.00940136493012,6.35769891739,0.834635078907,7.412949085239999,0.960568189621,2.9166588783300003,0.596345305443,1245803.0,1521533306.0,290357353.0,,,,,,1290473.5,1521533306.0,865585770.0,,-0.5829999923704999,4.950999987125,1.1549987792945,-0.08200000226515,-0.2060000002385,-0.08100000023840001,99.5,114.0,125.5,191.0,207.0,-56.0,-54.5,-53.5,-41.0,34.0,5.0,1.8349999636445,0.28500002622999965,-0.5700016021754999,0.04849999770534999,0.03450000286100002,-0.02750000171360001
16,55.426922641000004,5540.5,1521533306.0,937142967.5,,1785181.0,1521533306.0,357667652.0,,0.73287480955,-0.16166812982200002,-0.00154083872459,0.0255180375942,0.99950888754,-0.0171574540774,0.00603616226103,0.0370012924546,-0.0291999614641,0.0883668492234,0.0365283197686,-0.0435785364747,-0.0912236131696,2.34705305099,1.04876613617,6.18944454193,0.371498465538,1.3839001655599998,0.547358393669,1785534.0,1521533306.0,355730608.5,,,,,,1290480.5,1521533306.0,934865755.0,,0.6220000505455001,5.016000044345001,-1.060001373293,-0.125500001013,-0.115499999374,-0.0484999995679,123.0,137.5,139.5,163.0,186.0,-109.0,-105.0,-103.5,-87.0,-51.0,5.0,1.2050000429160002,0.06500005722000068,-2.2150001525875,-0.04349999874784999,0.09050000086449998,0.03250000067050001
17,55.529486743599996,5553.5,1521533307.0,66437482.5,,1785193.5,1521533306.0,482677139.0,,0.7364539452869999,-0.1628352431565,0.008461516588845001,0.0267583792914,0.999432458176,-0.01789008894355,0.00991874778255,0.0389589667883,-0.01239174497609,0.08485630583179997,-0.05384104541745,-0.07865210061344999,-0.00020419534029999728,4.762614965440001,2.87830245495,1.53173583746,0.0430530682206,2.3139647245400004,0.5652828216555,1245816.0,1521533306.0,481367930.0,,,,,,1290493.0,1521533307.0,59813067.5,,0.28200001716615003,3.3910000145450003,-0.8200016021709999,-0.0705000013113,-0.15450000017850002,-0.0625,93.5,98.0,107.0,136.0,141.0,-37.5,-34.5,-30.0,-23.0,10.0,5.0,-0.3400000333793501,-1.6250000298000002,0.2399997711220001,0.054999999701699984,-0.039000000804500015,-0.0140000004321
18,55.6320508462,5563.5,1521533307.0,168869495.0,,1785204.0,1521533306.0,587662575.0,,0.7437948986290001,-0.15945739307700002,0.015579936323800003,0.026435982657699995,0.999378555326,-0.015366841331750002,0.01752602893415,0.1039885525745,0.05332336609165,0.0683422261379,0.0794536889644,-0.20622198170699998,0.020605876293700004,6.143247604369999,3.3018473386799996,3.443834543225,-0.6450057625769999,2.59692454338,0.3652006387715,1245824.0,1521533306.0,591872050.5,,,,,,1290503.5,1521533307.0,166102657.0,,-0.9979999542225,3.105999988315,-1.115001678468,-0.0515000000596,-0.14450000226499998,-0.07200000062584999,75.0,75.5,78.0,88.0,130.0,24.5,27.5,39.0,54.0,70.0,5.0,-1.27999997138865,-0.28500002623000054,-0.295000076297,0.019000001251700004,0.009999997913500036,-0.009500000625849991
19,55.7346149487,5570.5,1521533307.0,236439466.0,,1785213.5,1521533306.0,682684787.0,,0.753113239535,-0.15236879877499998,0.020167861704200003,0.0244615011273,0.999261229074,-0.01097639302525,0.027531144083950004,0.09135067162645,0.09600118700489997,0.04541084061145,0.118991102785,-0.2156911146605,0.0627137748304,2.8148102760350002,0.09001483768250003,2.82234799862,1.0398848950839998,1.7022141218200002,0.6860471665860001,1245830.5,1521533306.0,678859141.0,,,,,,1290510.5,1521533307.0,235878163.5,,-1.3930000543615002,2.825999987125,-0.435001373291,-0.05750000104305,-0.14400000125200002,-0.05399999953805001,71.5,81.0,88.0,90.5,145.0,85.0,88.5,96.0,114.5,128.0,5.0,-0.3950001001390002,-0.2800000011899999,0.6800003051769998,-0.00600000098345,0.0005000010129999621,0.018000001087799984
20,55.8371790513,5584.5,1521533307.0,376532435.0,,1785227.5,1521533306.0,822665367.0,,0.7561615301975,-0.144936247969,0.0242539330089,0.0210520408339,0.9992532652789999,-0.00783155325552,0.03142994406435,-0.0395074945124,0.0396653536967,0.01861660990205,-0.01683110221661,0.0709232568307,0.08453833851980001,1.5050866603850002,0.13179068267335,5.153483629229999,0.660078585148,1.231075406075,0.5490390062335,1245839.5,1521533306.0,814373732.5,,,,,,1290524.0,1521533307.0,370909716.0,,1.05700023174,1.94599999189,-0.950000762939,-0.0710000023246,-0.149000003934,-0.0430000014603,78.0,84.0,105.0,113.0,158.0,107.0,136.5,138.0,141.0,151.5,5.0,2.4500002861015,-0.8799999952349999,-0.5149993896480001,-0.013500001281550003,-0.005000002681999988,0.010999998077750005
21,55.9397431538,5591.5,1521533307.0,449111938.0,,1785234.5,1521533306.0,892666300.0,,0.7520930392020001,-0.1447360377785,0.02479298596065,0.020387787634999998,0.999379165022,-0.009867117382725,0.02698198457335,-0.06418520140555,0.0041224479420499975,0.01522779101036,-0.06310811625519999,0.141906729096,0.0461924453142,4.2265722751600014,0.46378546953199995,3.571652293205,0.3796143233775,2.0195503830900003,0.45422384142899996,1785587.5,1521533306.0,890734635.5,,,,,,1290531.0,1521533307.0,440725365.0,,0.597000074387,2.795999993385,-1.760000228885,-0.07649999856949999,-0.1090000011029,-0.04900000058115,79.0,82.0,92.0,102.0,154.5,112.0,142.5,151.5,155.0,167.0,5.0,-0.46000015735300004,0.8500000014950002,-0.809999465946,-0.005499996244899982,0.040000002831100015,-0.005999999120849996
22,56.0423072564,5603.5,1521533307.0,566498994.0,,1785246.5,1521533307.0,12665520.0,,0.7473656599265001,-0.144746113006,0.02308692839675,0.018931093473400003,0.99951585343,-0.0118637438036,0.02165378313725,-0.008155931649325002,0.007338451339714999,-0.03532356554935,0.02268421961475,0.0016060194969999971,0.013204464467735,5.523281335829999,0.7513838410375,4.700769424440002,0.394289791584,2.37097656727,0.4274694472555,1785599.0,1521533307.0,5755702.0,,,,,,1290542.0,1521533307.0,550557394.0,,-1.56300001144,3.10599995852,-3.06000137329,-0.0489999987185,-0.0439999997616,-0.0689999982715,76.0,84.0,84.0,129.0,150.0,125.0,136.0,139.0,140.0,154.0,5.0,-2.160000085827,0.30999996513499983,-1.300001144405,0.02749999985099999,0.06500000134129999,-0.019999997690349998
23,56.144871359,5615.5,1521533307.0,686677932.5,,1785256.0,1521533307.0,107661248.5,,0.7474128326630001,-0.145060625964,0.02169359505765,0.0193888048332,0.9995108507715,-0.01158194473835,0.0216327607806,-0.007402856005964999,-0.018876745912115,-0.013468712938335,-0.02465728207075,0.0056912916380695,0.006145188914734999,3.0407879352599996,0.072693169117,6.05756402016,0.665268331766,1.5837796926499998,0.47329029440849996,1245860.5,1521533307.0,109371935.5,,,,,,1290555.5,1521533307.0,685659238.0,,0.0519999980925,3.080999982355,-0.130001068115,-0.066499998793,-0.165500000119,-0.07349999994039999,101.5,104.5,120.5,130.0,161.5,129.0,142.5,149.5,151.0,159.0,5.0,1.6150000095325,-0.02499997616500016,2.930000305175,-0.017500000074500005,-0.12150000035740001,-0.004500001668899994
24,56.2474354615,5622.5,1521533307.0,756754994.0,,1785262.0,1521533307.0,167661213.0,,0.748354722283,-0.144734887115,0.022475067433000002,0.0189676886623,0.9994960809479999,-0.0109836716965,0.022953350227600002,0.012463069244865,0.0006395575724399997,0.006311986040095001,0.01691755090459,-0.032982822040200005,-0.007559343929856499,3.3234833478950003,0.3008637279273,5.053411245345,0.5987562835215,1.5185761451700002,0.457024589181,1245865.0,1521533307.0,177375770.5,,,,,,1290562.0,1521533307.0,750058143.5,,-0.1530000448225,4.2460000038149985,-0.934999465944,-0.06850000098345,-0.11949999630445,-0.07349999994039999,88.5,92.0,100.5,131.5,140.5,121.5,130.0,132.0,133.5,142.0,5.0,-0.20500004291499999,1.1650000214599987,-0.804998397829,-0.00200000219044999,0.04600000381455001,0.0
25,56.349999564099996,5635.5,1521533307.0,886430978.0,,1785276.0,1521533307.0,307667351.0,,0.749397286532,-0.145884960914,0.022949888870900003,0.0200825060667,0.999458000212,-0.010601125057899998,0.0238330633926,-0.0005556223754550001,-0.0100920818125,-0.00439770038487,0.0188139221542,0.0121653386959,-0.0523459308441,2.40346455574,0.458637654781,4.43209695816,0.454511225224,1.31082248688,0.4442476630210001,1785628.0,1521533307.0,295737491.0,,,,,,1290575.0,1521533307.0,879816631.0,,-2.15299992561,4.74600006342,-0.630001068115,-0.0599999986589,-0.143000006676,-0.07400000095369999,88.5,93.5,94.5,96.5,141.0,124.0,128.0,131.0,138.5,149.0,5.0,-1.9999998807875001,0.5000000596050018,0.30499839782899996,0.00850000232454999,-0.023500010371549987,-0.0005000010132999999
26,56.4525636667,5644.5,1521533307.0,976478457.0,,1785284.0,1521533307.0,387666539.0,,0.7490805761499999,-0.14812743596550002,0.022069743288099998,0.021405366834850004,0.999440826883,-0.010963094447350002,0.0232213043813,-0.016266958190375002,-0.01252682623865,-0.012067023298549999,-0.0032460311372499995,0.0361866916569,-0.009051495970145,4.50041818619,1.402520895005,4.43352341652,-0.017590414732700003,2.0512614846200004,0.369257301092,1245880.5,1521533307.0,400857153.0,,,,,,1290584.0,1521533307.0,969778651.0,,-0.592999863625,4.39599992037,-1.0400009155299998,-0.082000002265,-0.134000003338,-0.0949999988079,76.5,80.5,87.5,103.0,121.5,115.0,129.0,140.0,160.5,165.5,5.0,1.560000061985,-0.35000014304999993,-0.40999984741499984,-0.022000003606099994,0.009000003337999996,-0.02099999785420001
27,56.5551277692,5656.5,1521533308.0,96468448.5,,1785297.0,1521533307.0,517664548.0,,0.7495519354510001,-0.148532920761,0.0221156908826,0.0214686425753,0.99942658066,-0.011128375049999998,0.0237016143843,0.0052533114496000006,0.0184228836429,-0.00195476571113,0.0240981573654,-0.0229133429685,0.00385268826414,3.76417040825,1.4500396251700003,4.81496667862,-0.0021804869175,1.7860524654400003,0.362869054079,1245888.5,1521533307.0,518360719.0,,,,,,1290596.0,1521533308.0,89637736.0,,-0.673000025749,3.52600003481,-0.850002288818,-0.0430000014603,-0.167999997735,-0.105999998748,69.0,74.5,81.5,93.0,98.5,116.0,117.5,134.5,147.5,160.0,5.0,-0.08000016212399996,-0.8699998855600004,0.18999862671199985,0.039000000804699994,-0.033999994396999994,-0.010999999940099994
28,56.657691871800004,5663.5,1521533308.0,166605591.0,,1785303.0,1521533307.0,577683223.5,,0.749679220756,-0.1471377383735,0.0219995986662,0.0217204684699,0.9994219161345,-0.009945368915564998,0.024188659338700003,0.007921003790459999,0.007514613093100003,-0.0019778008354549995,0.012351615975955002,-0.021835565592675,0.015925525778735,4.261943340299999,1.338399469855,4.423971414564999,0.1084585152568,1.8682831525799999,0.383746296167,1245893.5,1521533307.0,583872684.5,,,,,,1290603.0,1521533308.0,159227733.0,,0.6469999074939999,3.37599993944,-0.659999847412,-0.035000000149,-0.152999997139,-0.08900000154969999,70.5,74.0,79.5,87.0,101.0,112.0,120.0,128.0,135.5,158.0,5.0,1.319999933243,-0.1500000953699998,0.19000244140599998,0.0080000013113,0.015000000595999985,0.016999997198300004
29,56.760255974399996,5677.5,1521533308.0,306536555.0,,1785320.5,1521533307.0,752667492.5,,0.7502975910735,-0.14661099824899998,0.021831815800050003,0.02115352087275,0.9994179051065,-0.009520298954785,0.0250140861667,-0.013042104486849998,0.0072186697275885,-0.006444348600665,0.007953822102394998,0.01879301391495,0.008874161619049999,4.528156757355001,1.05405241251,3.759891152385,0.2600777596235,2.05723750591,0.43580824136699997,1245904.5,1521533307.0,739857577.5,,,,,,1290617.0,1521533308.0,300635828.0,,-1.2729999899900002,2.3059999912999998,-1.3850021362315,-0.07000000029805001,-0.10699999704964999,-0.07750000059605,71.0,91.5,93.0,99.0,142.0,111.5,113.0,116.0,119.0,123.5,5.0,-1.9199998974840002,-1.0699999481400004,-0.7250022888194999,-0.035000000149050005,0.04600000008935001,0.011500000953649989
30,56.86282007689999,5687.5,1521533308.0,406414985.0,,1785329.5,1521533307.0,842668522.5,,0.7496248567795001,-0.147008228668,0.021079542833750003,0.021237206974700003,0.9994349018265,-0.009830751224565,0.0241260627086,-0.0008345957349300001,-0.014546249102900003,-0.0042153340632215,-0.0058601715618890006,0.0117203935868245,-0.028973706817450002,4.389022350309999,1.374070644375,4.245109319689998,0.06576950848115001,1.962603390215,0.379598408937,1245911.5,1521533307.0,840392875.0,,,,,,1290627.0,1521533308.0,400843340.0,,0.316999983788,2.61599997878,-0.520000457764,-0.0689999982715,-0.136999994516,-0.0630000010133,73.0,76.5,86.0,88.5,90.5,91.0,93.5,103.5,110.5,120.5,-1.0,1.5899999737780002,0.30999998748000035,0.8650016784675,0.001000002026550012,-0.029999997466350015,0.01449999958275
31,56.9653841795,5696.5,1521533308.0,496420502.0,,1785338.0,1521533307.0,927665876.5,,0.7497659217500001,-0.1466561594585,0.02108222447925,0.021066096846750003,0.9994403095975,-0.00953535704775,0.0241730860872,-0.002081849610765,-0.005989287961960001,0.0018013943093725005,0.004756927481759999,0.008546217423052501,-0.022135149617400002,4.0678479671500005,1.17110723257,4.18354845047,0.232054322958,1.86291831732,0.427561670542,1245918.0,1521533307.0,936357827.0,,,,,,1290636.0,1521533308.0,490451368.0,,0.177000117302,2.99600000381,-1.04999923706,-0.0480000004172,-0.125,-0.0960000008345,66.0,74.0,84.0,89.0,96.0,96.5,102.5,105.5,106.5,132.0,-1.0,-0.139999866486,0.38000002502999974,-0.529998779296,0.020999997854299998,0.011999994516000007,-0.0329999998212
32,57.0679482821,5707.5,1521533308.0,606401085.5,,1785350.5,1521533308.0,51740629.0,,0.7495928353870001,-0.1465686217205,0.02116468930435,0.02094735407775,0.999437161717,-0.00962119435841,0.024371755290900004,0.006060329429455,-0.0062280908287345,-3.67247763400011e-05,0.013444408545235,-0.017649765175750003,-0.027092119252415,4.4634089469900005,1.0608348548434998,3.82166349888,0.2789642065765,1.9450347423600003,0.422016710043,1245926.0,1521533308.0,45902552.0,,,,,,1290647.0,1521533308.0,601993304.0,,-0.23799996376,2.830999997255,-0.060001373291,-0.05949999950825,-0.134999997914,-0.08850000053644999,75.0,78.0,83.0,94.0,131.5,83.0,87.0,94.5,106.5,120.0,-1.0,-0.415000081062,-0.1650000065549997,0.989997863769,-0.011499999091050005,-0.009999997913999997,0.007500000298050008
33,57.1705123846,5718.5,1521533308.0,716461419.5,,1785358.0,1521533308.0,126867095.0,,0.750534002668,-0.145818782361,0.0205309353247,0.0208067037371,0.999418937616,-0.008612895277250001,0.0255868374351,0.0151467517945,0.00798952837032,-0.00544119219737,0.0292753900018,-0.035452001188,-0.011422937844799998,4.42981004715,1.2362626791,4.23473978043,0.126755699515,2.10150361061,0.417083144188,1785712.0,1521533308.0,134941562.0,,,,,,1290658.0,1521533308.0,710513380.5,,-0.7279999732960001,3.06099998653,-0.4300003051755,-0.06450000032785,-0.134000003338,-0.0954999998213,65.0,76.0,89.0,101.0,130.0,87.5,105.0,111.5,127.5,136.0,-1.0,-0.4900000095360001,0.22999998927499998,-0.36999893188449995,-0.0050000008195999965,0.0009999945760000017,-0.0069999992848500114
34,57.2730764872,5725.5,1521533308.0,786448955.0,,1785366.0,1521533308.0,206861439.5,,0.750275234951,-0.145907990413,0.0207189607011,0.02088492693435,0.999422265911,-0.008979304211364999,0.02525998593905,-0.0022181488592100005,-0.00473245322045,0.001136294121625,-0.008199507663055,-0.0013976594817000018,0.005438862402440001,3.99073982239,1.259384930135,3.9844000339499996,0.2049156576395,1.88484227657,0.4396657049655,1245936.0,1521533308.0,200969022.0,,,,,,1290664.5,1521533308.0,777815468.0,,-0.3029999017724999,3.8909999549400003,-0.12000083923345,-0.058999998495,-0.144000001252,-0.0799999982119,75.5,78.0,80.5,93.0,109.0,98.5,101.5,107.0,121.0,127.0,-1.0,0.42500007152350017,0.8299999684100001,0.30999946594204997,0.005500001832850002,-0.009999997913999997,0.015500001609400002
35,57.375640589700005,5735.5,1521533308.0,886448502.0,,1785376.0,1521533308.0,306879033.5,,0.7497031176525,-0.145996828024,0.0204498994972,0.0206004446364,0.9994355223575,-0.009260716354745001,0.02486428884465,-0.002332704020620002,-0.006535085502005,-0.004579731856860002,0.0047608887269575,0.0116968208806,-0.004829280931651,4.903584480285001,1.30721098185,4.142360210414998,0.37069854140249997,2.211151123045,0.50885745883,1245943.0,1521533308.0,300954340.5,,,,,,1290674.5,1521533308.0,877858770.5,,-1.15299998522,2.30099998489,-1.579999923705,-0.07650000229474999,-0.10199999809245,-0.050000000745050004,71.0,73.5,85.0,96.0,103.0,95.5,111.0,122.0,135.0,139.0,-1.0,-0.8500000834475,-1.5899999700500005,-1.45999908447155,-0.01750000379974999,0.04200000315954999,0.029999997466849997
36,57.4782046923,5746.5,1521533308.5,496497034.5,,1785386.5,1521533308.0,411862687.0,,0.7506101904504999,-0.145726402308,0.020837657505950003,0.02111951022475,0.999413856685,-0.00842745484206,0.02558764017275,-0.001820572271,0.00693239905768,0.0023165221719650014,0.008860824221095,-0.007997331230849995,0.0081892317030975,4.0973467826849985,1.03206348419,4.284422159195,0.43443059921300003,1.99280977249,0.5111307501794999,1245952.0,1521533308.0,421475969.5,,,,,,1290685.5,1521533308.0,988053675.5,,-0.6429999351505,2.99099997878,-0.3350009918215,-0.07099999859930001,-0.131999999285,-0.05350000038745,53.0,58.0,64.5,102.0,104.0,84.0,92.0,98.0,108.5,116.0,-1.0,0.5100000500694999,0.6899999938900003,1.2449989318835,0.005500003695449979,-0.030000001192550002,-0.003499999642399998
37,57.580768794899996,5756.5,1521533309.0,96481561.5,,1785396.5,1521533308.0,511858184.5,,0.7502512092829999,-0.14568787592250002,0.02079841131205,0.020953416254749998,0.999424319335,-0.008783886519405,0.0251952786855,-0.01023694652207,-0.01229885555924,-0.01069595110248,-0.008631803162299998,0.028350092284499997,-0.027099297196150004,4.585702896115,1.4127122163749999,3.7944244146350004,0.303394407034,2.060192227365,0.490538686514,706167.0,1521533308.0,519000064.0,,,,,,1290695.5,1521533309.0,87014858.5,,0.11199994087205,3.7909999609,-1.069999694823,-0.07650000229475,-0.1235000006855,-0.06449999846519999,60.5,68.5,74.0,87.0,115.0,94.0,96.5,103.5,114.5,116.0,-1.0,0.75499987602255,0.7999999821199997,-0.7349987030014999,-0.005500003695449993,0.0084999985995,-0.010999998077749991
38,57.6833328974,5766.5,1521533309.0,196481943.0,,1785409.5,1521533308.0,641861053.0,,0.7504563012909999,-0.14576561439000002,0.0202493296797,0.020958426024299998,0.999421703607,-0.008662388794230001,0.02533619605735,-0.0007521353308400005,0.00361957943966,-0.00164385596228,0.00876567359256,-0.00368265537085,-0.00952174338509,4.71824645996,1.282624065875,4.0396635532400005,0.34240329265600006,2.160291314125,0.4972561597825,1785762.5,1521533308.0,639965369.0,,,,,,1290706.0,1521533309.0,191736173.0,,-0.722999978065,4.83599997759,-0.770000457764,-0.0630000010133,-0.151999995112,-0.0860000029206,60.0,66.0,75.0,102.0,124.0,71.5,73.0,79.5,106.5,107.5,-1.0,-0.8349999189370501,1.0450000166900004,0.299999237059,0.01350000128145,-0.02849999442649999,-0.021500004455400012
39,57.785897,5779.5,1521533309.0,326423525.5,,1785422.5,1521533308.0,771869158.5,,0.7505874210925001,-0.14611747222350002,0.02039226095275,0.021397655093299998,0.9994082453615,-0.00857114457691,0.02552943502365,0.0003388426195049992,-0.004985893852099996,-0.0011448215820550006,0.000965595860300001,-0.00187113863385,-0.03568294173815,4.537088871,1.286943495275,3.9426237344749997,0.338049829006,2.1094905138,0.5067285895345001,1785774.5,1521533308.0,759925328.5,,,,,,1290719.0,1521533309.0,321029158.0,,-0.542999911308,4.40599991083,-1.08000183105,-0.0799999982119,-0.112000003457,-0.06499999761580001,63.0,67.0,68.0,99.0,102.0,74.0,78.5,94.0,111.5,115.0,-1.0,0.1800000667570001,-0.4300000667599999,-0.31000137328599997,-0.0169999971986,0.039999991655,0.021000005304799993
