,Unnamed: 0,Unnamed: 0.1,.header.seq,.header.stamp.secs,.header.stamp.nsecs,.header.frame_id,.endpoint_state.header.seq,.endpoint_state.header.stamp.secs,.endpoint_state.header.stamp.nsecs,.endpoint_state.header.frame_id,.endpoint_state.pose.position.x,.endpoint_state.pose.position.y,.endpoint_state.pose.position.z,.endpoint_state.pose.orientation.x,.endpoint_state.pose.orientation.y,.endpoint_state.pose.orientation.z,.endpoint_state.pose.orientation.w,.endpoint_state.twist.linear.x,.endpoint_state.twist.linear.y,.endpoint_state.twist.linear.z,.endpoint_state.twist.angular.x,.endpoint_state.twist.angular.y,.endpoint_state.twist.angular.z,.endpoint_state.wrench.force.x,.endpoint_state.wrench.force.y,.endpoint_state.wrench.force.z,.endpoint_state.wrench.torque.x,.endpoint_state.wrench.torque.y,.endpoint_state.wrench.torque.z,.joint_state.header.seq,.joint_state.header.stamp.secs,.joint_state.header.stamp.nsecs,.joint_state.header.frame_id,.joint_state.name,.joint_state.position,.joint_state.velocity,.joint_state.effort,.wrench_stamped.header.seq,.wrench_stamped.header.stamp.secs,.wrench_stamped.header.stamp.nsecs,.wrench_stamped.header.frame_id,.wrench_stamped.wrench.force.x,.wrench_stamped.wrench.force.y,.wrench_stamped.wrench.force.z,.wrench_stamped.wrench.torque.x,.wrench_stamped.wrench.torque.y,.wrench_stamped.wrench.torque.z,.tactile_values.tactile_values_0,.tactile_values.tactile_values_1,.tactile_values.tactile_values_2,.tactile_values.tactile_values_3,.tactile_values.tactile_values_4,.tactile_values.tactile_values_5,.tactile_values.tactile_values_6,.tactile_values.tactile_values_7,.tactile_values.tactile_values_8,.tactile_values.tactile_values_9,.tag,.delta_wrench.force.x,.delta_wrench.force.y,.delta_wrench.force.z,.delta_wrench.torque.x,.delta_wrench.torque.y,.delta_wrench.torque.z,.wrench_stamped.wrench.force.magnitude,.wrench_stamped.wrench.torque.magnitude,.endpoint_state.wrench.force.magnitude,.endpoint_state.wrench.torque.magnitude,.endpoint_state.twist.linear.magnitude,.endpoint_state.twist.angular.magnitude
0,0,55.923347,5590.5,1521530635.0,902322053.5,,1518088.5,1521530635.0,432067061.5,,0.7813624267929999,-0.1766018578215,-0.08962896873505,0.8926549250335001,-0.4471837362405,0.04225224712345002,0.0375307298336,0.006445556065,-0.003576198127688501,0.004220209850315,-0.015355457423,-0.01260182786545,0.008489363640870001,3.353338360785,0.7196440994734999,5.390657663344999,0.3132336586715,1.482462227345,0.3854043483735,1059428.0,1521530635.0,424574357.0,,,,,,1023657.5,1521530635.0,896078817.5,,2.312000030275,1.60799998641,-0.211000061035,-0.060999998822800015,-0.144000001252,-0.1019999980925,9.0,13.0,15.5,29.0,32.0,31.5,34.0,41.0,41.0,59.0,5.0,0.0,0.0,0.0,0.0,0.0,0.0,2.824097930675021,0.18671100617753525,6.389206197580371,1.5634404664631893,0.008493795218642653,0.021602440446554263
1,1,56.02591110260001,5600.5,1521530635.5,507455944.5,,1518098.5,1521530635.0,532065078.0,,0.781454681698,-0.17695121835250002,-0.089566059145,0.8926783118335,-0.44711260987949997,0.0423885404346,0.03766898856169999,-0.006332246351909999,0.005668415665065001,-0.00391414827695,0.006616286120715,0.015529146112050004,0.0002367114921500001,3.375480413435,0.646255344152,5.338883399965001,0.30604138970350003,1.4727305173899998,0.378290429711,1059435.0,1521530635.0,525075235.5,,,,,,1023668.0,1521530635.5,500055480.0,,4.08200007081,1.7779999732949998,-1.0109992980940001,-0.039499999955300014,-0.16850000619900002,-0.0630000010133,11.5,14.0,21.5,24.0,43.5,31.5,35.0,36.0,38.5,53.5,5.0,1.7700000405349994,0.16999998688499973,-0.7999992370589999,0.02149999886750001,-0.024500004947000026,0.038999997079199995,4.56575602325359,0.18417790913463958,6.34942437940245,1.5510319655875566,0.009356753536733904,0.016881518099124842
2,2,56.1284752051,5610.5,1521530636.0,115669011.5,,1518106.0,1521530635.0,607061100.0,,0.7819247888099999,-0.176560261365,-0.08918856130789997,0.892661251063,-0.447161651226,0.0426692396244,0.03717101712319999,-0.00288022561362,-8.2907117683e-05,0.00446239501943,-0.0243144693757,0.0030801991581400003,-0.00265089760145,3.1560850143400003,0.45390188694,5.449610710140001,0.42881631851199997,1.4345464706400002,0.390222012997,1518459.0,1521530635.0,605154132.0,,,,,,1023679.5,1521530636.0,116651445.0,,2.856999987365,1.3879999876000002,-1.2310005188000002,-0.048000000417250006,-0.1605000048875,-0.08899999782445,13.0,17.0,21.0,30.5,46.5,34.0,34.5,35.0,41.0,48.5,5.0,-1.2250000834449994,-0.3899999856949996,-0.22000122070600026,-0.00850000046195,0.008000001311500027,-0.02599999681115001,3.406516574253981,0.1896977891850499,6.3138860009333255,1.547281561602573,0.0053118304269760795,0.02465174042474553
3,3,56.2310393077,5620.5,1521530636.0,201970100.0,,1518116.0,1521530635.0,707060475.5,,0.7813795162795,-0.1770066212555,-0.08965714081064999,0.892790317769,-0.44685729994900003,0.042435050268699995,0.037989015883,0.01139330912129,0.0007078937096110001,0.011198645921705,-0.00018502876489500004,-0.0201394532917,0.0013076165898499995,3.300218343735,0.6361269056800001,5.482272624970001,0.3760216236110001,1.46332168579,0.3985100388525,1059448.0,1521530635.0,707583421.0,,,,,,1023687.5,1521530636.0,196193538.0,,3.3569999277600004,0.6230000019074999,-0.21599922180190004,-0.0530000012368,-0.153499998152,-0.07149999961254999,7.0,11.0,15.0,23.5,50.0,31.5,33.0,33.5,36.0,45.5,5.0,0.4999999403950004,-0.7649999856925003,1.0150012969981002,-0.005000000819549996,0.007000006735499997,0.017499998211900014,3.421145010252623,0.17743590253485753,6.4305063323933105,1.5625341175771368,0.01599119372395622,0.020182707342635067
4,4,56.3336034103,5632.5,1521530636.0,324764966.5,,1518127.0,1521530635.0,817064655.0,,0.781420772717,-0.176540417036,-0.08991188473339999,0.8925276896909999,-0.4474858226870001,0.041997571039300005,0.03724198779480002,0.00509034513134,-0.0179682838865,0.00192728183923,-0.022758190017800002,-0.0102483169997,-0.0192357941293,3.55629491806,0.661071777344,5.44821500778,0.373090803623,1.58372306824,0.37822479009599996,600432.0,1521530635.0,838000128.0,,,,,,1023700.5,1521530636.0,325818894.0,,2.5870000064400003,1.7780000030999998,-1.2259994506799998,-0.03800000064075,-0.15799999982149998,-0.0679999999702,8.0,15.0,18.0,24.0,33.0,35.0,37.0,43.0,43.0,45.0,5.0,-0.7699999213200002,1.1550000011925,-1.0100002288780998,0.015000000596049999,-0.004500001669499987,0.0034999996423499963,3.3700041094057767,0.17615901903745432,6.5396709557912285,1.670457870305845,0.01877459066583978,0.03151156914527495
5,5,56.4361675128,5641.5,1521530636.0,414395570.5,,1518135.5,1521530635.0,902064232.0,,0.7814570723134999,-0.1762741868205,-0.0896048951657,0.8926795893999999,-0.4471652336745,0.042140843381050015,0.037288387337050005,0.0022700270797900005,0.0016689706671000025,-0.0009361764902349996,0.0022574202720850004,0.0018269753362299985,0.004510143695299999,3.7462872266800007,0.612680926919,5.32345676422,0.367613494396,1.61840522289,0.3765224069355,1059462.5,1521530635.0,922078285.0,,,,,,1023709.5,1521530636.0,415993360.5,,2.786999994515,0.9480000495895,-0.16599998474129998,-0.0614999998361,-0.134999997914,-0.0680000036955,4.0,5.5,17.0,30.5,61.0,30.5,38.0,38.0,50.0,56.0,5.0,0.19999998807499966,-0.8299999535104998,1.0599994659386998,-0.023499999195349997,0.023000001907499984,-3.725299999035592e-09,2.948496067215016,0.16319083895613845,6.538290129958729,1.7018061786420247,0.002968991824085891,0.00536425030328259
6,6,56.538731615399996,5652.5,1521530636.0,525326013.0,,1518148.0,1521530636.0,27060131.0,,0.7823910648960001,-0.176865118442,-0.0891848125354,0.892437678759,-0.447606187092,0.042802959885300015,0.0370350838059,0.0121506617732,0.0115347043713,0.0028458238107199997,0.0279380393126,-0.0206929054335,0.010744976810700002,3.4733133316000004,0.841813266277,5.94696474075,0.643434405327,1.6884689331099998,0.47526794672,600440.0,1521530636.0,40999936.0,,,,,,1023720.5,1521530636.0,526002922.5,,2.621999973055,-0.0520000100136,-1.061000442506,-0.049499999731800005,-0.1459999978545,-0.054500000551349986,16.0,16.0,19.0,23.0,71.0,42.0,44.0,51.0,54.0,62.0,5.0,-0.16500002146000006,-1.0000000596031,-0.8950004577646999,0.012000000104299987,-0.010999999940499994,0.01350000314415,2.829012159524904,0.1635129946122306,6.938223454348668,1.8683722309046384,0.01699372530146501,0.03638935149978133
7,7,56.6412957179,5664.5,1521530636.0,643177508.5,,1518162.5,1521530636.0,172064965.5,,0.7826173606090001,-0.17593081066350005,-0.08881946665099999,0.8925005423154999,-0.4475117984675,0.04284574808165,0.036606457281700006,0.006304623648055001,-0.00403823013103,0.009592864684215,0.0031609386892500002,-0.009165259416295,-0.015033106011575002,3.06255066395,0.6445647776125,5.8020126819649995,0.6012115478515001,1.48294520378,0.4654253572225,1059480.5,1521530636.0,170561040.5,,,,,,1023731.5,1521530636.0,635438539.5,,2.9870000422000005,0.2729999184609,-1.0260005950945,-0.05000000074505,-0.1569999977945,-0.06950000301,19.0,20.0,23.5,32.5,54.0,31.0,33.5,44.5,49.0,55.0,5.0,0.3650000691450006,0.3249999284745,0.03499984741149986,-0.0005000010132499981,-0.010999999940000005,-0.015000002458650012,3.1700749878696453,0.1788274302235762,6.592270586336844,1.6664940941478892,0.01216875650115624,0.017888202534643724
8,8,56.7438598205,5672.5,1521530636.0,735794544.0,,1518171.5,1521530636.0,262063013.0,,0.782175365984,-0.17585416229849998,-0.08910621921484999,0.8926198248424999,-0.447290352488,0.0425225078383,0.0367809732329,-0.0016521400854000012,0.011530276807474996,-0.003074581882625,0.01109948635455,-0.0004127584207000018,0.007968801636250002,3.8185888528800005,0.7456279397009999,5.739556550980001,0.5643405020235,1.7563419938099998,0.449936673045,1059487.0,1521530636.0,260060385.5,,,,,,1023741.5,1521530636.0,735567069.5,,2.9719999969,0.607999956608,-0.17600021362290005,-0.06749999895695,-0.14800000190749998,-0.06149999797345,7.0,12.0,16.5,23.5,33.5,32.0,33.5,37.5,43.5,49.0,5.0,-0.015000045300000318,0.3350000381471,0.8500003814716001,-0.01749999821189999,0.008999995887000012,0.008000005036550009,3.038654966264554,0.17390370949046086,6.933980909528061,1.8988576595404472,0.012046987335917109,0.013670068264884455
9,9,56.846423923100005,5679.5,1521530636.0,831628441.5,,1518181.0,1521530636.0,357061358.5,,0.7821833854000001,-0.17584710795949998,-0.08903857786199999,0.8927104176385,-0.4471092900629999,0.04257870379605,0.0367183867161,0.0110477458989,-0.012369826966895002,0.004735882472807,0.008753681403149999,-0.015548448645600003,-0.034182598283750004,3.5823823213550003,0.8054654598240001,5.821504592899999,0.5591650903225001,1.648963212965,0.449888944626,1059494.0,1521530636.0,361077774.5,,,,,,1023750.5,1521530636.0,825827102.0,,1.551999980215,0.36799994707120004,-0.04600105285650002,-0.061499999836100015,-0.1525000035765,-0.07400000095369999,10.0,15.5,25.0,29.5,50.5,37.5,41.0,44.5,45.0,46.0,5.0,-1.4200000166850002,-0.24000000953679998,0.12999916076640006,0.005999999120849982,-0.0045000016690000255,-0.012500002980249995,1.5956954585683552,0.18031777841305727,6.882743161594955,1.798372969782387,0.017248011231264463,0.038559450447600306
10,10,56.9489880256,5692.5,1521530636.0,957864522.5,,1518193.5,1521530636.0,482066279.0,,0.7826677429355,-0.175861395986,-0.08873103496210001,0.892531920967,-0.44745321230400004,0.042836483188550004,0.0365671742627,0.0038700482866950003,-0.00693247182474,0.0005587989888299998,0.0004983512641549997,-0.00214181564091,-0.01301426235937,3.177127838135,0.6988748013970001,5.806515216825,0.5774991512300001,1.5083544254299999,0.4713467508555,1518546.5,1521530636.0,480164132.0,,,,,,1023763.0,1521530636.0,950590306.0,,2.43699997067,0.45299998521799995,-0.296001052856,-0.06599999964240001,-0.143999993801,-0.06499999761580001,6.0,7.5,11.0,16.0,55.0,33.0,40.0,51.0,58.5,73.0,5.0,0.8849999904550001,0.08500003814680003,-0.2499999999995,-0.004499999806299997,0.0085000097755,0.009000003337899978,2.496356237988671,0.17122207175927656,6.655688262764441,1.6824999559963358,0.007959189384107045,0.013198740583125588
11,11,57.051552128199994,5701.5,1521530637.0,44264554.5,,1518200.5,1521530636.0,552154080.0,,0.782422206005,-0.176214976567,-0.0890841217399,0.892651778079,-0.447196589121,0.042787013360500004,0.03684093525205,-0.007682737993774148,0.015462067203605,0.001971535194485,0.021657116251300002,0.016065735774214995,-0.0013841164178249998,3.730632424355,0.7208652198315001,5.73296761513,0.5830205678939999,1.726076841355,0.4457413703205,1059506.0,1521530636.0,541627607.0,,,,,,1023770.5,1521530637.0,36699419.5,,4.13699989915,1.1180000066734999,-1.436000442505,-0.043500000610949996,-0.17249999940400002,-0.0930000022054,4.5,10.5,11.5,18.0,29.0,32.0,34.0,36.0,43.0,57.0,5.0,1.6999999284799998,0.6650000214555001,-1.139999389649,0.02249999903145001,-0.028500005603000006,-0.028000004589599992,4.519600585379599,0.20074237285071891,6.877803619393399,1.8756171288577776,0.01737777132755726,0.02700100606546554
12,12,57.1541162308,5711.5,1521530637.0,149302005.5,,1518210.0,1521530636.0,647153714.0,,0.782409438031,-0.176342697663,-0.088803624172,0.8925529536329999,-0.447415551312,0.042656055855400006,0.0367288756204,-0.00269903417282,-0.0175493064332,-0.0041161798172500005,-0.00639173063921,0.0079447241141,-0.0159779502152,3.5544569492300004,0.6769250631329999,5.71932172775,0.613059639931,1.63334083557,0.452943146229,1059514.0,1521530636.0,657634821.5,,,,,,1023781.5,1521530637.0,146779375.5,,3.406999880075,2.35299999118,-0.516000366211,-0.06650000065565,-0.145999997854,-0.127999998629,5.0,6.0,18.0,29.0,44.0,33.5,35.0,38.0,48.0,54.0,5.0,-0.7300000190750002,1.2349999845064998,0.920000076294,-0.023000000044699997,0.026500001550000013,-0.034999996423599994,4.172590744280348,0.20523705588804733,6.767793789008372,1.8024433142178586,0.018226515795410302,0.01895435978588535
13,13,57.2566803333,5720.5,1521530637.0,234338045.0,,1518219.0,1521530636.0,737155783.0,,0.78250435116,-0.176029640596,-0.0886899903856,0.892609494855,-0.447271707082,0.0428535475702,0.036876594186,-0.010255421875299998,0.011447653499399999,0.0005789525019240001,0.0010140910206399999,0.0200731630671,-0.0048426266875,3.00358057022,0.602141499519,5.76000165939,0.565963506699,1.44182157516,0.44344905018799996,1059519.5,1521530636.0,738125503.5,,,,,,1023789.5,1521530637.0,226657437.5,,3.011999958755,2.8579999864100003,-0.4559989929200001,-0.0679999999702,-0.1460000053045,-0.08399999886755001,3.5,5.5,6.5,11.0,13.5,33.5,35.0,38.0,42.5,60.0,5.0,-0.3949999213199997,0.5049999952300004,0.06000137329099986,-0.001499999314549999,-7.450499994732241e-09,0.043999999761449984,4.177109377955495,0.18164801500321887,6.523932076855311,1.6111521360891192,0.015380430243728257,0.02067392776786785
14,14,57.3592444359,5733.5,1521530637.0,364287018.5,,1518232.0,1521530636.0,867190629.0,,0.7820207146795,-0.17639217800700002,-0.08933010892715,0.892368585971,-0.447819628008,0.042184798271349994,0.0368245725669,-0.001007016869749999,-0.000635959781790001,-0.0010249672124849995,-0.0081311913303,0.0034669775711,0.0026321311971999953,3.593278765675,0.7085228264335001,5.72008156776,0.5612410008905,1.63714760542,0.4496264606715,600473.0,1521530636.0,872999936.0,,,,,,1023802.5,1521530637.0,356960309.0,,3.1069999873650005,2.003000008315,-0.13599929809564998,-0.058000000193699996,-0.16000000387399999,-0.0765000022948,-2.5,0.0,1.0,14.0,14.0,30.5,32.0,35.0,44.0,74.0,5.0,0.09500002861000034,-0.8549999780950004,0.3199996948243501,0.009999999776499992,-0.013999998569500016,0.007499996572750009,3.6991828508305065,0.18659113487315954,6.7921270619192535,1.7881296645235185,0.0015713324303548062,0.00922303207018873
15,15,57.4618085385,5743.5,1521530637.0,466375946.5,,1518242.0,1521530636.0,967193669.0,,0.7823467642170001,-0.17675761484699998,-0.08904097393284999,0.8928790976979999,-0.446713301923,0.042784391152550005,0.0371892181814,0.0039395239261049994,-0.014036055877649998,0.003295240496865001,-0.01408162711982,-0.001841721268450001,0.03294770012295,4.085372686385,1.3317533731500002,6.8143193721749995,0.343143329024,1.921461105345,0.4706252813335,1059536.0,1521530636.0,969642551.0,,,,,,1023813.0,1521530637.0,461923455.5,,3.097000056505,1.322999989985,-0.406001663208,-0.058500001206999996,-0.13899999856950002,-0.07149999961255,6.0,8.0,11.0,17.5,25.0,32.5,34.0,39.0,40.5,51.0,5.0,-0.009999930860000285,-0.6800000183299999,-0.27000236511235004,-0.0005000010132999999,0.0210000053045,0.005000002682249996,3.392134383248981,0.1668996695267389,8.055978248453535,2.007796871956309,0.01494621434668478,0.035878058795929174
16,16,57.564372641000006,5750.5,1521530637.0,534371018.0,,1518249.0,1521530637.0,37189713.5,,0.7821223737649999,-0.17687925906750002,-0.08779453213165,0.8949486564595001,-0.4425266331110001,0.0424924127587,0.0378266699924,-0.0031926300036599995,-0.01661505301885,0.025173557725000004,-0.0367390389537,0.035912725524430006,0.1470848180295,4.037274837495,0.6514757275585,8.733378410339999,0.8186227977275,2.04945492744,0.5194352567195,1518601.5,1521530637.0,30269107.5,,,,,,1023819.5,1521530637.0,527183223.5,,2.997000032665,0.9379999995215,-0.04100189208985,-0.051500000059599996,-0.135499998927,-0.08350000157955001,1.5,4.5,16.0,17.0,19.0,36.0,37.0,38.0,42.5,49.0,5.0,-0.10000002384000027,-0.38499999046350003,0.36499977111815,0.007000001147400001,0.003499999642500029,-0.012000001967000004,3.1406264263760013,0.16728643094746404,9.643438556617705,2.267205718608382,0.03033085692316282,0.15579930851132062
17,17,57.6669367436,5762.5,1521530637.0,655615925.5,,1518263.5,1521530637.0,182190503.5,,0.7756807994735,-0.1804977956215,-0.07641132370530003,0.897101493632,-0.4381413833305,0.034520770180350005,0.045269279901800005,-0.0609458102355,-0.03370040262415,0.13534099321749998,-0.0473840847345,0.187458412381,0.0005734493017250003,8.893910408019998,-0.848818153143,8.762619495395,1.890710532665,4.087404966355,0.487438261509,1518616.0,1521530637.0,175286681.0,,,,,,1023831.5,1521530637.0,647402546.0,,1.8319999814,1.33299998045,-0.28099975585950004,-0.035500000231,-0.1260000020265,-0.06299999915065,9.0,9.5,21.5,26.5,70.0,43.0,44.0,56.5,63.0,75.0,5.0,-1.165000051265,0.3949999809285001,-0.23999786376965004,0.015999999828600002,0.00949999690049999,0.020500002428900016,2.282996658456249,0.14527646203036781,12.514217315680117,4.529819172560512,0.15220805946923693,0.1933552086255578
18,18,57.769500846199996,5774.5,1521530637.0,774453520.5,,1518275.5,1521530637.0,302190672.5,,0.7765970161535001,-0.184328885577,-0.0592030789982,0.8966163361855001,-0.439102954856,0.03313061137015,0.0465805513204,0.0734475105456,-0.0418097470163,0.1611085762035,-0.026517636694,-0.1346064430375,-0.01227058925412,8.43857383728,-0.269437327981,5.743773460390003,1.19984793663,3.6328563690199993,0.4142681509255,600489.5,1521530637.0,292499968.0,,,,,,1023843.5,1521530637.0,767616192.5,,0.776999974253,1.187999999524,-0.596000289917,-0.07400000095364999,-0.17099999636399998,-0.07399999722839999,19.5,27.0,29.0,61.0,85.5,39.0,45.0,47.5,51.0,52.5,5.0,-1.0550000071469998,-0.14499998092600008,-0.3150005340575,-0.03850000072264999,-0.04499999433749999,-0.010999998077749998,1.5395743906805333,0.20048191561193596,10.21141804281935,3.8482331750864156,0.1819301104194465,0.13774123174883413
19,19,57.8720649487,5785.5,1521530637.0,884359955.5,,1518286.5,1521530637.0,412191317.0,,0.7910969775475,-0.1877520152335,-0.04239451863955,0.8941888532529999,-0.443719013478,0.045236226044500005,0.038638486413750006,0.1436538698035,-0.021629993448480003,0.143573296242,0.072967437515,-0.2892937939215,-0.1147436207975,5.075953245165,-0.6728637218475001,1.2928295731550001,1.25329685211,2.60841536522,0.5657660961150001,1059567.0,1521530637.0,412139046.5,,,,,,1023854.5,1521530637.0,878160388.0,,1.90699999928,1.3930000424399998,-1.84100112915,-0.07000000029805,-0.1140000000595,-0.06850000098350001,12.5,18.0,25.0,32.0,44.5,38.0,40.0,44.5,49.0,52.0,5.0,1.130000025027,0.2050000429159997,-1.245000839233,0.0040000006555999945,0.05699999630449998,0.005499996244899982,2.994391970504753,0.15029387941640374,5.2810467940081445,2.9486734292793138,0.20424882452512502,0.31965801202648
20,20,57.9746290513,5795.5,1521530637.0,984439968.5,,1518295.5,1521530637.0,502192012.5,,0.8023100447355,-0.189098381154,-0.031359517707349994,0.8921170136755,-0.4474349758475,0.05415351505455,0.031549384783650006,0.1202085198625,-0.011366376860650498,0.1199917342135,0.06120806933815001,-0.25167717665,-0.08459079265725,1.1369676887975,-0.3047056496145,2.61951458454,0.981946200134,1.2556806206700002,0.708226531744,1059574.0,1521530637.0,512644226.5,,,,,,1023864.5,1521530637.0,977291827.0,,0.9269999876620001,1.87800001204,-1.6709991455049995,-0.0669999998063,-0.1885000020265,-0.07699999958279999,9.0,16.5,25.5,31.0,38.5,41.5,44.5,46.5,54.0,62.0,5.0,-0.980000011618,0.4849999696000005,0.1700019836450004,0.0030000004917499906,-0.07450000196699999,-0.00849999859929998,2.6792631760665144,0.21436009580559975,2.8718282881980066,1.7442869549904723,0.1702271983263386,0.27247647825271254
21,21,58.0771931538,5805.5,1521530638.0,84336519.0,,1518304.0,1521530637.0,587267878.0,,0.807161001925,-0.19364199053300002,-0.0249545577209,0.890338660246,-0.45040316094599997,0.059017322042,0.030838585892,0.0397608343341,-0.0846669196398,0.0675723314646,-0.058387660107699996,-0.06415296261,-0.109633468259,5.52970075607,1.56218075752,2.5920522213,0.505735874176,2.7154982089999997,0.506233453751,1518657.0,1521530637.0,585351622.5,,,,,,1023874.5,1521530638.0,77909758.0,,0.731999987364,0.3779999375343,-0.2909999847415,-0.05199999921025,-0.1704999953505,-0.06650000065565,12.0,14.5,19.0,27.0,48.0,38.0,40.0,48.0,50.0,65.0,5.0,-0.195000000298,-1.5000000745057005,1.3799991607634996,0.01500000059605001,0.01800000667599999,0.010499998927149992,0.8737213087686393,0.1902537737328434,6.303707947612512,2.80819721657996,0.11539250932273665,0.13980063958004454
22,22,58.1797572564,5815.5,1521530638.0,184296011.5,,1518313.0,1521530637.0,677272789.0,,0.809419215451,-0.19714800649,-0.0218739868628,0.8894194178820001,-0.451940300764,0.0614222546733,0.030172342796400006,0.00262688274141,-0.00513119968044,0.0189781923347,0.0023952845274299995,-0.00548291148193,0.00808035341819,6.42753219604,2.5371274948099996,2.8587779998799996,0.03736525774,3.0270318985,0.380712211132,1518666.0,1521530637.0,675320902.0,,,,,,1023884.5,1521530638.0,176880960.0,,1.1719999803210002,0.7180000305175,-0.43099937439,-0.05449999868870002,-0.15900000184750002,-0.058500001206999996,12.0,17.0,18.0,24.0,31.5,41.0,42.0,44.0,53.5,55.5,5.0,0.4399999929570002,0.34000009298320005,-0.1399993896485,-0.0024999994784500185,0.011499993502999987,0.007999999448649995,1.4404403696162251,0.17797050481973778,7.478154699432845,3.0511080060737785,0.01983435170078748,0.01005444268216196
23,23,58.282321358999994,5823.5,1521530638.0,265305995.5,,1518321.5,1521530637.0,762278998.0,,0.810268933599,-0.1962144367995,-0.021036210025900004,0.8893941612215001,-0.451951562503,0.0621529255417,0.02923176340935,-0.01049687499365,0.02055639852455,-0.01454559752111,0.021233893405885003,0.015387924993450004,0.017475740616529997,5.7977490425100005,1.64311701059,3.1086684465400003,0.4065101742745,2.98151576519,0.4521243423225,1518675.0,1521530637.0,765333306.0,,,,,,1023892.5,1521530638.0,258548013.0,,1.3969999939200002,1.1879999399164998,-0.6359992980955,-0.0650000013411,-0.1314999982715,-0.07349999994039999,6.5,9.0,10.0,28.0,66.0,42.0,48.0,54.5,60.0,64.5,5.0,0.225000013599,0.4699999093989997,-0.20499992370550008,-0.010500002652399984,0.027500003576000017,-0.014999998733399987,1.9409914856670691,0.1640716298175474,6.780674522562579,3.042877454119004,0.027282307676927874,0.03151298105341299
24,24,58.3848854615,5835.5,1521530638.0,386713981.5,,1518335.0,1521530637.0,897266706.0,,0.8063531710430001,-0.195612738398,-0.024461556587400003,0.889950199025,-0.451232095764,0.058354944795900004,0.031191976930800006,-0.00956478112892,0.024268335178099995,-0.0018619060783199998,0.027994040076700002,0.0168565998333,0.0293319654189,8.410635948180001,1.40878272057,5.17692565918,0.338258981705,3.7416751384699993,0.32523137331,1518687.0,1521530637.0,885368115.0,,,,,,1023905.0,1521530638.0,381793391.0,,1.67699998021,2.43300000429,0.413998031616,-0.0579999983311,-0.165000006557,-0.097999997437,4.0,5.5,20.0,24.0,47.0,46.0,47.0,49.0,51.0,64.0,5.0,0.2799999862899998,1.2450000643735004,1.0499973297115002,0.007000003009999999,-0.03350000828550001,-0.02449999749660001,2.983825116303133,0.20048192304512058,9.976172867751972,3.7709849411968883,0.026151554917542376,0.04391099444434663
25,25,58.4874495641,5843.5,1521530638.0,464316963.5,,1518342.0,1521530637.0,967276095.0,,0.805988173743,-0.19583035947,-0.0251530634895,0.8900415009999999,-0.45103953895000004,0.058242607893400015,0.0315794146178,-0.010602155272600002,0.0166394585133,-0.00325340375598,0.022542096882799997,0.013486099576700002,0.0156567713468,8.007268905639997,1.52960932255,4.943282127380001,0.297013610601,3.5834577083599997,0.353227943182,1059606.0,1521530637.0,970162071.5,,,,,,1023912.5,1521530638.0,457572067.5,,1.011999988558,2.502999989685,0.3890003204345,-0.06100000068545,-0.1564999967815,-0.0534999985248,0.0,1.5,10.5,14.5,25.5,43.5,44.0,49.0,51.0,56.0,5.0,-0.6649999916520001,0.06999998539499952,-0.024997711181500012,-0.0030000023543499954,0.0085000097755,0.0444999989122,2.7277232584158253,0.17628244075456867,9.533734745509523,3.61305358558817,0.019996547502996027,0.030580312337714712
26,26,58.5900136667,5856.5,1521530638.0,594287037.5,,1518357.0,1521530638.0,117267418.0,,0.808116878762,-0.19522235567899998,-0.023279163143500002,0.8900997313299999,-0.450726325356,0.0603396404792,0.030452843955900002,-0.00392072433888,-0.018148567546999998,0.0014043931275799998,-0.0342256166456,0.013898262344,-0.00136678552935,6.50295782089,1.75848829746,3.69084596634,0.267627239227,3.09120774269,0.428820490837,1518710.0,1521530638.0,115358693.0,,,,,,1023925.5,1521530638.0,588354900.5,,2.0019999682900003,2.7629999876,-0.5009990692140001,-0.054500000551349986,-0.1389999985695,-0.08850000053644999,9.0,14.0,16.0,18.0,37.0,41.0,44.5,46.0,48.5,62.0,5.0,0.9899999797320004,0.2599999979150001,-0.8899993896485001,0.006500000134100001,0.017499998212000014,-0.03500000201164999,3.44864797737665,0.17356122769031623,7.681346591570155,3.1322638236592644,0.01862028204421999,0.03696515431642969
27,27,58.6925777692,5866.5,1521530638.0,694282531.0,,1518367.5,1521530638.0,222270530.5,,0.8077286062490001,-0.1943847522315,-0.023229200845650003,0.8902799463654999,-0.450452736562,0.059819922952,0.030255980781200002,0.0065051220427700005,-0.0013497152962499998,0.004661422165340499,-0.005807764911699999,-0.009130230978975,-0.0017739873324449996,7.130383729935,1.67193776369,4.07032954693,0.32847867906100003,3.3249238729500004,0.4034650325775,600526.0,1521530638.0,216999936.0,,,,,,1023935.5,1521530638.0,689121819.0,,1.5069999933200002,1.958000010255,-0.5960002899169999,-0.05000000074505,-0.130999997258,-0.06499999947849999,-2.5,0.5,9.0,9.0,14.0,46.5,46.5,47.0,48.5,50.5,5.0,-0.49499997497,-0.8049999773449998,-0.09500122070299988,0.00449999980629999,0.008000001311499999,0.023500001057950002,2.5416587822928176,0.15455096016623773,8.37886213291434,3.3653827473295297,0.00811586106188315,0.010965321794397272
28,28,58.795141871800006,5876.5,1521530638.0,794301032.5,,1518377.5,1521530638.0,322273152.5,,0.8064518984315001,-0.194260678941,-0.02457807602005,0.8903390001160001,-0.450422503041,0.058760655927649987,0.03103028993845,-0.0020502664634800003,0.018368065653741,-0.007520531303585001,0.012388321753970002,0.0014331459905,0.018013831453344998,8.092576026915001,1.616662859915,4.366941452024999,0.3075274676085,3.6623506546,0.355978012085,600530.0,1521530638.0,318000128.0,,,,,,1023945.5,1521530638.0,789313806.5,,1.217000001669,1.888000017405,-0.280999755859,-0.06599999964240001,-0.14849999546999998,-0.07550000026824999,-1.5,0.5,2.0,6.5,11.0,40.5,41.5,45.0,51.0,59.0,5.0,-0.2899999916510003,-0.06999999284999991,0.31500053405799994,-0.015999998897350008,-0.01749999821199999,-0.010500000789749995,2.2637565974672373,0.1791884445155227,9.336678381493181,3.692439005003432,0.019953641760831843,0.021909416855304346
29,29,58.8977059744,5887.5,1521530638.0,904364466.5,,1518388.5,1521530638.0,432268088.5,,0.8071583302099999,-0.19345318297550002,-0.024077287437299998,0.8904895864010001,-0.4501099328495,0.05930488444875,0.0302027094168,-0.0032113630692950004,0.00273289588533,-0.00017747459474500016,0.0002198871316350008,0.004887685422950001,-0.00292822709585,7.3189544677750025,1.338831305505,3.9502130746800006,0.5087793022389999,3.44628083706,0.431397408247,1059638.0,1521530638.0,426660440.0,,,,,,1023956.5,1521530638.0,899463822.5,,2.16699998975,1.95799998045,-0.43099937438950003,-0.0630000010133,-0.13349999487400002,-0.08549999818205001,-4.0,1.5,4.0,16.5,49.5,41.0,42.0,44.0,48.0,56.0,5.0,0.949999988081,0.06999996304499989,-0.14999961853049998,0.002999998629100012,0.015000000595999955,-0.009999997913800018,2.9521878903184398,0.17059161306513396,8.423998284742032,3.5102438248811163,0.004220553271155969,0.005701958704624817
30,30,59.000270076899994,5897.5,1521530638.5,504281997.0,,1518397.5,1521530638.0,522276099.5,,0.8071182491590001,-0.19299934467450008,-0.0240546747046,0.890670768636,-0.4497621167805,0.059217821850049986,0.03021203742515,0.00756347384756,0.0007824192720000019,0.006709436284305001,0.0021923560075,-0.00938897253854,-0.016441601172055002,7.8807682991,2.0817403197299997,3.52316641808,0.11255628615635001,3.557626724245,0.359910160303,600538.0,1521530638.0,519000064.0,,,,,,1023966.5,1521530638.5,498054756.0,,3.0870000660450003,2.5529999997450004,-0.42599830627400004,-0.07149999961254999,-0.130999997258,-0.09649999812245,-1.0,0.0,3.5,4.5,13.0,40.5,44.0,44.5,47.5,49.0,-1.0,0.9200000762950004,0.5950000192950005,0.005001068115499996,-0.008499998599249992,0.002499997616000033,-0.01099999994039999,4.0285050531689945,0.17772309603375555,8.879912913558089,3.57755672912462,0.010140752033901114,0.01906004929935912
31,31,59.1028341795,5905.5,1521530639.0,84343075.0,,1518402.0,1521530638.0,567273229.0,,0.80650694655,-0.192309288734,-0.0239495312188,0.8907076091789999,-0.449755287711,0.0587346123836,0.030172527805099998,0.0051466987328,0.0191482253805,0.008055997761549999,0.023113410210199997,-0.0184911031427,0.00469638893668,8.39728832245,2.40590310097,3.51627874374,-0.0674113929272,3.75152373314,0.31381484866099996,1059648.5,1521530638.0,581684344.5,,,,,,1023974.5,1521530639.0,79491547.5,,2.3820000231250003,0.29300001859700003,-0.3660007476805,-0.06399999931455,-0.131999999285,-0.0645000021905,-1.0,3.0,7.5,12.0,23.0,43.5,44.0,45.0,48.0,50.0,-1.0,-0.7050000429200001,-2.2599999811480003,0.05999755859349998,0.0075000002979999925,-0.0010000020270000134,0.031999995931949986,2.4277004898397228,0.16025058504129372,9.41631759794082,3.7652296577299498,0.021401919142981736,0.029970096696933055
32,32,59.2053982821,5918.5,1521530639.0,214285969.0,,1518417.0,1521530638.0,717286747.5,,0.8065031980765001,-0.1918567906965,-0.0245619979924,0.8909140332815001,-0.4493378967695,0.05869465151825,0.03036895930725,-0.0016853440246780002,0.018695706569405,0.000862683148175,0.003813166316375,-0.0015282016714695,0.027115223096480002,8.63177919388,1.8263410329799998,3.050049424175,0.329271912575,3.89402103424,0.365284219384,1518770.0,1521530638.0,715361815.0,,,,,,1023987.5,1521530639.0,209954692.5,,1.52199997902,0.367999947071,-0.31100044250500003,-0.06399999931455,-0.1160000003875,-0.06749999895695,2.5,3.5,8.5,20.5,42.0,45.0,47.5,49.0,53.0,56.0,-1.0,-0.8600000441050002,0.07499992847399994,0.055000305175499975,0.0,0.015999998897500006,-0.002999996766449992,1.5964426618013707,0.14868843217059843,9.335198718321767,3.924952530725096,0.018791329139391823,0.02742464149769148
33,33,59.3079623846,5925.5,1521530639.0,284303068.5,,1518424.0,1521530638.0,787269956.5,,0.8064265165515001,-0.1911449880155,-0.0246858445133,0.8912918222890001,-0.4485848689015,0.058776563410749987,0.03026077740655,0.0032252284845970002,0.0026981985868900003,-0.0030548864511720005,0.013385859666424998,-0.006183088491674999,-0.010182950144514999,8.515482425690001,1.606706261635,3.19228386879,0.4217607229950001,3.894446492195,0.383322834969,1059663.5,1521530638.0,792660991.5,,,,,,1023994.5,1521530639.0,279233724.0,,1.4119999796149998,1.0629999995255002,-0.31100044250500003,-0.0614999998361,-0.12650000304,-0.07849999889734999,0.5,5.5,7.0,11.5,18.5,44.0,45.0,49.0,51.0,64.0,-1.0,-0.10999999940500027,0.6950000524545001,0.0,0.002499999478450005,-0.010500002652500008,-0.01099999994039999,1.7945568301567603,0.16107995088105861,9.235021507952714,3.935928350953543,0.005197567279189882,0.01791938324694199
34,34,59.4105264872,5937.5,1521530639.0,404284477.0,,1518436.0,1521530638.0,907270028.5,,0.805202403809,-0.18969387269,-0.0256200177405,0.8916672146760001,-0.447948270038,0.0576529901093,0.03079016001995,-0.006395998383949999,0.006439466225544999,-0.009343654469454999,0.0033640682891999986,0.010991964589850002,0.005188582087928,8.77380132675,1.895829617975,3.05450737476,0.2942973673345,3.925192952155,0.35679306089900004,1518789.0,1521530638.0,905383083.0,,,,,,1024006.5,1521530639.0,399866907.0,,2.716999942065,2.042999988795,-0.7709995269774998,-0.06899999827150001,-0.138500005007,-0.0679999999702,-2.0,0.0,0.0,6.0,10.0,40.0,41.5,42.0,44.0,62.0,-1.0,1.30499996245,0.9799999892695,-0.4599990844724998,-0.007499998435400015,-0.01200000196699999,0.010499998927149992,3.485739220021646,0.16901849349805845,9.48176011952077,3.952347649229883,0.013026104538272066,0.012611963569646266
35,35,59.51309058970001,5948.5,1521530639.0,514310001.5,,1518447.0,1521530639.0,17272652.0,,0.804714290299,-0.18859696915899998,-0.026935095934099998,0.8920926549959999,-0.447206299503,0.056962172588900004,0.0305373784392,-0.00456388305239,-0.0172907420777,-0.0136758500511,-0.0110218094949,0.0145611287865,-0.015198046159099999,8.44920158386,1.41823101044,2.69097232819,0.49936401843999995,3.82101178169,0.417885541916,1059678.5,1521530639.0,15701783.0,,,,,,1024017.5,1521530639.0,509888039.0,,2.6720000445850003,2.0080000072749997,-0.4559989929195,-0.07249999791385,-0.1384999975565,-0.08700000122189999,5.5,8.5,13.0,16.5,20.0,51.0,52.5,56.0,60.0,63.0,-1.0,-0.04499989747999944,-0.034999981519999945,0.3150005340579998,-0.0034999996423499963,7.450499994732241e-09,-0.0190000012517,3.3733638032418383,0.17890639796628113,8.980073422570682,3.876096462276031,0.022512833334203182,0.023758942803353878
36,36,59.6156546923,5959.5,1521530639.0,624302506.0,,1518460.5,1521530639.0,152273968.0,,0.8026117473550001,-0.1881717845375,-0.02926903859605,0.892560589306,-0.4463977052175001,0.05528875055025,0.03174113907905,-0.00924983686682535,0.011421454941395,-0.012699389446537,0.0159921009059,0.0113432051228,0.021227000178685004,9.39853334427,1.8091117739700002,2.8969087600700005,0.3852977752685,4.2140853405000005,0.372841641307,600563.0,1521530639.0,143000064.0,,,,,,1024028.5,1521530639.0,620042040.0,,2.19699999094,1.4829999566055,-0.32099876403800004,-0.0760000012815,-0.142999999225,-0.06250000186265,1.5,2.0,5.0,8.0,11.0,39.0,47.0,51.0,53.5,62.0,-1.0,-0.4750000536450001,-0.5250000506695003,0.13500022888149998,-0.0035000033676499953,-0.00450000166850001,0.024499999359249985,2.670044576031681,0.17358355396168515,9.999869739063715,4.248056087451808,0.019423789726930554,0.028896386113635333
37,37,59.7182187949,5969.5,1521530639.0,724274396.5,,1518470.5,1521530639.0,252270727.0,,0.802076806224,-0.1882409131295,-0.030085208614750003,0.8923382969079999,-0.44696546071,0.0543529176843,0.0316220679862,-0.002826648759250001,0.006258097553669999,-0.012437753616889998,0.0222396310194,0.013144632059549998,-0.01689876753214,9.827556610104999,2.10080182552,2.568330287935,0.234477341175,4.33261036873,0.33306455612200003,600567.0,1521530639.0,244999936.0,,,,,,1024038.5,1521530639.0,719919392.5,,2.361999982595,2.272999978065,-0.5759998321535,-0.0744999982417,-0.1255000010135,-0.04700000025335,-0.5,1.5,4.5,5.0,28.0,44.0,47.0,53.0,58.5,66.0,-1.0,0.1649999916549998,0.7900000214595002,-0.2550010681155,0.0015000030397999964,0.0174999982115,0.015500001609300006,3.3282651073349205,0.15332807967302242,10.372586837566168,4.351715090547168,0.014207443233526582,0.03086990255840335
38,38,59.8207828974,5980.5,1521530639.0,834285974.0,,1518481.5,1521530639.0,362285374.5,,0.801504743215,-0.1873209624015,-0.03057392994,0.8926435113769999,-0.446417534851,0.0538188899556,0.03166142521529998,-0.0013202781001849994,0.014834977584350003,-0.0014293790903499998,-0.00983645676627,0.00020785126769999962,0.04886541689639999,9.467062473295002,2.0121155977250003,2.3028010129950003,0.286422893405,4.19444847107,0.36407119035700003,1059703.0,1521530639.0,355679873.0,,,,,,1024049.5,1521530639.0,829895196.5,,2.372000032665,1.82800001502,-0.700999832153,-0.039499999955300014,-0.1539999991655,-0.03649999946355,3.5,5.0,8.0,14.5,27.0,38.5,42.5,46.0,46.0,51.0,-1.0,0.010000050069999931,-0.4449999630450001,-0.12499999999949996,0.0349999982864,-0.028499998151999995,0.0105000007898,3.0756087161006707,0.16312111972482857,9.948707129940528,4.219950696628566,0.014962045942113832,0.04984604349718398
39,39,59.923347,5990.5,1521530639.0,934284567.0,,1518491.5,1521530639.0,462278040.5,,0.8017597592560001,-0.1874197475225,-0.030660000573150006,0.8926231893765,-0.4464176682615,0.054173402665300005,0.031620740448750004,0.00657759221115,0.017142642537900002,0.005365032404125,0.004779727840850001,-0.014261421605475,0.011390706952865,9.902623176575,2.174894213675,2.545357227325,0.221278563142,4.419363737105,0.345625281334,1059710.0,1521530639.0,455681157.5,,,,,,1024059.5,1521530639.0,929687856.5,,1.5219999790149998,1.98799998164,0.08400001525879999,-0.06399999931455,-0.1300000026825,-0.05049999989569999,-1.5,0.5,2.5,7.5,11.5,38.5,39.5,42.0,50.0,56.0,-1.0,-0.8500000536500001,0.15999996662000004,0.7849998474118001,-0.024499999359249992,0.023999996483,-0.014000000432149988,2.5051315066650255,0.15344787583794736,10.453274799440265,4.438377730482396,0.019128995927013812,0.018867489216314735
