,Unnamed: 0,Unnamed: 0.1,.header.seq,.header.stamp.secs,.header.stamp.nsecs,.header.frame_id,.endpoint_state.header.seq,.endpoint_state.header.stamp.secs,.endpoint_state.header.stamp.nsecs,.endpoint_state.header.frame_id,.endpoint_state.pose.position.x,.endpoint_state.pose.position.y,.endpoint_state.pose.position.z,.endpoint_state.pose.orientation.x,.endpoint_state.pose.orientation.y,.endpoint_state.pose.orientation.z,.endpoint_state.pose.orientation.w,.endpoint_state.twist.linear.x,.endpoint_state.twist.linear.y,.endpoint_state.twist.linear.z,.endpoint_state.twist.angular.x,.endpoint_state.twist.angular.y,.endpoint_state.twist.angular.z,.endpoint_state.wrench.force.x,.endpoint_state.wrench.force.y,.endpoint_state.wrench.force.z,.endpoint_state.wrench.torque.x,.endpoint_state.wrench.torque.y,.endpoint_state.wrench.torque.z,.joint_state.header.seq,.joint_state.header.stamp.secs,.joint_state.header.stamp.nsecs,.joint_state.header.frame_id,.joint_state.name,.joint_state.position,.joint_state.velocity,.joint_state.effort,.wrench_stamped.header.seq,.wrench_stamped.header.stamp.secs,.wrench_stamped.header.stamp.nsecs,.wrench_stamped.header.frame_id,.wrench_stamped.wrench.force.x,.wrench_stamped.wrench.force.y,.wrench_stamped.wrench.force.z,.wrench_stamped.wrench.torque.x,.wrench_stamped.wrench.torque.y,.wrench_stamped.wrench.torque.z,.tactile_values.tactile_values_0,.tactile_values.tactile_values_1,.tactile_values.tactile_values_2,.tactile_values.tactile_values_3,.tactile_values.tactile_values_4,.tactile_values.tactile_values_5,.tactile_values.tactile_values_6,.tactile_values.tactile_values_7,.tactile_values.tactile_values_8,.tactile_values.tactile_values_9,.tag,.delta_wrench.force.x,.delta_wrench.force.y,.delta_wrench.force.z,.delta_wrench.torque.x,.delta_wrench.torque.y,.delta_wrench.torque.z,.wrench_stamped.wrench.force.magnitude,.wrench_stamped.wrench.torque.magnitude,.endpoint_state.wrench.force.magnitude,.endpoint_state.wrench.torque.magnitude,.endpoint_state.twist.linear.magnitude,.endpoint_state.twist.angular.magnitude
0,0,54.017828,5402.5,1521530838.0,702891588.0,,1538367.5,1521530838.0,222582992.5,,0.7699292205315,-0.0920390993457,0.0577224209792,0.765917422298,0.642525521268,-0.01982411733905,-0.0117657681684,0.004376868058550001,-0.00254151561541,0.003613441524015,-0.005271722900019999,-0.004798355685845,-0.012030795327315,-2.480659127235,-0.2312943041325,6.867458581925,0.4816066920755,-0.6302207410335001,0.2631845921275,608439.0,1521530838.0,208000000.0,,,,,,1043915.0,1521530838.0,698920165.0,,-0.7140000164495001,-1.679999994485,-0.25499992370615,-0.03900000080465,-0.1635000035165,-0.07300000078975001,55.0,55.5,58.5,70.5,105.0,124.5,129.0,134.0,144.0,146.0,5.0,0.0,0.0,0.0,0.0,0.0,0.0,1.8431551660263517,0.18325460793104686,7.305419504389448,0.8356969054711392,0.006218780851003191,0.013984109404256703
1,1,54.1203921026,5410.5,1521530838.0,782918572.0,,1538375.5,1521530838.0,302582446.0,,0.7701589424009999,-0.09183568730115,0.05818193129045,0.765933460943,0.6425159581125001,-0.019512736137200004,-0.011756190252399998,-0.005945988318075,-0.002994500984005,0.0006261477752800004,0.0011885868113999994,0.011387238097074998,-0.00581986747245,-1.255769133565,0.13612322509299998,6.546391487125,0.34964752197250004,-0.19551758468150002,0.262615278363,1073585.5,1521530838.0,302320434.5,,,,,,1043922.5,1521530838.0,774771749.0,,-0.20899999141710496,-1.825000035015,-1.0700004577615,-0.02049999963495,-0.1645000055435,-0.06450000032780001,49.5,51.0,57.0,71.0,105.5,122.0,125.0,127.0,135.5,165.0,5.0,0.5050000250323952,-0.14500004053000004,-0.8150005340553501,0.018500001169700003,-0.0010000020270000134,0.00850000046195,2.1258426808743214,0.1778784749516666,6.667137853076609,0.4790065761248727,0.006686843370259197,0.012843394702515056
2,2,54.222956205100004,5421.5,1521530838.0,892873048.5,,1538385.5,1521530838.0,402583931.0,,0.7700312831755001,-0.09187201154705,0.0584424031229,0.7660944747605001,0.6423245710894999,-0.01949868993925,-0.011755535353749999,0.003234511197374,-0.013561540751894998,-0.00530352802726,-0.005375008659000001,-0.00434375966867,-0.0182867827221,-1.4071282148350002,0.1088666096328,6.799537420269999,0.3358194082975,-0.16467256099000002,0.2654467225075,1538738.5,1521530838.0,400658641.0,,,,,,1043933.5,1521530838.0,885008308.0,,-1.46899999678,-2.815000044555,-0.414999771118,-0.0405000001192,-0.1494999974965,-0.07000000029805001,54.0,62.5,69.0,72.5,82.0,119.5,125.0,127.5,133.0,151.0,5.0,-1.260000005362895,-0.99000000954,0.6550006866435001,-0.02000000048425,0.015000008046999996,-0.005499999970249997,3.202250935109909,0.16997205447612765,6.944463325652291,0.4586433143765011,0.014916596789723145,0.01954905083293775
3,3,54.3255203077,5432.5,1521530838.5,502879023.0,,1538395.0,1521530838.0,497578624.0,,0.7697298660340001,-0.09175689428160001,0.0583129042529,0.766019366215,0.6424064802399999,-0.0196040132632,-0.011996974373000001,-0.00426365980127,-0.00840506548492,-0.006023612347479999,0.015134214928700002,0.020559846014499998,-0.0280506299871,-0.452864736319,0.215955972672,6.82270336151,0.31319731473900003,0.0950159132481,0.26711124181699997,1073599.0,1521530838.0,500817544.5,,,,,,1043944.5,1521530838.5,495033635.5,,-1.124000012877,-2.825000035015,-1.095000076294,-0.0295000001788,-0.160499997437,-0.0744999982417,52.0,53.0,59.5,62.5,106.0,113.0,116.0,121.0,128.5,156.5,5.0,0.34499998390299996,-0.009999990459999886,-0.680000305176,0.0109999999404,-0.010999999940499994,-0.004499997943649997,3.2315671730394393,0.1793899354084267,6.841125975356238,0.42245591158736384,0.011185160992112395,0.037928743352782346
4,4,54.428084410299995,5443.5,1521530839.0,113476514.5,,1538406.0,1521530838.0,607583381.5,,0.7697730130914999,-0.0920038772672,0.057903587617150004,0.7659967662270001,0.6424258134405,-0.019868985947950002,-0.0119644148827,0.00564287914882,-0.006850280698755,0.0010785755018500008,0.003649364981025,-0.010579585044299995,-0.014216175403049997,-1.23026794195,0.032889910042300005,6.750041246415,0.3794814348225,-0.119526322931,0.2617756575345,608454.5,1521530838.0,610000000.0,,,,,,1043955.5,1521530839.0,105503278.5,,-1.014000028373,-1.884999977795,-0.435000228882,-0.04099999926985,-0.149500004947,-0.07449999824165,50.5,53.0,58.5,60.0,66.5,105.0,110.0,114.0,120.0,152.0,5.0,0.10999998450400006,0.9400000572199998,0.6599998474119999,-0.01149999909105,0.01099999249,5.000166947155549e-14,2.1841808929104265,0.1719927357689463,6.861318953632475,0.4762553896030667,0.00894045613227389,0.018092681602365955
5,5,54.5306485128,5451.5,1521530839.0,192875981.0,,1538414.0,1521530838.0,687586935.0,,0.770094320809,-0.0912926736565,0.0583326953149,0.76539324987,0.643169006655,-0.019363056328200002,-0.0114836396783,-0.0167607176357,0.027275935283,-0.0117761221154,0.00603691294293,0.0244958917774,0.057501235444300004,-0.8145894408230001,0.14819166064300002,6.603847980499999,0.329402178526,-0.00622780248523,0.259469389915,1538767.0,1521530838.0,685638818.0,,,,,,1043963.5,1521530839.0,184950868.0,,-0.903999984265,-1.120000051709,-0.27999954223650003,-0.05199999921025,-0.142499998212,-0.09499999880789999,49.0,50.5,51.0,60.0,65.5,117.0,123.0,123.0,137.0,167.0,5.0,0.11000004410800003,0.7649999260860001,0.1550006866455,-0.010999999940399996,0.0070000067350000075,-0.02050000056625,1.4662932281886638,0.17898393554111777,6.655548427811068,0.41936731518363723,0.034111220343207925,0.06279239690815626
6,6,54.6332126154,5460.5,1521530839.0,282956600.0,,1538423.0,1521530838.0,777582909.5,,0.769996830844,-0.09212624372220002,0.057936085662900004,0.7659946459025,0.6424376456065,-0.019701734695549998,-0.011734823246799999,0.0008326201023600001,-0.01104385504127,-0.0026664766409215,-0.009546904646665001,0.00283791963485,-0.01113010531595,-1.4085909128150005,0.08882234990605001,6.729969024660001,0.313647836447,-0.203600794077,0.2536424696445,1073619.0,1521530838.0,775315603.5,,,,,,1043972.5,1521530839.0,274599251.5,,-2.16399999708,-1.7549999825649998,-0.7750003814699999,-0.0525000002235,-0.14200000464950002,-0.08650000020859999,55.0,57.5,62.0,64.5,68.5,107.5,111.0,133.0,135.0,149.0,5.0,-1.260000012815,-0.6349999308559997,-0.4950008392334999,-0.0005000010132500052,0.0004999935624999674,0.008499998599300005,2.891979688283449,0.17436313079321938,6.876372651506818,0.4518437241613854,0.01139166748478987,0.014935743052507278
7,7,54.7357767179,5473.5,1521530839.0,412901997.0,,1538436.5,1521530838.0,912584845.5,,0.769501440357,-0.0917636391562,0.057437110262949995,0.7658136067129999,0.6426353218559999,-0.020045150702900003,-0.0121434498709,0.0058265913492650005,-0.00153012803959,-0.00238589343337095,0.005502365161010001,-0.005787613262929999,-0.00776466839579,-0.3612619489435001,0.23676382005199997,6.5378241539,0.2813148796555,0.155541189015,0.24731303006400002,1073628.0,1521530838.0,911318134.0,,,,,,1043985.5,1521530839.0,404813957.5,,-1.60900001228,-2.770000087465,-0.765000152588,-0.04350000061095,-0.154500000179,-0.09899999946344999,52.5,56.0,60.0,68.0,111.5,111.0,115.0,118.0,127.0,149.0,5.0,0.5549999848,-1.0150001049000004,0.010000228881999916,0.008999999612550005,-0.012499995529499984,-0.012499999254850014,3.293479430258038,0.18858287303524346,6.552076920302319,0.4055796565845301,0.006479424823568208,0.01113833762026093
8,8,54.8383408205,5480.5,1521530839.0,483111977.0,,1538445.5,1521530838.5,502582168.0,,0.7692544277735001,-0.0919578551224,0.05742912371145,0.7658870734750001,0.642537343605,-0.0203570196881,-0.01217690435935,-0.0005359659108500003,0.00753326845617,0.002231977499160001,0.006427044270975001,-0.0030499417111500005,0.01807564681655,-0.4155039787295,0.149143755436,6.625415563584999,0.3565106391905,0.166526466608,0.2658469080925,1073634.0,1521530838.5,502820660.5,,,,,,1043992.5,1521530839.0,476058191.0,,-0.11400002241145,-2.3400000207150002,-0.6800010681155001,-0.0439999997616,-0.1539999991655,-0.1110000014305,57.5,59.5,62.0,63.5,95.0,125.0,127.0,129.5,131.5,158.0,5.0,1.49499998986855,0.4300000667500004,0.08499908447249993,-0.0004999991506500073,0.0005000010135000067,-0.012000001967049992,2.4394666537368845,0.19486662115294606,6.640106836965797,0.4748741712067591,0.00787522168875745,0.0194251911274803
9,9,54.94090492310001,5492.5,1521530839.0,602888464.5,,1538457.5,1521530839.0,122586201.5,,0.7695348498395,-0.0914293760538,0.05744689355550001,0.7658143950965001,0.642633289488,-0.0200102626736,-0.01224310279995,-0.0018812829968200004,0.01399642408779,-0.0017994431997399997,-0.0016710258425500016,-0.003980991505035,0.03411104798975,-0.922972589731,-0.0023673959076599997,6.44106721878,0.3945827782155,-0.03827668726445,0.25763724744300004,1073643.0,1521530839.0,122315843.0,,,,,,1044004.5,1521530839.0,595317456.0,,-1.214000016455,-1.76499997303,-0.220000076294,-0.04450000077485,-0.158000007272,-0.0985000021757,52.5,57.0,62.0,71.0,109.0,113.5,116.0,120.0,135.5,163.0,5.0,-1.09999999404355,0.5750000476849997,0.4600009918215001,-0.0005000010132499913,-0.0040000081065000035,0.012499999254799998,2.1534671992668026,0.19143276311939555,6.506860296855962,0.4727976574838422,0.014236471079185414,0.03438319670549349
10,10,55.043469025600004,5504.5,1521530839.0,723496555.5,,1538469.5,1521530839.0,242585491.0,,0.7699932677619999,-0.0916342795966,0.057749877696350004,0.7657647213805001,0.6427120325775,-0.019721871762400003,-0.01168410436005,-0.0023274488609165,-0.003544984432705,0.0028917459335300005,0.001873653008549,0.008034826337375,-0.01888417122935,-0.2266992256045,0.1907086446885,6.2448260784150005,0.32982391119000004,0.2257130891085,0.2581612467765,1538822.5,1521530839.0,240630846.0,,,,,,1044017.0,1521530839.0,718918357.0,,-1.69900000095,-3.5699999205800004,-0.32499961853,-0.035999998450300004,-0.16400000453,-0.08900000154969999,54.5,57.0,60.0,71.0,144.0,114.0,116.0,122.0,132.0,138.5,5.0,-0.4849999844949999,-1.8049999475500005,-0.10499954223599996,0.00850000232454999,-0.005999997257999989,0.009500000626000009,3.9670045611536615,0.19003421178858354,6.251848932571922,0.475791383197266,0.0051328478812828265,0.020607788160975207
11,11,55.146033128199996,5511.5,1521530839.0,793641090.0,,1538476.5,1521530839.0,312588418.5,,0.769457482525,-0.09177167882000001,0.05736496890450001,0.7658631522179999,0.642572604683,-0.0201713118104,-0.0121287997351,-0.00239424729698,-0.022670600778200004,0.00014130101342499994,-0.009941080395157,0.013189130720850002,-0.03075995599895,-0.04048650525519999,0.1795262284575,6.279156684875,0.34778966009650003,0.3146573603155,0.2607682794335,1073655.5,1521530839.0,308332669.5,,,,,,1044023.5,1521530839.0,786114452.5,,-0.8289999663809999,-1.79500006363,-0.690001296997,-0.029500001110150005,-0.154500000179,-0.08999999985099999,53.0,57.0,62.5,65.0,93.5,114.5,115.0,119.5,124.0,139.5,5.0,0.870000034569,1.7749998569500005,-0.365001678467,0.006499997340150002,0.009500004350999984,-0.0009999983013000008,2.094127016813676,0.18121948044840502,6.281853030517537,0.5366255655757237,0.022797116610220988,0.03491350944336567
12,12,55.2485972308,5522.5,1521530839.0,904239535.0,,1538485.5,1521530839.0,402586578.5,,0.7694750761204999,-0.09226579912455,0.0568800677596,0.7658491875994999,0.642580131442,-0.020451060274600003,-0.012132283576149998,-0.008696411868745,0.0012861925889662,-0.0039048119201320003,0.002286601262165001,0.0221987791101,0.0083061905824405,0.5749363452195,0.3485822975635,5.889258146285,0.29975874721999995,0.5475353151560001,0.26388460397700003,1073662.0,1521530839.0,405827737.0,,,,,,1044035.0,1521530839.0,899999630.5,,-1.3489999845625,-2.034999953955,-0.8300006866455001,-0.042500000447050004,-0.16250000149049998,-0.0925000011921,57.0,62.0,63.0,68.0,78.5,118.0,121.0,125.0,127.0,129.5,5.0,-0.5200000181815001,-0.2399998903249998,-0.13999938964850012,-0.012999999336899996,-0.00800000131149997,-0.002500001341100025,2.5787452202143735,0.19175179462771724,5.927514060110971,0.6777059185915246,0.009619221740783682,0.023811911752376583
13,13,55.3511613333,5532.5,1521530839.5,503129601.0,,1538495.0,1521530839.0,497587108.0,,0.768687566451,-0.0914374676923,0.055948266635150005,0.76572648838,0.6426949061625,-0.0209309845078,-0.012964175519299998,-0.005937949975360001,-0.015174854985255,-0.0076061969005950004,-0.006958216247729999,0.022693882713640003,-0.02192137230366,0.6530289053914999,0.3324769586325,6.031511306765001,0.30639755725900003,0.5883315801619999,0.274006187916,1073668.5,1521530839.0,500820466.5,,,,,,1044044.5,1521530839.0,995607030.5,,-1.399000011385,-2.100000011175,-0.7399986267090001,-0.04350000061095,-0.1585000008345,-0.09400000050645,48.5,54.5,55.5,62.0,115.5,116.5,117.0,121.0,125.5,134.0,5.0,-0.050000026822500036,-0.06500005722000024,0.09000205993650001,-0.0010000001638999986,0.00400000065599998,-0.0014999993143499785,2.6296005488137237,0.18934228374270168,6.075863422011095,0.7176997299194533,0.01798303937114128,0.03231061202834595
14,14,55.453725435900004,5546.5,1521530840.0,142877936.0,,1538509.0,1521530839.0,637579030.0,,0.7681866135879999,-0.09230280294710001,0.054658647224599996,0.7662315252959999,0.642049626278,-0.0219058926466,-0.0134780898829,-0.00886144259776,-0.019309771028,-0.0112207548552,-0.00718864887608,0.0308812074117,-0.022952732935599997,1.2020117044399998,-0.28116914629900003,6.55701732635,0.572076261044,0.7593140006069999,0.288582146168,1073678.5,1521530839.0,629820866.5,,,,,,1044058.5,1521530840.0,134655079.0,,-0.3889999985695,-2.629999982565,-0.720000076294,-0.03649999946355,-0.1669999957085,-0.0924999974668,67.5,73.5,79.0,84.0,122.5,118.0,119.5,122.0,129.0,143.0,5.0,1.0100000128155,-0.5299999713900001,0.01999855041500009,0.007000001147399994,-0.008499994873999994,0.0015000030396499914,2.7543821479675503,0.19436434358913718,6.672208363390292,0.9935334191937475,0.02402702148805961,0.03914273359234097
15,15,55.5562895385,5555.5,1521530840.0,232902526.5,,1538518.5,1521530839.0,732591222.5,,0.7675553408495,-0.09233516682199999,0.055962751550249996,0.7660686398425001,0.6421755359970001,-0.023660348815799998,-0.013756001258799999,-0.01057446755902,-0.019184918372400002,0.02991386380095,-0.03525827499365,0.07516850209435001,-0.01840846922025,3.16837620735,1.6220331788100002,8.001742839814996,-0.499639779329,1.848761379715,0.246336683631,1538871.0,1521530839.0,725634047.0,,,,,,1044067.5,1521530840.0,224776747.5,,-1.154000014068,-2.46500002071,-1.85999946594,-0.05100000090895,-0.1000000014902,-0.0725000016391,51.0,57.5,62.5,92.0,98.5,144.0,159.5,167.0,170.0,180.5,5.0,-0.7650000154984999,0.16499996185500046,-1.139999389646,-0.0145000014454,0.06699999421830001,0.0199999958277,3.2965950840020266,0.13363102419880798,8.757710197248628,1.9308651713457263,0.03707721274063362,0.08504305616374001
16,16,55.658853641,5565.5,1521530840.0,332861542.5,,1538528.0,1521530839.0,827583927.0,,0.762717822102,-0.0926292253994,0.0616004757115,0.765768139024,0.6420931860360001,-0.0319800823716,-0.017110582491600003,-0.055111858706,-0.00414158513146,0.0805189580468,-0.0742229870881,0.192059706157,-0.00600230215131,4.3942484855699995,2.8044655323,7.47423601151,-0.8800942897799998,1.88200414181,0.221765890718,1538881.0,1521530839.0,825631657.0,,,,,,1044078.0,1521530840.0,329560987.5,,-2.449000015855,-3.304999934885,-0.7749984741210001,-0.04649999924005,-0.134999997914,-0.08150000125169997,56.0,60.0,66.0,70.0,73.5,190.5,195.0,212.0,233.0,240.5,5.0,-1.2950000017869998,-0.8399999141750003,1.085000991819,0.0045000016689000005,-0.0349999964238,-0.008999999612599965,4.1858390177045175,0.16440650707965226,9.112554561183481,2.08942232662028,0.09766151904600695,0.20599031572505794
17,17,55.7614177436,5574.5,1521530840.0,422868490.0,,1538538.5,1521530839.0,932586156.5,,0.7609676364010001,-0.0921417159846,0.07022347379060001,0.7679709940880001,0.6390826785665,-0.03804534379935,-0.018604123357100003,0.010033650733525,0.02567242294955,0.0948285774712,-0.030494616462835,0.032424123664290004,-0.07316992817125,4.310807943345,3.554368019105,7.393835544590001,-1.1615216732,1.73423743248,0.145755432546,1538891.0,1521530839.0,925640536.0,,,,,,1044086.5,1521530840.0,415304780.0,,-1.2389999926100002,-1.99999998733,-0.899998474121,-0.04700000025335,-0.159000001848,-0.08100000023845,64.0,66.5,68.0,69.0,91.0,190.5,210.0,223.0,256.0,269.0,5.0,1.2100000232449997,1.3049999475550005,-0.12499999999999988,-0.0005000010132999999,-0.024000003934000008,0.0005000010132499705,2.518951802720272,0.18452913225316972,9.267437682557421,2.0923567371853258,0.0987532609707362,0.0856451038717244
18,18,55.8639818462,5585.5,1521530840.0,533099054.5,,1538550.5,1521530840.0,52586672.5,,0.7681251825030001,-0.087373333655,0.08311359481194999,0.7681059151809999,0.6392570945130001,-0.033698713892049995,-0.0150854903073,0.077896948381,0.0432949775364,0.1140181007035,0.026427352709970004,-0.141870961223,-0.0034126707710100002,2.86926841736,3.182817339895,7.529189348225,-1.001236945393,1.506590008735,0.145153649151,1538902.0,1521530840.0,35656315.0,,,,,,1044097.5,1521530840.0,525353647.0,,-1.9290000051249998,-3.2849999539549994,-1.534998703,-0.030500000342700007,-0.1195000000295,-0.09149999916555004,56.5,58.5,60.0,64.5,73.0,205.0,212.0,213.0,254.5,264.5,5.0,-0.6900000125149999,-1.2849999666249996,-0.6350002288790001,0.016499999910649998,0.03950000181850001,-0.01049999892710003,4.107126335464772,0.15356676032022964,8.663239562162682,1.8147612672475364,0.14471529613341858,0.1443517264579348
19,19,55.9665459487,5594.5,1521530840.0,622867464.5,,1538559.5,1521530840.0,142584121.5,,0.773057958876,-0.0817186984538,0.09212346394224999,0.7687754141180001,0.6387205732354999,-0.029223335216650007,-0.01287348423005,0.06016782271295,0.07066065898294999,0.1072350573845,0.04446304197145,-0.123857959712,0.009423975130925,2.10354447365,2.8684548139600015,6.246188640594999,-0.922487705946,1.311824321745,0.133475720882,1538912.0,1521530840.0,135633807.0,,,,,,1044106.5,1521530840.0,615346800.5,,-2.3939999789,-0.22500000745050008,-2.494999694825,-0.08449999988080001,-0.0935000032186,-0.1039999984205,56.0,57.5,59.0,72.0,89.0,151.5,157.0,182.0,186.0,206.0,5.0,-0.4649999737749997,3.0599999465045,-0.9600009918249996,-0.0539999995381,0.025999996810899983,-0.012499999254949962,3.4650951472510494,0.1633967571685479,7.188032060741783,1.6092490133003694,0.14181838086150447,0.13193395162975538
20,20,56.0691100513,5607.5,1521530840.0,752997517.0,,1538572.5,1521530840.0,272577964.5,,0.7791998646045,-0.07495699488009999,0.1002969064132,0.7674737488844999,0.6406288339255,-0.021991095819650003,-0.009751507143355,0.0385262531943,0.04497092918175,0.0291157270456,0.04216157540645,-0.10427137569865,0.03031801045275,3.187324762345,0.7326421439645,4.968937158585,0.024669785518200003,1.99273073673,0.229819975793,1538925.0,1521530840.0,265643358.0,,,,,,1044119.5,1521530840.0,746598453.0,,-0.733999967575,-2.7399999968700004,-1.7099998474150002,-0.015000000130385,-0.16799999773500002,-0.09699999913575,61.5,63.0,63.0,64.5,69.0,120.5,123.0,126.5,135.5,163.5,5.0,1.6600000113249995,-2.5149999894195005,0.7849998474099995,0.06949999975041501,-0.07449999451639999,0.006999999284749993,3.312167781590635,0.19457132130714194,5.948625062797056,2.0060911267186983,0.06598774293802727,0.11648733831904584
21,21,56.1716741538,5617.5,1521530840.0,852854967.0,,1538582.5,1521530840.0,372584072.0,,0.779869884341,-0.07099736864930001,0.10184246111950004,0.7661360579475001,0.6422842630975,-0.0204375192547,-0.00941433899059,0.0021593053834050003,0.0266705429305,-0.0002945753783099997,0.02578790536513,-0.0032911899296349987,0.0124277652685,2.1188954711,0.445222258568,5.425942420959999,0.207763567567,1.2816094160099998,0.2254353910685,1073729.5,1521530840.0,367319601.0,,,,,,1044129.5,1521530840.0,846482187.5,,-0.5889999866485001,-1.59000002071,-0.985001373291,-0.038500001654,-0.112500000745,-0.09600000083465,60.0,64.5,65.0,75.5,93.0,109.0,113.0,117.0,122.0,133.0,5.0,0.1449999809264999,1.1499999761600004,0.7249984741240002,-0.023500001523615,0.055499996990000015,0.000999998301100008,1.960930584063314,0.1528217931292386,5.8419852817809925,1.317766865101664,0.026759432628513477,0.028814880597406025
22,22,56.274238256400004,5624.5,1521530840.0,922917008.0,,1538589.5,1521530840.0,442580429.5,,0.7789921038109999,-0.07036306217410003,0.10048924469699999,0.7659325533244999,0.6424907544874999,-0.021360162604950002,-0.009831238715335,-0.012393642202785,0.005359707842165,-0.00838864982188,-0.014987067253325,0.023226030152105,0.01827931712325,1.135642945765,0.8989732861520001,6.253310203549999,-0.12931730225674998,0.8901641666890001,0.184650555253,1538941.5,1521530840.0,430652800.0,,,,,,1044136.0,1521530840.0,912135681.5,,-1.0590000152585,-1.63000004217,-1.4300010681150002,-0.03399999905375,-0.1495000049475,-0.08650000020859999,62.0,63.0,65.0,67.0,74.0,102.0,105.5,110.0,127.0,133.5,5.0,-0.4700000286099999,-0.040000021460000035,-0.44499969482400015,0.004500002600249999,-0.03700000420250002,0.009500000626049998,2.4131481978116773,0.17603551190326716,6.418857092294801,0.9182652317687559,0.015896486436887423,0.03313901169278465
23,23,56.376802358999996,5637.5,1521530841.0,54295062.5,,1538600.5,1521530840.0,552619532.0,,0.7782440916855,-0.06907402320560001,0.1000989532935,0.7652676128575,0.6432623698995,-0.021687550931349997,-0.01041392741,-0.0012430881996999994,0.00727987232189,-0.0027892809713150005,-0.0111391402437,-0.002011865219150002,0.03754040872165,3.373890399935,1.45757985115,6.964277029034999,-0.3236632570625,1.6330839395499996,0.17545630037799995,1538953.5,1521530840.0,550654854.5,,,,,,1044150.0,1521530841.0,50588471.5,,-1.1040000021445,-1.3699999921,-1.184998321535,-0.0525000002235,-0.14099999517200001,-0.08249999955295,53.0,55.5,56.5,83.0,101.0,112.5,114.5,116.0,120.5,125.0,5.0,-0.044999986886000036,0.26000005006999993,0.2450027465800002,-0.018500001169749997,0.008500009775500028,0.004000000655649996,2.121305495474384,0.17159107957061254,7.874568559000332,1.6740686876382307,0.007894421931477531,0.03920982445787507
24,24,56.4793664615,5646.5,1521530841.0,143378496.0,,1538609.0,1521530840.0,637598920.5,,0.7793433681824999,-0.07014015844365001,0.100900752587,0.7657119359065001,0.642767759784,-0.02101096172515,-0.00965969079422,0.01156596720895,-0.003286537503395,0.011817019218355,0.0032456475864009997,-0.02520748128213,-0.0034275181472050004,1.2623158693310002,0.981188297272,6.416991472244999,-0.1270448043945,0.866967141628,0.184548020363,1538962.0,1521530840.0,635652270.5,,,,,,1044158.5,1521530841.0,137823668.0,,-1.379000008105,-0.5649999849495,-1.519999313355,-0.052000001072899996,-0.1429999992255,-0.08350000157955001,48.0,51.0,55.5,59.5,67.0,113.5,118.5,125.0,127.5,137.5,5.0,-0.2750000059605,0.8050000071505001,-0.3350009918200001,0.0004999991505999987,-0.002000004053500009,-0.0010000020266000137,2.128676564898058,0.17356627020783574,6.613165005013367,0.8954498192563131,0.016858673418946698,0.025645647223134466
25,25,56.5819305641,5659.5,1521530841.0,273937463.5,,1538622.0,1521530840.0,767594948.0,,0.779518626938,-0.0703460962124,0.101611182109,0.765901740864,0.642555421595,-0.0206275789878,-0.00956851632503,0.00243748181313,-0.0165578832452,0.009584648582860001,-0.015455093445899999,-0.00396592139567,-0.011178901954700001,1.61419022083,1.00929307938,5.9855661392199995,-0.0897731408477,0.984735012054,0.17303493619000002,608539.5,1521530840.0,758000000.0,,,,,,1044171.5,1521530841.0,266823580.0,,-0.6490000486375,1.51499999836,-1.78500061035,-0.05900000035765,-0.1330000013115,-0.09600000083444996,50.0,51.0,55.5,60.5,99.0,114.0,117.5,119.5,123.5,133.0,5.0,0.7299999594675,2.0799999833095,-0.265001296995,-0.006999999284749993,0.009999997913999996,-0.01249999925489996,2.429537659126145,0.17431580694611745,6.281025759864751,1.003844285696208,0.019286531663519357,0.019482204568552545
26,26,56.6844946667,5668.5,1521530841.0,366888046.0,,1538631.0,1521530840.0,857594737.0,,0.779783273887,-0.07007503726389999,0.101067324396,0.765517108028,0.643020026462,-0.020554423085499998,-0.00929077909398,-0.00795956368385,0.011060457594000001,-0.00274077313276,0.011934648629,0.0144623313567,0.0134411480859,2.14732432365,1.06547725201,6.43821048737,-0.15194205939799998,1.2345780134200002,0.197072759271,1538984.0,1521530840.0,855650103.5,,,,,,1044181.0,1521530841.0,362104723.0,,-0.789000034332,-1.64999996349,-1.5450008392299999,-0.05700000002980001,-0.129999995232,-0.09600000083450001,57.5,63.0,68.5,74.0,88.0,114.5,118.0,124.0,130.0,150.0,5.0,-0.1399999856945,-3.16499996185,0.23999977111999996,0.002000000327849985,0.003000006079499989,-5.002942504717112e-14,2.3941696946779487,0.1713621863887749,6.869992562235477,1.2594073737599225,0.013899647966448473,0.023070746152558066
27,27,56.7870587692,5676.5,1521530841.0,442970990.5,,1538639.0,1521530840.0,937595262.0,,0.7788001111364999,-0.07008790825019999,0.1003903738275,0.7657771851349999,0.6426695298295,-0.021488456760299996,-0.00994897762596,-0.008308652294154999,0.012533050209155005,-0.005524810557275,0.0131717513704,0.01556128634955,0.013700645188684999,2.3850183486950005,1.1539387106899999,6.583324193955001,-0.1471706852315,1.26817363501,0.194857947528,1073769.5,1521530840.0,939823934.5,,,,,,1044188.5,1521530841.0,436937997.5,,-1.7389999926050002,-2.475000011175,-1.409998703005,-0.052000001072849994,-0.13900000602,-0.10000000149025001,61.0,67.5,69.5,72.0,79.5,107.0,110.5,114.0,123.5,140.0,5.0,-0.949999958273,-0.8250000476850001,0.135002136225,0.004999998956950011,-0.009000010788000001,-0.00400000065575,3.33734061373307,0.17895530750214267,7.096481136052852,1.2914693952397054,0.016019818419200162,0.024563313001355554
28,28,56.8896228718,5688.5,1521530841.0,563190460.0,,1538653.0,1521530841.0,77599276.0,,0.779160890527,-0.07079413011584999,0.100682802491,0.7659862492289999,0.6424265442775,-0.0214716703329,-0.009590234135340001,0.0024116417680750003,-0.01568474011759,0.003052899064191001,-0.0091368466755,0.00096675022645,-0.014628185937219996,1.6393483877200001,0.8875001668929999,6.282360315319999,-0.0297901127487,1.0327789187455,0.204368248582,1539005.0,1521530841.0,65650653.5,,,,,,1044200.5,1521530841.0,557463449.0,,-1.103999972346,-2.399999963495,-1.175000000001,-0.043999999761550015,-0.15450000017850002,-0.08650000020865,56.5,58.0,60.0,66.5,83.0,105.5,106.5,108.0,113.5,127.0,5.0,0.6350000202590003,0.07500004768000013,0.23499870300400014,0.008000001311299992,-0.01549999415850001,0.013500001281600005,2.8912697493866464,0.18245136357470546,6.553103906856877,1.053226531592885,0.01616005201940883,0.01727426979602372
29,29,56.9921869744,5696.5,1521530841.0,643001913.5,,1538661.5,1521530841.0,162601538.0,,0.7790268680050001,-0.07065414998645,0.1007735888295,0.766006282863,0.6424001277560001,-0.0215249383579,-0.009640855438565,0.008869313208225,0.0006283870928629997,0.0028498754122549988,0.0031990359250000005,-0.0211042643854,0.005462392381345002,1.2145223021499998,0.5945906937125001,6.2320480346650005,0.07352421479314501,0.8621433973315,0.20293825119750009,1539014.0,1521530841.0,155653222.0,,,,,,1044208.5,1521530841.0,637986271.0,,-0.6790000200274999,-1.7099999658799998,-0.8050010681155001,-0.057499999180449984,-0.15000000596,-0.08650000020865,53.0,59.5,72.0,89.0,116.0,102.5,104.0,106.0,113.5,121.5,5.0,0.4249999523185,0.6899999976150002,0.3699989318854998,-0.013499999418899985,0.004499994218500032,0.0,2.0082747895081594,0.18245136812270887,6.377070269476505,0.8887524860850455,0.009337096818039688,0.02203319170311191
30,30,57.094751076899996,5709.5,1521530841.0,772879480.5,,1538674.5,1521530841.0,292596953.0,,0.778659568634,-0.07072808181965001,0.1001617392217,0.7659136564275,0.642493698853,-0.0217475513414,-0.010246785257450002,-0.0011839415920250002,-0.006933208894535,-0.004678694562315,0.00926620241285,0.01029284038435,-0.01940166875245,1.512446641925,0.320206344128,6.4038424491849995,0.2434388324615,0.9809447824975,0.2072824314235,608560.5,1521530841.0,288000000.0,,,,,,1044221.5,1521530841.0,766855572.0,,-0.8939999938010001,-1.33000003025,-0.6950004577635001,-0.05449999868870002,-0.15499999374149998,-0.08749999850989999,49.0,58.0,61.0,64.5,79.5,107.0,110.0,111.5,125.0,129.0,-1.0,-0.21499997377350025,0.3799999356299997,0.11000061035200004,0.0030000004917499767,-0.004999987781499987,-0.0009999983012499991,1.7467574833595714,0.18614912746549694,6.587808820956614,1.0317369518613373,0.008447560954264957,0.023837571619470976
31,31,57.197315179499995,5720.5,1521530841.0,882879018.0,,1538684.5,1521530841.0,392601235.5,,0.778967366355,-0.07093825976535001,0.100458057688,0.765600413854,0.6428817572375001,-0.0215808791891,-0.009653762023255,-0.00570930664725,-0.00643343613322,-0.00387446812186,-0.00895861775128,0.0156479843451825,-0.001459126137805,1.4733317494399998,0.6943331658840001,6.3151278495800005,0.01439997553825001,0.9427576959135,0.1898145005105,1073801.5,1521530841.0,392340567.5,,,,,,1044232.5,1521530841.0,876874318.5,,0.5360000133515,-1.440000044555,-0.504999923706,-0.04999999888244999,-0.152999997139,-0.1035000011325,45.5,46.5,53.0,66.0,94.0,105.5,107.5,114.0,123.5,130.0,-1.0,1.4300000071524999,-0.11000001430499996,0.1900005340575001,0.00449999980625003,0.0019999966024999705,-0.016000002622600012,1.6173809277885887,0.1913667924359044,6.521782328910966,0.961784267444464,0.009433810794152227,0.018089922475418505
32,32,57.2998792821,5729.5,1521530841.0,972859024.5,,1538692.5,1521530841.0,472604169.0,,0.779440515253,-0.07217875377569999,0.10037487415355,0.7665886101465,0.6417055218979999,-0.02152398300005,-0.009616190467825001,-0.00265502881803,-0.0004989551405500009,-0.0039505835843895,0.0011330446961349994,0.0023217782057025,0.012758849188825002,0.678684741259,0.6241652667519999,6.091868400569999,0.03164353640751,0.6488247215745,0.1856431216,1539045.0,1521530841.0,465648817.5,,,,,,1044241.5,1521530841.0,966446542.0,,-0.7340000271799999,0.02499998137349996,-1.38499908447,-0.05750000104310001,-0.1300000026825,-0.10999999940400004,48.5,55.5,63.0,79.0,139.0,102.0,107.5,108.5,113.0,141.0,-1.0,-1.2700000405315,1.4650000259285,-0.879999160764,-0.007500002160650027,0.0229999944565,-0.006499998271500025,1.5676745526261673,0.17973939658930238,6.161254407026273,0.6756021028090374,0.004785942426951962,0.013017783104011802
33,33,57.4024433846,5738.5,1521530842.0,62896966.0,,1538701.0,1521530841.0,557597371.5,,0.7787181175845,-0.07292563030839999,0.1000870215925,0.7666090439105,0.6416485369435,-0.02236661312525,-0.0098704108238,-0.011905729353885001,0.002421410211815001,-0.0037490443235149995,-0.007230577249419999,0.0230098668571,0.0016730909548499998,0.149394348264,0.37365959584700004,6.0558505058300005,0.168392188847,0.47878539562250005,0.1897070854905,1073813.0,1521530841.0,553325926.5,,,,,,1044250.5,1521530842.0,58109851.0,,-1.218999989331,-0.36999999210199996,-1.84999923706,-0.08000000193715001,-0.1279999986295,-0.0925000011921,56.0,56.5,73.0,83.0,112.0,105.0,112.5,114.5,119.0,127.0,-1.0,-0.4849999621510001,-0.3949999734755,-0.4650001525899998,-0.022500000894049996,0.002000004052999993,0.017499998211900014,2.246187468860745,0.1770317773159229,6.069206333106763,0.5418303817721718,0.012714753328378847,0.02417714733967802
34,34,57.505007487200004,5746.5,1521530842.0,142878532.0,,1538709.0,1521530841.0,637611071.0,,0.7780974833115,-0.07306156701210001,0.09953645365980003,0.766477384848,0.6417769340739999,-0.0229023221308,-0.01050087926215,-0.0077323591863850015,-0.010609200019539999,-0.0119894965650325,-0.004323208139335,0.0257098786773755,-0.01572468224865,1.811072528365,0.4523956775665,6.35139131546,0.18082477152350002,1.081240534783,0.201169408858,1073818.5,1521530841.0,643324465.0,,,,,,1044258.5,1521530842.0,137321792.5,,-0.8389999866485,-0.7000000350175001,-1.420000839235,-0.07149999961260001,-0.1300000026825,-0.06949999928475001,58.5,60.0,62.5,65.0,72.0,106.5,110.0,112.5,124.0,139.0,-1.0,0.38000000268250006,-0.3300000429155001,0.4299983978249997,0.008500002324550004,-0.002000004052999993,0.02300000190735001,1.7917375393870578,0.16383681070697165,6.620031510059446,1.114561717947746,0.0177789912966064,0.030445913059758748
35,35,57.6075715897,5760.5,1521530842.0,282874464.5,,1538723.0,1521530841.0,777596481.0,,0.7780885591069999,-0.0742878416151,0.0991581881854,0.767029392659,0.6411033401990001,-0.023297288516000002,-0.0104715964142,0.014049697905999999,-0.0147338562134,0.00540530757133,-0.00392545145111,-0.026543021912500003,-0.033376497064999996,0.924861192703,0.819960296154,6.58741998672,-0.0161211621016,0.72352206707,0.18884891271600002,1073827.5,1521530841.0,779835767.5,,,,,,1044272.5,1521530842.0,278357845.5,,-1.5540000051249998,-2.045000004025,-0.7650001525880001,-0.0475000012666,-0.169500000775,-0.09400000050665,50.0,54.5,57.5,81.0,101.5,96.0,100.5,104.0,106.0,145.5,-1.0,-0.7150000184764999,-1.3449999690074996,0.6550006866470001,0.023999998346000008,-0.03949999809249999,-0.024500001221899975,2.679956392527761,0.19955575781796475,6.702373101706223,0.7479358162561591,0.021064137297968886,0.04282442921595605
36,36,57.71013569229999,5771.5,1521530842.0,392880439.5,,1538734.5,1521530841.0,892596901.0,,0.7779284320935,-0.07432515423495001,0.09940471207810002,0.767044532486,0.64108101333,-0.023447193118950004,-0.0103938676392,-0.009908032548305,-0.007432863769814999,-0.007469298846613999,-0.018943914284635,0.02652878272545,-0.0030267905743500013,0.5402308106425,0.6717009842395001,5.856332063675,0.042506546946225,0.5656708478925,0.1806046143175,608584.0,1521530841.0,895000064.0,,,,,,1044283.5,1521530842.0,388528704.5,,-0.038999974727605004,-0.394999998063,-0.7750003814695,-0.05049999989569999,-0.1645000055435,-0.0940000005068,47.5,48.5,57.0,69.5,113.0,103.5,104.0,110.0,118.5,134.0,-1.0,1.5150000303973947,1.6500000059619997,-0.010000228881499871,-0.002999998629099991,0.004999995231499993,-1.5001888620247428e-13,0.8707304908962327,0.19607779555206048,5.919430443972092,0.5953220484758518,0.014463989700595368,0.03273850428010886
37,37,57.8126997949,5782.5,1521530842.0,502905964.5,,1538747.5,1521530842.0,22603160.5,,0.7777238383405,-0.07428712611829999,0.09897544110964998,0.766914896119,0.641230208323,-0.0235183353192,-0.010593461151199999,-0.008364054780115,-0.008944294219520001,-0.008118985489939999,-0.007903700348205,0.022347269667355,0.00255332261066625,1.605158507825,0.7595532536509999,6.366197586055,0.049593411386,0.986479461195,0.19892067462200005,1539100.5,1521530842.0,20656446.0,,,,,,1044294.5,1521530842.0,498672346.5,,-0.13899999856929998,-3.0450000636300003,-1.0799987792949999,-0.05350000038745,-0.154500000179,-0.052999999374150016,52.5,71.0,79.0,84.0,104.0,103.0,104.0,104.0,129.0,141.0,-1.0,-0.10000002384169497,-2.6500000655669997,-0.3049983978255001,-0.0030000004917500114,0.010000005364499992,0.04100000113264999,3.233843495036156,0.17187640917365027,6.609230415492209,1.0075567818264886,0.014692710329818653,0.02384089757399751
38,38,57.915263897399996,5790.5,1521530842.0,582872509.5,,1538755.5,1521530842.0,102597905.0,,0.7771072785940001,-0.07371743637549999,0.09845665335335,0.766725456733,0.641431694547,-0.0238986927911,-0.011227826771049998,0.0181178064445,-0.00022936449585499999,0.0102103006962,0.0224132398292,-0.030654088545300006,-0.020000515677700004,0.9326623380185001,0.48025509715049997,6.4829154014600014,0.140197660774,0.7270756661894999,0.18056001514199999,608593.0,1521530842.0,96999936.0,,,,,,1044302.5,1521530842.0,580226182.0,,0.6910001039505,-1.324999975415,-0.9999988555935,-0.03800000064075,-0.175499998033,-0.08650000020860002,50.5,51.5,62.0,91.0,110.0,113.5,117.5,122.5,125.0,128.0,-1.0,0.8300001025198,1.7200000882150004,0.07999992370150011,0.0154999997467,-0.020999997854,-0.033500000834450004,1.79808336561397,0.19931507568261816,6.567244178312883,0.7621655512547691,0.02079802295265458,0.04291907607997001
39,39,58.017828,5802.5,1521530842.0,702938437.0,,1538767.5,1521530842.0,222608381.5,,0.7775935916615,-0.07469868294105,0.0989526091196,0.7673164656529999,0.6407401998215,-0.023642030994299998,-0.01088202985945,-0.00357002989933,-4.7623097849999046e-05,-0.006107348915449999,0.007468937083069998,0.01154175218883,-0.023179337312500003,0.597084313631,0.40151046216499997,6.225850820545,0.16091939061850002,0.6351041197780001,0.1977789849045,1539120.5,1521530842.0,220657979.5,,,,,,1044314.5,1521530842.0,698841946.5,,1.050999999045,-1.975000011175,-1.334999847415,-0.0219999998808,-0.1759999990465,-0.05849999934435,45.5,48.0,50.5,57.0,112.5,98.0,101.0,105.0,130.5,134.0,-1.0,0.3599998950944998,-0.6500000357600002,-0.3350009918215,0.01600000075995,-0.0005000010134999788,0.028000000864250026,2.605273619935517,0.18676790297696266,6.267291182679564,0.6843747658307341,0.007074396950737729,0.02694955923546571
