,Unnamed: 0,.header.seq,.header.stamp.secs,.header.stamp.nsecs,.header.frame_id,.endpoint_state.header.seq,.endpoint_state.header.stamp.secs,.endpoint_state.header.stamp.nsecs,.endpoint_state.header.frame_id,.endpoint_state.pose.position.x,.endpoint_state.pose.position.y,.endpoint_state.pose.position.z,.endpoint_state.pose.orientation.x,.endpoint_state.pose.orientation.y,.endpoint_state.pose.orientation.z,.endpoint_state.pose.orientation.w,.endpoint_state.twist.linear.x,.endpoint_state.twist.linear.y,.endpoint_state.twist.linear.z,.endpoint_state.twist.angular.x,.endpoint_state.twist.angular.y,.endpoint_state.twist.angular.z,.endpoint_state.wrench.force.x,.endpoint_state.wrench.force.y,.endpoint_state.wrench.force.z,.endpoint_state.wrench.torque.x,.endpoint_state.wrench.torque.y,.endpoint_state.wrench.torque.z,.joint_state.header.seq,.joint_state.header.stamp.secs,.joint_state.header.stamp.nsecs,.joint_state.header.frame_id,.joint_state.name,.joint_state.position,.joint_state.velocity,.joint_state.effort,.wrench_stamped.header.seq,.wrench_stamped.header.stamp.secs,.wrench_stamped.header.stamp.nsecs,.wrench_stamped.header.frame_id,.wrench_stamped.wrench.force.x,.wrench_stamped.wrench.force.y,.wrench_stamped.wrench.force.z,.wrench_stamped.wrench.torque.x,.wrench_stamped.wrench.torque.y,.wrench_stamped.wrench.torque.z,.tactile_values.tactile_values_0,.tactile_values.tactile_values_1,.tactile_values.tactile_values_2,.tactile_values.tactile_values_3,.tactile_values.tactile_values_4,.tactile_values.tactile_values_5,.tactile_values.tactile_values_6,.tactile_values.tactile_values_7,.tactile_values.tactile_values_8,.tactile_values.tactile_values_9,.tag,.delta_wrench.force.x,.delta_wrench.force.y,.delta_wrench.force.z,.delta_wrench.torque.x,.delta_wrench.torque.y,.delta_wrench.torque.z
0,131.436105,13142.5,1521544266.0,278759955.5,,2881082.5,1521544265.0,372457974.0,,0.5767770106745,-0.167299947486,0.14232560422649998,-0.305502933539,0.950135535339,-0.03444500086625,0.052186954284349996,0.028472621134000002,0.0012483004508235002,-0.013204948194949998,0.036583688319599995,-0.05866931279665,0.0038746396258,-0.9763384163400001,-0.7220199406145,7.107924938200001,1.13092011213,0.08669763803450001,0.734689831734,2010518.5,1521544265.0,370270163.0,,,,,,2385260.0,1521544266.0,264059447.5,,0.64099984169,-0.18100002408025,0.21499938964850002,-0.029000000096849998,-0.14000000059599998,-0.06000000052155,27.5,28.5,32.5,35.5,39.0,-119.0,-107.5,-106.0,-96.0,-79.5,4.0,0.0,0.0,0.0,0.0,0.0,0.0
1,131.538669103,13154.5,1521544266.0,396972417.0,,2881096.5,1521544265.0,512462328.5,,0.5830804253140001,-0.1676642425165,0.13704029041,-0.3028126254085,0.950542712683,-0.0351870426789,0.0594539516086,0.0541153803438,-0.01650715189855,-0.061510495412300005,0.00533016787051,-0.1266781467935,-0.0570326177728,3.60477685928,2.61866605282,2.9225584268550002,-0.7209601700309999,1.567919790745,0.2128046676515,2881449.0,1521544265.0,505533214.0,,,,,,2385272.5,1521544266.0,389439299.5,,1.0360000610335,-0.9109999984525,0.2750007629395,-0.0369999995455,-0.2060000002385,-0.03350000083445,25.0,27.5,31.0,43.5,59.0,-107.0,-102.5,-99.0,-97.0,-75.0,4.0,0.39500021934350005,-0.7299999743722501,0.06000137329099997,-0.00799999944865,-0.0659999996425,0.026499999687100005
2,131.641233205,13162.5,1521544266.0,477159499.5,,2881104.5,1521544265.0,592461447.0,,0.5841365575845,-0.16870253570349994,0.13086237633300002,-0.3024035512005,0.9505634835415,-0.036109031882849994,0.06063847724065,-0.00515448658226,0.0027136202260029997,-0.088623403403,0.046368724606600006,0.012438869384349998,-0.0638763935994,-1.7401509284955001,1.75910055637,5.04665875435,-0.186032176018,-0.2555982656777,0.2718229666355,2010534.5,1521544265.0,591267257.0,,,,,,2385280.5,1521544266.0,471371928.0,,0.7210000038150001,-1.08600001037,-1.0549991607684999,-0.012000000569985,-0.1735000014305,-0.044500000774849995,20.0,32.0,39.0,46.0,65.0,-109.0,-106.0,-105.0,-97.0,-79.0,4.0,-0.3150000572185,-0.17500001191750003,-1.3299999237079998,0.024999998975514998,0.032499998807999975,-0.010999999940399997
3,131.74379730799998,13174.5,1521544266.0,596855521.0,,2881116.5,1521544265.0,712461463.5,,0.5792551798829999,-0.1662634467165,0.1215236063175,-0.3014172110335,0.951351429721,-0.03265353075525,0.05487879074995,-0.0423202464291,0.004155663461869999,-0.08865665444335001,-0.020484685919549998,0.1260397214445,0.018393880999785,1.344857573505,1.4032945632949998,4.76661539078,-0.39297029376000003,0.4893358498815,0.1918921768665,2881469.0,1521544265.0,705557872.0,,,,,,2385292.5,1521544266.0,589662981.0,,0.2110000133515,-1.4009999856334998,-0.3799999237065,-0.03050000034275,-0.1474999934435,-0.0320000005886,27.0,28.0,42.0,51.0,67.0,-81.0,-77.5,-74.0,-71.0,-56.0,4.0,-0.5099999904635001,-0.31499997526349977,0.6749992370619999,-0.018499999772765,0.026000007987,0.012500000186249992
4,131.84636141,13183.5,1521544266.0,686941027.5,,2881125.5,1521544265.0,802462117.0,,0.5798416945395001,-0.1654776356395,0.113781814057,-0.3025653009025,0.951104507522,-0.032747982381149995,0.052744878963,0.0234487455931,0.02081497619135,-0.09488047140555,0.00980364939586,0.007710676440485,0.04593735233275,3.537099957465,2.081157803535,3.2503623962400003,-0.31143271923050003,1.306711912155,0.228656232357,2010549.5,1521544265.0,802270460.0,,,,,,2385301.5,1521544266.0,679937127.0,,-1.219000053405,-0.7059999704365,-1.290001678465,-0.05849999934435,-0.0975000001488,-0.02699999976905,26.0,29.5,30.5,40.0,69.0,-71.0,-68.5,-66.0,-57.0,-49.5,4.0,-1.4300000667565,0.6950000151969998,-0.9100017547585,-0.027999999001599996,0.04999999329470001,0.005000000819550002
5,131.948925513,13191.5,1521544266.0,766806483.0,,2881132.5,1521544265.0,872581420.5,,0.5826278343975,-0.1635416551245,0.108943606173,-0.302730624358,0.9510386721985,-0.030934735135599998,0.0540589801781,0.0308889816143,0.036596148496099996,-0.06694370893314999,0.0563384418915,-0.02549179617945,0.06414179443955001,-1.735897243025,0.665959253905,7.903834819790001,-0.01386478543299996,-0.2547312304375,0.2342589385805,2881484.0,1521544265.0,855644201.0,,,,,,2385309.5,1521544266.0,759953166.5,,0.5160000801088,-1.161000005902,-0.2300003051755,-0.0444999989122,-0.15150000154999999,-0.05799999833105001,10.5,13.5,16.5,32.0,68.0,-74.0,-72.0,-69.5,-67.5,-57.0,4.0,1.7350001335138001,-0.45500003546550005,1.0600013732895,0.014000000432149995,-0.05400000140119998,-0.03099999856200001
6,132.051489615,13206.5,1521544266.0,916575550.5,,2881146.0,1521544266.0,7581069.0,,0.581626791022,-0.16191671061899998,0.0993950226616,-0.301464994086,0.951693385266,-0.028827055496099995,0.0506710830069,-0.012533674837200002,-0.0164322236696,-0.0705796542805,-0.0343529476156,0.0493808061904,-0.0304540860495,2.17992186546,1.3366122245799998,4.324063301090002,0.008850544691090001,0.881074786186,0.313581377268,2881499.0,1521544266.0,5633963.0,,,,,,2385324.5,1521544266.0,910007986.0,,-1.184000086785,0.024000018835000025,0.470000457764,-0.04549999907615,-0.129500001669,-0.0650000013411,4.0,9.5,10.0,14.0,29.0,-87.0,-86.0,-79.5,-76.5,-61.0,4.0,-1.7000001668938,1.185000024737,0.7000007629395,-0.0010000001639500003,0.021999999880999987,-0.007000003010049986
7,132.154053718,13214.5,1521544266.5,496821999.0,,2881154.0,1521544266.0,87594080.0,,0.581425355217,-0.16111777261,0.0936644403822,-0.302000475142,0.951616068458,-0.028299874494,0.049210653008699985,0.00430594626274,0.0339559494602,-0.0724589535222,0.0367462576072,0.00072549315619,0.02305657632,-0.68378931284,0.669003009796,6.421607494349999,0.06743589043619999,-0.198338747025,0.21669742465,2881507.5,1521544266.0,90633313.0,,,,,,2385332.5,1521544266.0,990356298.5,,-0.9989999055869999,-1.28599999845,-0.7499988555914999,-0.0419999994338,-0.08249999955295,-0.0645000003278,2.0,5.5,7.0,17.5,28.0,-94.0,-88.5,-83.5,-82.0,-68.0,4.0,0.1850001811980001,-1.310000017285,-1.2199993133554998,0.003499999642350003,0.04700000211605,0.0005000010132999999
8,132.256617821,13226.5,1521544267.0,116575956.0,,2881166.0,1521544266.0,207583414.0,,0.583628324777,-0.160352596171,0.08758529109989999,-0.302131491971,0.951541526168,-0.0281756827122,0.0499140906064,0.00775070806796,-0.00325812419178,-0.0611528614314,-0.0204814035686,0.019210006753900003,0.0299321935865,1.11822509766,0.92136400938,6.0178155899000005,0.132458209991,0.968983471394,0.361830592155,2010578.0,1521544266.0,209314598.5,,,,,,2385344.5,1521544267.0,110794716.0,,-0.9440000772495,-1.070999979974,0.924998474121,-0.029500000178850006,-0.17700000107299999,-0.041500000283150006,8.0,10.5,13.0,14.5,39.0,-91.0,-90.0,-83.5,-77.0,-69.0,4.0,0.054999828337499945,0.21500001847599992,1.6749973297124998,0.012499999254949993,-0.09450000152004999,0.02300000004464999
9,132.359181923,13235.5,1521544267.0,209544539.0,,2881175.5,1521544266.0,302576480.0,,0.5843896373585,-0.160007777515,0.08280255276695,-0.30307134471950004,0.9513400973885,-0.028573273281799996,0.04778318600494999,0.0154080284866,0.010300411042300004,-0.06171772818595,0.005469613490600002,0.04632644915194999,-0.034114778706819,3.20546412468,2.0132275223750002,4.524859666825,-0.405860334635,1.4187699556349995,0.224153652787,1139640.0,1521544266.0,303000064.0,,,,,,2385353.5,1521544267.0,200611675.0,,0.810999917982,-2.1959999986,0.47000045776349997,-0.0630000010133,-0.189500004053,-0.03350000083445,-10.0,1.5,11.0,43.0,54.0,-96.0,-92.5,-89.5,-80.0,-67.0,4.0,1.7549999952315,-1.125000018626,-0.45499801635750003,-0.03350000083445,-0.012500002980000008,0.007999999448700008
10,132.46174602600001,13243.5,1521544267.0,287612080.0,,2881184.0,1521544266.0,387581654.0,,0.587646636189,-0.16038664956499998,0.078161410831,-0.3036116462385,0.9512568104445,-0.02903599298025,0.04568754383955,0.06040182100485,-0.0007328824064799996,-0.05703249083444999,-0.027204585929044997,0.00917213536045,0.060971856592750014,3.709592342375,1.706423491237,3.9384236335750002,-0.1914128661155,1.4326983988275002,0.2646745443345,2010590.5,1521544266.0,390313786.5,,,,,,2385361.5,1521544267.0,280580814.5,,-0.08399994373300003,-0.33599999547000003,-1.68500022888,-0.03700000047685,-0.08800000138575001,-0.047000000253299985,1.0,3.5,9.5,30.5,32.5,-97.0,-90.5,-88.5,-83.0,-68.0,4.0,-0.894999861715,1.8600000031300001,-2.1550006866434996,0.026000000536449998,0.10150000266724998,-0.013499999418849988
11,132.564310128,13255.5,1521544267.0,407260537.0,,2881197.5,1521544266.0,522583659.5,,0.5964448133215,-0.1582697172025,0.07078114040615,-0.304098961806,0.951124075508,-0.0287173531061,0.045408402780050004,0.0558414471929,0.006080057995410001,-0.050115278676450006,-0.0082151941519,0.02038120292645,-0.010733232721420002,1.69012928009,1.69662630558,4.679152488710001,-0.2548699826,0.863787591458,0.2316234856845,2881550.5,1521544266.0,520629574.0,,,,,,2385373.5,1521544267.0,403079041.0,,0.011000084876999994,-0.225999981165,0.6700012207029999,-0.07599999941885001,-0.143000006676,-0.0280000003986,-2.0,1.5,16.5,23.0,28.5,-94.0,-91.5,-84.5,-74.5,-71.0,4.0,0.09500002861000002,0.11000001430500003,2.355001449583,-0.03899999894200001,-0.05500000529024998,0.018999999854699984
12,132.666874231,13267.5,1521544267.0,527321457.5,,2881209.0,1521544266.0,637577302.5,,0.5782914140155,-0.1641372970425,0.0591170005959,-0.3036566803405,0.9520671440555001,-0.03008896764935,0.021308737449650002,-0.0833609297988,-0.005889419028654999,-0.124171576226,-0.0294436401515,0.21849069831,-0.013438700783774998,18.637660026549998,4.9906688928600005,4.4967150688199995,-0.786049116403,5.433046221730001,0.04101466760054999,2010607.0,1521544266.0,631815912.5,,,,,,2385385.5,1521544267.0,521486874.0,,-0.4490000724795,1.898999899625,1.705001068113,-0.05399999953805001,-0.09450000152010002,-0.0605000015348,205.0,217.0,247.0,272.5,275.0,61.0,69.0,71.0,76.5,119.5,4.0,-0.4600001573565,2.12499988079,1.03499984741,0.0219999998808,0.04850000515589997,-0.032500001136199996
13,132.76943833299998,13275.5,1521544267.0,606618404.0,,2881217.5,1521544266.0,722581562.0,,0.5898002077794999,-0.1581391246955,0.0525814635895,-0.305012669669,0.951370556297,-0.027182236691200002,0.03345933543525,0.250084073627,0.1001193496746,-0.06330424186195,0.258454314022,-0.485594983371,0.07434051155805001,2.67318034172,1.128246456383,4.239401578900002,0.042432542890305,0.937002316119,0.257053695619,2881570.5,1521544266.0,720632012.5,,,,,,2385393.5,1521544267.0,601122251.0,,1.9410000324250003,1.4389999806895002,-0.43500022888184997,-0.033999999985100005,-0.08500000089394999,-0.047000000253300006,197.5,197.5,210.0,232.0,255.0,2.5,5.5,13.0,14.0,22.0,4.0,2.3900001049045003,-0.45999991893549974,-2.14000129699485,0.019999999552950003,0.00950000062615003,0.013500001281499995
14,132.872002436,13287.5,1521544267.0,727037548.5,,2881229.0,1521544266.0,837661319.0,,0.6142407128949999,-0.148707645888,0.0509750974239,-0.30411316903200003,0.950535631771,-0.021820590026700004,0.0593384782965,0.124496208348,0.051165645393900006,-0.00547961909274,0.150464947486,-0.140822615422,-0.129321513683,-2.51172685623,1.64005792141,4.54238605499,-1.19485354424,-0.056727014482,0.06931219249960001,2010621.0,1521544266.0,832313544.5,,,,,,2385405.5,1521544267.0,721244546.0,,-0.14899988174399995,-0.8409999907015,0.809998703003,-0.05499999877069999,-0.21299999952350002,-0.06399999931455,201.0,237.5,243.0,247.0,259.0,-60.5,-59.0,-55.5,-48.5,-47.5,4.0,-2.089999914169,-2.279999971391,1.24499893188485,-0.020999998785599987,-0.12799999862955003,-0.016999999061249993
15,132.974566538,13296.5,1521544267.0,816635012.5,,2881236.0,1521544266.0,907658630.0,,0.6169699046630001,-0.151320538619,0.0493965767514,-0.301695934746,0.951360655912,-0.025282963072,0.0570371555895,0.031825816168,-0.0646770028489,-0.0285480901315,-0.182977191091,0.0432404281364,-0.0161588622406,2.18590760231,1.04424870014,2.62948870659,-0.0700882300735,1.5309689045,0.316501200199,2881590.0,1521544266.0,915706462.0,,,,,,2385414.5,1521544267.0,811160744.0,,-0.649000000954,0.7489999234675001,0.14499969482405,-0.0439999997616,-0.1855000033975,-0.08150000125170001,170.0,175.0,186.5,196.0,216.0,-71.0,-68.0,-65.0,-62.5,-51.0,4.0,-0.5000001192100001,1.5899999141690002,-0.6649990081789501,0.010999999009099988,0.027499996126000015,-0.01750000193715001
16,133.077130641,13308.5,1521544267.0,936648964.5,,2881248.5,1521544267.0,32650160.0,,0.619394006457,-0.155972494924,0.039518088347400004,-0.301632945222,0.9516505271015,-0.0296899349663,0.049971431982749996,0.06221812857035,-0.012538834389239998,-0.1082077883915,0.009010708346185,0.029786330172604996,-0.054570029155000005,5.6294512748750005,2.33963382244,0.81631785631,-0.3320649415255,1.81637048721,0.267403513193,2881601.0,1521544267.0,25738183.5,,,,,,2385426.5,1521544267.0,931113509.5,,0.12599997520435,0.18400004506105005,-1.515000152585,-0.0204999996349,-0.103000000119,-0.0785000026226,164.5,167.0,171.0,190.0,195.0,-27.5,-27.0,-22.5,-17.5,-12.0,4.0,0.77499997615835,-0.56499987840645,-1.65999984740905,0.023500000126700005,0.0825000032785,0.002999998629100012
17,133.179694744,13318.5,1521544268.0,36731004.5,,2881258.0,1521544267.0,127657292.0,,0.628353439616,-0.156195236188,0.0299044247056,-0.302026241777,0.951324551831,-0.0285131311857,0.0543023729795,0.08838853436720001,0.011086118135,-0.0982813863448,0.0192058983782,-0.0549189339825,0.08383928920599999,1.5024147033700002,1.06762909889,4.20065402985,0.254765570164,0.990493118763,0.346858084202,2010641.5,1521544267.0,129375920.0,,,,,,2385436.5,1521544268.0,30988618.0,,0.010999965668000005,-1.325999990105,0.380000305176,-0.049999998882449985,-0.089500002563,-0.0344999991357,172.0,173.0,174.0,190.0,208.0,-24.0,-23.0,-17.0,-16.0,-16.0,4.0,-0.11500000953634999,-1.5100000351660499,1.895000457761,-0.029499999247549986,0.013499997555999996,0.044000003486899995
18,133.282258846,13328.5,1521544268.0,136816978.0,,2881268.0,1521544267.0,227654694.0,,0.631518420398,-0.156660898996,0.0214839711288,-0.30038090557,0.951994240236,-0.0273285052548,0.0522630933493,-0.0119345989381,-0.0263784406283,-0.0805137898994,-0.05925413298830001,0.126639811305,-0.00975521052373,2.54007220268,1.6069798469499998,3.10010743141,-0.234623074532,1.08218741417,0.287062108517,2881621.0,1521544267.0,225719687.0,,,,,,2385446.5,1521544268.0,132988109.5,,0.611000108719,-0.5660000145435,-0.9399993896485,-0.0504999998957,-0.09600000083444997,-0.0285000000149,138.5,147.0,155.0,159.5,160.5,-29.0,-25.0,-22.5,-10.0,3.0,4.0,0.600000143051,0.7599999755614999,-1.3199996948245,-0.0005000010132500121,-0.0064999982714499666,0.005999999120800004
19,133.38482294899998,13335.5,1521544268.0,206605434.0,,2881275.0,1521544267.0,297647865.0,,0.632141784774,-0.157497961733,0.0171663221896,-0.29843515921,0.952733394279,-0.027525218199900003,0.0497784846664,0.00125764624681,-0.0277707599014,-0.0617013456484,-0.0496755350636,0.0746517493062,-0.0356559179135,3.77481722832,2.54921293259,2.88108754158,-0.481174111366,1.47470653057,0.261853188276,2010654.0,1521544267.0,305352005.5,,,,,,2385453.5,1521544268.0,200900579.0,,0.8160000324269999,-1.0309999883185001,-1.1850002288850001,-0.07850000075995,-0.0780000016093,-0.02149999979885,117.5,123.0,124.5,128.5,136.0,-33.0,-33.0,-33.0,-26.0,-21.0,4.0,0.2049999237079999,-0.46499997377500013,-0.24500083923650007,-0.02800000086425001,0.01799999922514997,0.00700000021605
20,133.487387051,13347.5,1521544268.0,326587438.0,,2881289.0,1521544267.0,437673936.5,,0.6329071503395,-0.1573378735325,0.01031938875018,-0.299827720163,0.9523822883695,-0.02793663792055,0.047860884367150004,0.01018989348401,0.006102324234624999,-0.036636913925550005,0.010086337121235002,-0.021503662686950004,-0.043311014159500005,2.63843858242,1.699923336505,4.406844615935,-0.058709282428,1.19275301695,0.268754884601,2010663.5,1521544267.0,441883465.0,,,,,,2385465.5,1521544268.0,322039548.0,,-0.47400004863750006,0.933999985455,0.16500015258794998,-0.047500001266600006,-0.09899999946350001,-0.0595000013709,76.0,83.5,98.0,109.0,122.5,-35.0,-34.0,-32.5,-32.0,-30.0,4.0,-1.2900000810645,1.9649999737735002,1.3500003814729502,0.03099999949335,-0.02099999785420001,-0.03800000157205
21,133.589951154,13357.5,1521544268.0,427140473.5,,2881299.5,1521544267.0,542654978.5,,0.6325373740625,-0.1550203565205,0.00792975028664,-0.300472999463,0.9522317392655,-0.026165299916650002,0.047809657902100004,0.0018110467242150009,0.012176769842350001,-0.00599104034354,0.0180757381588,0.0025064441956,0.014715959209780001,2.857464671135,1.599807202815,4.9840171337150005,-0.227301128209,1.226468980315,0.265269383788,2010670.0,1521544267.0,537374854.0,,,,,,2385475.5,1521544268.0,422590744.5,,-0.999000024798,-0.6459999978545,-1.0450008392355,-0.0504999998957,-0.05849999934435,-0.0599999986589,65.0,66.5,68.0,70.0,99.5,-43.0,-41.0,-38.0,-33.0,-32.0,4.0,-0.5249999761605,-1.5799999833095,-1.21000099182345,-0.002999998629099991,0.04050000011915001,-0.0004999972880000009
22,133.692515256,13368.5,1521544268.0,536589503.0,,2881310.5,1521544267.0,652648478.0,,0.6327003495825,-0.155312017197,0.00730200955448,-0.29971650938850003,0.952483174437,-0.0260050780362,0.047639440356800004,-0.0064777749629750005,0.003324706082885001,-0.00480394408997,-0.002295790474045,0.0046166541624999965,0.0009921635034450015,2.6174818277350003,1.498698294165,4.924278497695,0.0395497828722,1.41483616829,0.36378052830650004,2010678.0,1521544267.0,647851626.0,,,,,,2385486.5,1521544268.0,532473194.0,,1.046000051496,1.8940000236050003,0.8399993896504999,-0.05099999904635,-0.145000003278,-0.0744999982417,30.0,35.5,36.5,41.5,61.0,-47.0,-45.5,-43.5,-41.5,-35.0,4.0,2.045000076294,2.5400000214595004,1.8850002288859997,-0.0004999991506500004,-0.08650000393365001,-0.014499999582800002
23,133.795079359,13378.5,1521544268.0,636580586.0,,2881320.0,1521544267.0,747648489.0,,0.63260007223,-0.15485389373400002,0.00743586658999,-0.300260086832,0.952312950059,-0.0260018467267,0.0476217321371,-0.00207819029347,0.00807713863276,0.004529446741770001,-0.00766909446585,0.00180435553767,0.0206210606256,2.90459752083,1.93728721142,4.0984716415400015,-0.248835965991,1.33532476425,0.263452529907,2010684.5,1521544267.0,743360133.0,,,,,,2385496.5,1521544268.0,630918328.5,,-0.994000029566,-0.5859999954705001,-0.06000022888199999,-0.054999999702000014,-0.1239999979735,-0.05299999937415,13.5,16.5,27.0,48.0,52.0,-59.0,-50.0,-47.0,-41.0,-37.5,4.0,-2.040000081062,-2.4800000190755003,-0.8999996185324999,-0.004000000655650017,0.021000005304499997,0.021499998867550003
24,133.89764346200002,13389.5,1521544268.0,749583482.0,,2881330.0,1521544267.0,847669310.5,,0.6327357952815,-0.15502523122900005,0.0073938816863,-0.299908705562,0.952416656855,-0.0262298634092,0.04763607531494999,0.0016359972285864995,0.006717695836249999,0.0017121356904045,0.0034745178369799995,-0.004195831753504501,0.008591411150639997,2.703855514525,1.21278977394,4.2963409423800005,-0.016464732587345002,1.32979166508,0.2987352460625,2881683.0,1521544267.0,845708782.5,,,,,,2385508.0,1521544268.0,748405584.5,,-1.1239999055855,-0.17600002884850002,-0.949999618528,-0.0400000009686,-0.0940000005065,-0.048000000417250006,3.5,5.5,12.5,37.0,63.5,-62.0,-58.0,-57.5,-50.0,-44.0,4.0,-0.12999987601949992,0.40999996662200006,-0.889999389646,0.014999998733400015,0.02999999746700001,0.004999998956899995
25,134.000207564,13398.5,1521544268.0,837945938.0,,2881337.5,1521544267.0,922656603.5,,0.632793288275,-0.155079107735,0.007356086657994999,-0.299716759529,0.952484327314,-0.026248443022349997,0.047480235701199996,-0.00013125459043700002,-0.0011117762209000015,0.00019520683399500008,-0.0007712828939000008,0.0021245710616000016,-0.0003992379721499996,2.844297766685,1.2393016815200002,4.58805847168,0.1020109429954,1.42792034149,0.34365394711450004,2010698.0,1521544267.0,928352670.5,,,,,,2385516.5,1521544268.0,831890678.0,,-0.4389999628065,0.923999994993,-1.1199996948245,-0.07100000046195,-0.0839999988675,-0.0744999982417,0.0,1.5,40.5,49.0,65.0,-64.5,-58.5,-56.5,-47.0,-42.5,4.0,0.6849999427789999,1.1000000238415,-0.17000007629649994,-0.03099999949335,0.010000001639,-0.02649999782445
26,134.102771667,13409.5,1521544268.0,950449585.5,,2881348.5,1521544268.0,32651633.5,,0.632989877221,-0.15535723529900006,0.00744413036642,-0.3002462031355,0.9522991906245001,-0.0265365547914,0.047688560118500006,-0.00185104458371,-0.00496519903179,0.0033864566147550003,-0.00447745427761,-0.004255582151770001,0.008794958666105,2.692904829975,1.2907348871200002,4.8486533164950005,0.2300128191705,1.4442875385249998,0.40544030070299997,2010705.0,1521544268.0,39353473.0,,,,,,2385528.0,1521544268.0,946593380.5,,-0.15400011539449998,0.734000056982,-0.18000106811500002,-0.049000000581150005,-0.119000002742,-0.09149999916555,8.5,14.0,22.0,41.5,44.5,-65.0,-63.0,-62.0,-50.0,-47.0,4.0,0.284999847412,-0.189999938011,0.9399986267094999,0.021999999880799995,-0.0350000038745,-0.017000000923849998
27,134.205335769,13419.5,1521544269.0,46674966.5,,2881359.0,1521544268.0,137650518.0,,0.632796980871,-0.154771079508,0.007607215405840002,-0.300258774934,0.952300437398,-0.0263399813555,0.047694343363500015,-0.0198669730637,0.0205975490498,-0.00406677447487,0.00126944865772,0.0286508058024,0.0414920593455,2.28471016884,1.1369851827600002,4.81955432892,0.232462465763,1.27125644684,0.391240417957,2010712.5,1521544268.0,145366652.0,,,,,,2385536.5,1521544269.0,32742630.5,,1.0810001373285,1.90899989009,-0.3050010681155,-0.0434999996796,-0.1189999990165,-0.07750000059605,2.5,6.5,37.0,47.0,62.0,-67.0,-64.0,-61.0,-47.0,-47.0,4.0,1.2350002527230002,1.174999833108,-0.12500000000049996,0.005500000901550006,3.72549999183569e-09,0.013999998569500002
28,134.307899872,13430.5,1521544269.0,156594991.0,,2881370.0,1521544268.0,247657073.0,,0.6324088591829999,-0.1551586093695,0.007136049989445,-0.299795993346,0.952477431557,-0.02627448233605,0.04710262338005001,-0.00036630626733500076,0.0040604486036050005,-0.0001186658614949999,0.0027529557492749998,0.002248129022689999,-0.0028393670042499985,2.628223538395,1.0999047756184999,4.985041141510001,0.3373477756975,1.4461652040450002,0.4243646264075,2010720.0,1521544268.0,250852123.0,,,,,,2385548.5,1521544269.0,152978821.0,,-0.7789999961849999,0.6689999997614999,-1.484999465945,-0.06650000065565,-0.0780000016093,-0.06000000238415,17.0,20.0,20.0,24.0,27.0,-65.5,-61.0,-56.0,-55.5,-48.0,4.0,-1.8600001335135001,-1.2399998903285,-1.1799983978295001,-0.023000000976049997,0.040999997407200006,0.0174999982119
29,134.410463974,13441.5,1521544269.0,266947984.0,,2881381.0,1521544268.0,357656159.0,,0.6332174225639999,-0.155834110263,0.00740643850157,-0.299529459707,0.952519941792,-0.0266073081712,0.047748449270800006,0.015890667257000002,-0.003615042792,0.0142380904639,-0.00488431446269,-0.0264742280602,-0.0308780129136,2.50931072235,1.03362619877,5.2051692009,0.33800047636,1.4170119762399995,0.426961839199,2881734.0,1521544268.0,355735827.0,,,,,,2385559.5,1521544269.0,263641891.0,,-0.30399997234345005,1.2840000093,-1.6700008392299996,-0.07300000265239999,-0.08300000056625,-0.08149999752645,13.5,25.0,27.0,39.5,42.0,-68.5,-64.5,-62.0,-57.5,-47.0,4.0,0.4750000238415499,0.6150000095385,-0.18500137328499955,-0.006500001996749993,-0.004999998956949997,-0.0214999951423
30,134.513028077,13448.5,1521544269.0,336764096.5,,2881390.5,1521544268.0,452656168.5,,0.6335170950825,-0.1558595364915,0.007644727592165,-0.29951375777050004,0.952516865024,-0.026736768087350003,0.0478342549935,0.00091487928526,0.006724134679075,0.0020737120923450003,-0.0025532552171800005,-0.005570805386150001,0.017106817747705002,2.33691477776,1.196000277995,4.94867801666,0.195276558399,1.30339616537,0.378384321928,2010733.0,1521544268.0,442352967.5,,,,,,2385566.5,1521544269.0,332864294.5,,-0.7540000200270001,0.4040000140665,-1.7250011444099997,-0.049499999731800005,-0.07349999994039999,-0.061000000685449994,10.0,15.0,20.0,49.0,65.0,-73.5,-72.0,-69.0,-67.0,-51.0,-1.0,-0.45000004768355,-0.8799999952334999,-0.0550003051800001,0.023500002920599984,0.009500000625850005,0.020499996841000005
31,134.615592179,13461.5,1521544269.0,466587066.5,,2881403.0,1521544268.0,577650406.0,,0.63284368207,-0.155460784403,0.007148773215540001,-0.29940872681,0.95258056537,-0.026385266902700003,0.0474183348431,-0.006137551839609999,-0.00394663923931,0.00197177771935,-0.0211472102829,0.00404899560545,0.0260077172439,2.51388597488,1.119582057,5.27905511856,0.34669578075400004,1.4166816473,0.409927964211,2881756.0,1521544268.0,575706859.0,,,,,,2385579.5,1521544269.0,463568509.5,,0.4710000038150001,-0.6559999883175001,-0.5549991607664999,-0.047000000253300006,-0.1130000017585,-0.04749999940394999,8.5,22.5,37.0,37.0,49.0,-68.0,-64.5,-63.0,-56.5,-49.0,-1.0,1.2250000238420002,-1.0600000023840002,1.1700019836434998,0.0024999994784999993,-0.03950000181810001,0.013500001281500001
32,134.718156282,13469.5,1521544269.0,547475575.5,,2881411.5,1521544268.0,662664311.5,,0.633296415457,-0.15553612843550002,0.007338978185585,-0.299583544682,0.952508609579,-0.0264099361565,0.047742120771949996,-0.00048479698993,-0.011275584268330002,-0.0031818971361775,0.00181534970994055,0.00484628193719,-0.027633312321310003,2.49302256107,0.9671018123625,5.122922420505001,0.35956832766549995,1.41853672266,0.419978246093,1139733.0,1521544268.0,660999936.0,,,,,,2385587.5,1521544269.0,542886009.0,,-0.6390001297019999,1.7240000665200002,-0.5600002288814999,-0.06300000101325,-0.0945000015198,-0.07550000026824999,9.0,13.0,38.5,54.0,69.5,-69.5,-68.5,-68.0,-65.5,-51.0,-1.0,-1.110000133517,2.3800000548375,-0.005001068115000007,-0.016000000759949992,0.018500000238700007,-0.028000000864299997
33,134.820720385,13483.5,1521544269.0,686625003.5,,2881425.5,1521544268.0,802652307.5,,0.6322688674829999,-0.15551718032950002,0.0071569154740150015,-0.2998883928295,0.9524500645945001,-0.026509402172249997,0.046935366678300006,-0.010228484069665,-0.003327964541569,-0.00818922304934,0.005741655584749999,0.022899089327564997,-0.0290392683553,2.28155708313,0.8703941404815,5.454743623735,0.4329579770565,1.32020843029,0.42948693037,2010758.5,1521544268.0,803867400.5,,,,,,2385601.5,1521544269.0,683668343.0,,-0.3839998960495,-0.5909999608995,-1.404999542235,-0.06200000084935,-0.0894999988377,-0.054999999702,9.0,10.0,20.0,43.5,50.0,-65.5,-61.0,-59.0,-54.0,-50.0,-1.0,0.2550002336524999,-2.3150000274195,-0.8449993133535,0.0010000001638999986,0.005000002682099991,0.02050000056624999
34,134.92328448700002,13490.5,1521544269.0,756577968.0,,2881431.0,1521544268.0,856899230.5,,0.6326683299570001,-0.1553161321585,0.00763382638411,-0.300163650222,0.9523367558635,-0.0265759538087,0.04743393139415,0.002171931455350001,0.005891266871105,0.00353792644793,0.00659634907453,-0.00804390165435,0.007496040932824999,2.2613042593,0.9006736278534999,5.521399736405,0.4242871403695,1.346841037275,0.431541100144,2881783.5,1521544268.0,849983417.5,,,,,,2385608.5,1521544269.0,752872955.0,,-0.5939999341965,-0.17599996924414998,-0.364998626709,-0.048000000417250006,-0.09600000083450001,-0.06550000049175,27.0,37.0,40.0,42.0,70.0,-67.5,-66.0,-65.0,-57.5,-53.0,-1.0,-0.21000003814699997,0.41499999165535006,1.040000915526,0.014000000432099993,-0.006500001996800009,-0.010500000789750004
35,135.02584859,13500.5,1521544269.0,856589555.0,,2881440.5,1521544268.0,951905378.5,,0.6328716241585,-0.155907468548,0.007453825230675,-0.2999329118945,0.952404310858,-0.02678266420455,0.0474232313456,-0.00039564136549999866,-0.001735124044375,0.0025653992930650005,-0.0010889323244200003,-0.001535393044100001,0.009242193564985,2.159022927285,1.098464608195,5.43037176132,0.29557877779,1.2872716188400002,0.395510613918,2010768.5,1521544268.0,949989129.0,,,,,,2385618.5,1521544269.0,854806719.0,,-1.1440000057245,-0.2510000169275,-0.17499999999999993,-0.06499999761585,-0.1079999990763,-0.08000000193715,7.5,20.0,23.0,36.0,65.0,-66.5,-64.5,-59.5,-55.0,-49.0,-1.0,-0.5500000715279999,-0.07500004768335003,0.18999862670900008,-0.016999997198599993,-0.01199999824179998,-0.014500001445399993
36,135.128412692,13512.5,1521544269.0,976671933.5,,2881452.5,1521544269.0,71898252.5,,0.6328721310659999,-0.15580888524949998,0.00764481634786,-0.300089003148,0.9523507451315001,-0.026901739032100004,0.04744261945994999,-0.00238806140946,0.0125818023487,0.0028944794681865,0.007512636314895,-0.00050145202206,0.013386912369000002,1.65172868967,0.8122808337215001,6.48477935791,0.3658653944735,1.056840121745,0.3727476596835,2881805.0,1521544269.0,64992227.5,,,,,,2385630.5,1521544269.0,973080599.5,,-0.9440000772495,-0.8210000097754999,-0.244999694824,-0.05750000104309999,-0.1110000014303,-0.07000000029805001,12.5,24.0,37.0,46.0,55.0,-71.0,-67.0,-66.0,-61.0,-53.0,-1.0,0.19999992847499992,-0.569999992848,-0.06999969482400006,0.007499996572750009,-0.0030000023540000115,0.01000000163909999
37,135.230976795,13524.5,1521544270.0,96603512.5,,2881464.0,1521544269.0,186901359.5,,0.633584125327,-0.1555695528135,0.0081481559905,-0.299684481,0.952436294217,-0.02690078849295,0.04827305454915,-0.00305462754845,-0.0033251790816450004,-0.0006945415666399996,0.007834510573184999,0.0033713088317999986,-0.027157818232685003,1.0186941623710002,0.5430291593075001,6.33302760124,0.4676964432,0.8936440646645001,0.4218234717845,2010786.0,1521544269.0,188982247.0,,,,,,2385642.5,1521544270.0,93324795.0,,-0.57399995327,-0.5560000240805,0.384999465942,-0.053999999538050014,-0.130999997258,-0.07200000062584999,8.0,18.5,25.0,49.5,58.5,-69.0,-67.0,-63.0,-59.0,-52.0,-1.0,0.3700001239795,0.26499998569499994,0.629999160766,0.0035000015050499766,-0.019999995827699985,-0.0020000003277999834
38,135.333540897,13534.5,1521544270.0,196625471.0,,2881474.0,1521544269.0,286899765.5,,0.6332176576240001,-0.155870493625,0.00803727056538,-0.299375640988,0.952550805281,-0.02683909675005,0.047966728098,-0.002418017991347,0.0022260413034699998,-0.00167173811293,-0.0017532031991300007,-0.005333384502635,0.0198687069593,1.1510879993449998,0.4643556028605,6.9131383895899985,0.5797755718235,0.9363393187525,0.4377028346065001,2881827.0,1521544269.0,284974052.0,,,,,,2385652.5,1521544270.0,193046955.5,,-1.6240000248,-2.11599999666,-0.82499961853,-0.0449999999255,-0.1019999980925,-0.062499998137350014,6.0,8.0,29.0,39.5,69.5,-66.0,-64.5,-63.5,-62.0,-47.0,-1.0,-1.05000007153,-1.5599999725795,-1.209999084472,0.008999999612550012,0.028999999165499987,0.009500002488499977
39,135.436105,13543.5,1521544270.0,286573528.5,,2881485.5,1521544269.0,401900333.5,,0.633488079659,-0.1554946673455,0.008167076159115001,-0.299706403805,0.9524269920749999,-0.0269093693022,0.048319293224949995,0.003931736415025,0.007184584690185,-0.00444439604271,0.01495557413595,-0.006611196645964999,0.006516164825775003,0.9154393076895,0.33345493674250004,6.949469327929998,0.6526416838169999,0.9083255827429999,0.4575546830895,2881837.0,1521544269.0,384954054.0,,,,,,2385661.5,1521544270.0,284635122.0,,-0.9240000963214999,-0.291000008583,-1.28500061035,-0.05749999918044999,-0.07250000163914999,-0.092000000179,11.0,13.0,34.0,43.5,50.0,-73.5,-71.0,-69.0,-66.0,-51.0,-1.0,0.6999999284785,1.8249999880769998,-0.46000099182,-0.01249999925494999,0.02949999645335001,-0.02950000204164998
