,Unnamed: 0,.header.seq,.header.stamp.secs,.header.stamp.nsecs,.header.frame_id,.endpoint_state.header.seq,.endpoint_state.header.stamp.secs,.endpoint_state.header.stamp.nsecs,.endpoint_state.header.frame_id,.endpoint_state.pose.position.x,.endpoint_state.pose.position.y,.endpoint_state.pose.position.z,.endpoint_state.pose.orientation.x,.endpoint_state.pose.orientation.y,.endpoint_state.pose.orientation.z,.endpoint_state.pose.orientation.w,.endpoint_state.twist.linear.x,.endpoint_state.twist.linear.y,.endpoint_state.twist.linear.z,.endpoint_state.twist.angular.x,.endpoint_state.twist.angular.y,.endpoint_state.twist.angular.z,.endpoint_state.wrench.force.x,.endpoint_state.wrench.force.y,.endpoint_state.wrench.force.z,.endpoint_state.wrench.torque.x,.endpoint_state.wrench.torque.y,.endpoint_state.wrench.torque.z,.joint_state.header.seq,.joint_state.header.stamp.secs,.joint_state.header.stamp.nsecs,.joint_state.header.frame_id,.joint_state.name,.joint_state.position,.joint_state.velocity,.joint_state.effort,.wrench_stamped.header.seq,.wrench_stamped.header.stamp.secs,.wrench_stamped.header.stamp.nsecs,.wrench_stamped.header.frame_id,.wrench_stamped.wrench.force.x,.wrench_stamped.wrench.force.y,.wrench_stamped.wrench.force.z,.wrench_stamped.wrench.torque.x,.wrench_stamped.wrench.torque.y,.wrench_stamped.wrench.torque.z,.tactile_values.tactile_values_0,.tactile_values.tactile_values_1,.tactile_values.tactile_values_2,.tactile_values.tactile_values_3,.tactile_values.tactile_values_4,.tactile_values.tactile_values_5,.tactile_values.tactile_values_6,.tactile_values.tactile_values_7,.tactile_values.tactile_values_8,.tactile_values.tactile_values_9,.tag,.delta_wrench.force.x,.delta_wrench.force.y,.delta_wrench.force.z,.delta_wrench.torque.x,.delta_wrench.torque.y,.delta_wrench.torque.z
0,53.002826,5297.5,1521538129.0,436411499.5,,2267416.0,1521538128.0,707421016.5,,0.6687726735035,-0.197088645391,-0.055441643702800004,-0.1402328120645,0.989901022684,-0.0119680232327,0.0169529512154,0.009833222481770001,-0.0081398168206685,0.006058355954560001,0.004628520502249999,-0.017695418544705004,-0.016945530867415,0.4052035808565,0.281609274447,7.793704032895,0.6643394231795,0.5216781497,0.4256862103935,2267769.0,1521538128.0,705523272.0,,,,,,1772214.5,1521538129.0,430309525.5,,0.486999845505,1.35199999325,-0.6889999389650001,-0.04549999907615,-0.13199999928449999,-0.04650000110265,6.5,7.0,10.0,11.5,30.0,44.0,53.0,56.0,67.0,76.0,5.0,0.0,0.0,0.0,0.0,0.0,0.0
1,53.105390102600005,5310.5,1521538129.0,564952969.0,,2267429.0,1521538128.0,837429411.5,,0.6690334336965,-0.1966375533295,-0.05529558923825,-0.14074727799050002,0.989824221701,-0.011904332288049999,0.017207844308749998,0.00126355916355,-0.0032799654855350004,0.001396368674844,0.0016209683800200007,-0.0013693692008000006,-0.02205360688414,0.349105387926,0.4114587157965,7.507724285125001,0.484874933958,0.441182881594,0.37621101737,1582320.5,1521538128.0,835764143.5,,,,,,1772227.0,1521538129.0,554403287.0,,2.34199986458,2.321999971565,-0.01899986267088,-0.06150000169869999,-0.12400000169849999,-0.03800000064075,11.0,11.0,17.0,31.0,53.5,44.5,51.5,60.0,63.0,64.0,5.0,1.855000019075,0.969999978315,0.6700000762941201,-0.01600000262254999,0.007999997585999993,0.008500000461899998
2,53.2079542051,5318.5,1521538129.0,647017955.0,,2267437.0,1521538128.0,917426898.0,,0.668979482082,-0.197387575561,-0.0553155580711,-0.139828560797,0.989957692868,-0.011785824434,0.017112400719299998,-0.005894513355640001,-0.0145216827657,-0.00340328298405,-0.0187161592568,0.0147163866253,-0.0158151839241,0.520069539547,0.0331481993198,7.77751541138,0.810429930687,0.596325516701,0.449181050062,2267790.0,1521538128.0,915525115.0,,,,,,1772235.5,1521538129.0,639919659.0,,1.081999993324,2.222000007335,-1.21900062561,-0.040500000119249986,-0.13650000095349998,-0.06400000117719999,13.0,16.0,29.0,40.0,43.0,36.0,42.0,43.5,45.5,49.0,5.0,-1.2599998712559999,-0.0999999642299998,-1.20000076293912,0.021000001579450006,-0.012499999254999991,-0.02600000053644999
3,53.31051830770001,5331.5,1521538129.0,774896502.0,,2267452.5,1521538129.0,72423996.5,,0.6689786358834999,-0.196557461917,-0.0551794118632,-0.14050724884850002,0.9898592818535,-0.011848743334350001,0.017200265399750003,0.01367895761895,-0.00134045974608,0.006750102329235,-0.0045136438847399995,-0.02460076661865,0.006976844544399997,0.3191814124585,0.1707314625382,7.69310951233,0.689424395561,0.48459737002850006,0.41992320120300003,2267805.5,1521538129.0,70536183.0,,,,,,1772248.5,1521538129.0,770008866.0,,0.011999940872450002,0.966999982296,-1.018999862675,-0.0599999986589,-0.08150000125169997,-0.0370000004768,9.0,10.0,21.0,28.0,52.0,39.0,42.5,44.5,49.0,54.0,5.0,-1.07000005245155,-1.255000025039,0.20000076293500002,-0.019499998539650017,0.054999999701800015,0.02700000070039999
4,53.4130824103,5338.5,1521538129.0,844738959.5,,2267459.5,1521538129.0,142425808.0,,0.6684566585255,-0.1971193102625,-0.05574754121455001,-0.14046733508099998,0.9898709783575,-0.0120446353273,0.0167072173717,-0.003938644744239999,0.006976108871675,-0.0035182345895,-0.0004778738374999984,0.004161471197701,0.016207910777199998,0.38523693382749996,0.1831633001565,7.71765732765,0.690240383148,0.512440145016,0.41619089245800006,896871.0,1521538129.0,137999872.0,,,,,,1772255.5,1521538129.0,841253875.0,,1.131999945641,2.12700000852,-0.7489994049074999,-0.0460000000894,-0.11100000143049997,-0.058999998495,4.5,5.0,8.5,13.0,42.0,36.5,42.5,50.0,53.0,68.0,5.0,1.1200000047685499,1.160000026224,0.27000045776750015,0.013999998569500002,-0.0295000001788,-0.021999998018199997
5,53.5156465128,5352.5,1521538129.0,984760045.5,,2267473.5,1521538129.0,282423112.0,,0.668495744154,-0.196653194071,-0.055574057611650005,-0.140527564,0.989863866746,-0.0117639988501,0.01682362123365,0.0003117139427050001,-0.009125434849860002,-0.002546730550805,0.009239569331035,7.88348915350002e-05,-0.034918168372550004,0.508233562112,0.413188099861,7.621827840804999,0.54321962595,0.5337599515914999,0.3961067348715001,896876.5,1521538129.0,282999936.0,,,,,,1772269.5,1521538129.0,981235760.5,,1.27700004578,0.8069999858735001,-1.1889980316150002,-0.0539999995381,-0.09850000217575,-0.029499999247450007,10.0,11.0,36.0,52.5,59.0,44.0,48.0,53.0,61.0,64.5,5.0,0.145000100139,-1.3200000226465,-0.43999862670750023,-0.007999999448700001,0.012499999254749969,0.02949999924754999
6,53.6182106154,5360.5,1521538130.0,64953446.0,,2267481.5,1521538129.0,362429817.0,,0.6690598489899999,-0.1970607612265,-0.0554199417137,-0.140544622718,0.989852778447,-0.011869339793,0.0172529040937,0.00195713858065,0.003853330471450001,0.0014322381560379998,-0.0004752956553750001,-0.006494616739789999,0.0027006888006999986,0.413410127163,0.21111536026,7.68523907661,0.6842866241929999,0.5273532569405,0.4188096672295,2267834.5,1521538129.0,360500724.0,,,,,,1772277.5,1521538130.0,59872073.5,,1.32699975967,1.07199998647,-0.7840011596680001,-0.06000000052155,-0.1110000014305,-0.03350000083445,10.0,13.5,19.0,23.5,76.0,48.0,52.0,55.0,58.0,85.0,5.0,0.04999971389000013,0.2650000005965,0.40499687194700007,-0.00600000098345,-0.012499999254749997,-0.00400000158699999
7,53.7207747179,5370.5,1521538130.0,164786457.5,,2267490.5,1521538129.0,452562708.5,,0.6691390981265001,-0.1973158990205,-0.055244152053,-0.139787698334,0.989957855895,-0.011867596606399999,0.0173703181777,0.0012278872870550009,0.0022163116186500013,0.00481039044805,0.0035451677090999993,-0.006162159908850001,0.0051858367785,0.2514226064085,0.2514774426815,7.882057666775,0.6904424726964999,0.4795024991035,0.43150539696199997,1582363.0,1521538129.0,443538940.0,,,,,,1772287.0,1521538130.0,155843725.0,,1.16199979782,0.35199996810649997,-1.453999328615,-0.06900000199675001,-0.08650000020865001,-0.03450000099835,4.5,7.5,13.0,26.0,32.0,48.0,50.5,60.0,64.0,67.0,5.0,-0.16499996185,-0.7200000183635,-0.6699981689469998,-0.009000001475200005,0.02450000122184999,-0.0010000001639000056
8,53.823338820500005,5383.5,1521538130.0,296941995.0,,2267501.5,1521538129.0,562660265.0,,0.6688024161095001,-0.1965430550735,-0.0554766649608,-0.14057501998900002,0.9898520246225,-0.012026739583050002,0.0169376117004,0.0006531173288949997,-0.0028419687799949994,-0.0036939355637199997,-0.0032020796527000017,0.0054911115678250005,0.005039669333875,0.358671784401,0.12529551237805,7.727881193160001,0.725522637367,0.50269690156,0.4157446324825,2267855.0,1521538129.0,565728005.0,,,,,,1772301.0,1521538130.0,296316147.0,,0.8469998598109999,1.2669999895650002,-2.7689998626750003,-0.07400000095364999,-0.0460000000894,-0.035499999299650004,4.5,8.0,9.0,22.5,30.5,36.0,43.0,49.0,53.5,61.5,5.0,-0.31499993800900017,0.9150000214585001,-1.3150005340600004,-0.004999998956899981,0.04050000011925001,-0.0009999983013000008
9,53.925902923100004,5390.5,1521538130.0,364917993.0,,2267509.0,1521538129.0,637659402.0,,0.668635216729,-0.196982130363,-0.0552733719412,-0.140000320645,0.989936426378,-0.0119196884711,0.016843484673,-0.0117393890166,-0.000724483787155,-0.0101503457088,-0.00351648045404,0.026867095419900004,0.0187831820163,0.552655935287,0.24963709712,7.71214151382,0.7052308320999999,0.570406079292,0.411656856537,1582376.5,1521538129.0,639367679.5,,,,,,1772307.0,1521538130.0,355162026.0,,1.62199983597,1.7669999942200003,-2.213999557495,-0.07599999941885001,-0.07100000232455,-0.030500001274050007,8.5,11.5,12.5,18.0,20.0,49.0,51.0,56.0,60.5,68.0,5.0,0.7749999761590002,0.5000000046550002,0.5550003051800001,-0.0019999984652000202,-0.025000002235150004,0.004999998025599996
10,54.0284670256,5398.5,1521538130.0,465692519.5,,2267518.5,1521538129.0,732658637.0,,0.6693810426335001,-0.19671904736499998,-0.055233906533250006,-0.13996331385500002,0.989931118014,-0.0117335602897,0.017570984320200003,0.0110946079926125,0.00423904023733,0.0022575754425799986,0.01394501573442,-0.013920807001700002,-0.006713991619235,0.3647503629325,0.192936323583,7.6615223884549986,0.6385986804965,0.484781116247,0.388635262847,2267872.0,1521538129.0,735709199.0,,,,,,1772318.0,1521538130.0,464599191.0,,1.137000060081,1.68199998587,-1.89899902344,-0.06499999761585,-0.0685000009835,-0.05100000090895,9.0,16.5,18.5,21.5,34.0,42.0,46.0,50.0,52.5,55.5,5.0,-0.4849997758890001,-0.08500000835000021,0.31500053405500017,0.011000001803000009,0.0025000013410500094,-0.020499999634899995
11,54.1310311282,5411.5,1521538130.0,597535013.5,,2267532.0,1521538129.0,867659177.5,,0.6693703873285,-0.19623014125750002,-0.055163211444150005,-0.1401603354025,0.9899052821885,-0.0116751049171,0.017500859462650002,0.0031690474113449997,-0.0010547991531600009,0.00017831573238499994,-0.0017237694290375,-0.0055344272751,-0.0040560606853999965,0.4249077886345,0.10262469947339999,7.66464972496,0.7216146290305001,0.529899537563,0.421753823757,1582392.0,1521538129.0,868852629.5,,,,,,1772330.5,1521538130.0,591124230.5,,-0.2430000543594,0.00200000852345,-0.7989986419674999,-0.03849999979135,-0.1279999986295,-0.03300000075255,6.0,6.0,10.0,12.0,13.5,37.5,38.5,43.0,50.0,65.0,5.0,-1.3800001144404,-1.6799999773465502,1.1000003814725001,0.0264999978245,-0.059499997646000016,0.0180000001564
12,54.2335952308,5419.5,1521538130.0,677536010.0,,2267541.0,1521538129.0,957659593.0,,0.669429021341,-0.197185717127,-0.0551876959915,-0.140324644462,0.989880492372,-0.011920225357299998,0.0174216303681,-0.00372185316226,-0.00643867497033,-0.00219896291454,-0.00185198272081,0.0104762543382,-0.010350208487,0.61552542448,0.34994384646399995,7.53595495224,0.585626661777,0.543497860432,0.383252680302,2267894.0,1521538129.0,955734959.0,,,,,,1772338.5,1521538130.0,670198448.5,,-0.083000087738,0.411999975145,-1.24400024414,-0.061499999836099994,-0.0835000015795,-0.02150000073015,7.0,8.5,12.0,13.0,14.5,42.0,44.5,46.0,51.0,55.0,5.0,0.1599999666214,0.40999996662154997,-0.44500160217250007,-0.023000000044749995,0.04449999705000002,0.011500000022400002
13,54.336159333299996,5430.5,1521538130.0,787622451.0,,2267553.5,1521538130.0,82652700.5,,0.669008857221,-0.1964676495755,-0.055419746275849995,-0.1406430508615,0.9898409718404999,-0.011735232087599998,0.017222255383650003,0.011099674901310001,0.007164480693725,0.009502603428344998,-0.004203927467745,-0.0223612812809,0.029839355011100008,0.969605952503,1.353449940685,6.894837379455,0.3244244158265,0.7655078768729999,0.407118886709,2267905.5,1521538130.0,70722305.5,,,,,,1772349.5,1521538130.0,780664155.0,,-1.5480000615099998,0.6969999790189999,-0.988999176026,-0.06350000016395,-0.09200000017885003,-0.01550000021235,3.0,4.5,7.0,11.0,20.5,41.0,42.5,45.0,51.0,54.5,5.0,-1.4649999737719999,0.28500000387399993,0.25500106811400003,-0.002000000327849999,-0.008499998599350037,0.006000000517800001
14,54.4387234359,5439.5,1521538130.0,878997921.5,,2267563.0,1521538130.0,177658612.0,,0.6690668084170001,-0.1975474942795,-0.05404279970015,-0.13957468298050002,0.9899799307645001,-0.0118999634176,0.0178008416641,-0.0238492934172,-0.0054714900321250004,0.0250033154184,-0.007846123599615,0.01557783394792,-0.0287329961296,-0.11958903819314999,0.1135346144435,10.35102796555,1.1663352549095,0.7137601077560001,0.5714898407460001,1582413.0,1521538130.0,170368396.5,,,,,,1772359.0,1521538130.0,875972540.5,,1.1819998979565,2.15199998468,-1.079001235965,-0.048000000417250006,-0.1405000016095,-0.0495000015944,7.5,10.0,12.0,19.5,26.0,41.5,47.0,49.5,60.5,71.0,5.0,2.7299999594665,1.4550000056610002,-0.09000205993900012,0.015499999746699987,-0.04850000143064996,-0.034000001382050005
15,54.5412875385,5452.5,1521538131.0,8014440.0,,2267575.5,1521538130.0,302654156.0,,0.661144725993,-0.1966671764105,-0.044118503157800006,-0.135411962599,0.990667911601,-0.009430981104514999,0.01229214378635,-0.115944439586,0.008528552967805001,0.11356597699549999,0.0651356969776,0.222708605974,-0.109217614783,1.0652174949635,-0.5442997813225,8.40339756012,1.7745065093,1.2587326169000002,0.7527510523795,2267928.5,1521538130.0,300726694.5,,,,,,1772371.5,1521538130.5,503822398.5,,-0.09800007343265,2.1670000001800003,-0.1489990234375,-0.05849999934435,-0.142999999225,-0.048499999567850005,28.5,30.0,33.5,40.5,41.5,42.0,46.5,52.0,56.0,61.0,5.0,-1.2799999713891501,0.015000015500000075,0.9300022125275,-0.01049999892709999,-0.002499997615500016,0.0010000020265499981
16,54.643851641000005,5459.5,1521538131.0,77778100.5,,2267582.5,1521538130.0,372659328.5,,0.6558250256329999,-0.200034415269,-0.0345250741046,-0.134023343164,0.9908783269225,-0.01094667121635,0.008772330509910001,-0.07844801156629999,-0.07342781822269999,0.143887418282,-0.1629665614435,0.07586625686305001,0.10618830370525,3.922547459605,0.19036722183200003,5.007114887235,0.6230855882165001,1.794091284275,0.532011985779,2267934.0,1521538130.0,355743990.0,,,,,,1772378.5,1521538131.0,71479227.0,,-0.623000049591,1.256999988852,-0.30399971008300003,-0.08700000122189999,-0.07400000095369999,-0.0249999994412,42.0,43.0,47.0,50.0,62.5,48.0,50.5,57.0,65.0,82.0,5.0,-0.5249999761583499,-0.9100000113280002,-0.15500068664550004,-0.028500001877549995,0.06899999827130002,0.023500000126650007
17,54.7464157436,5471.5,1521538131.0,199530482.0,,2267592.5,1521538130.0,472673101.5,,0.6567427583285,-0.20601399787799998,-0.02103501961395,-0.138037777567,0.9901873762575001,-0.0164092704399,0.0143094743871,0.05000095634994999,-0.0406733888214,0.1456356564845,-0.06527751495834999,-0.19857173334000003,0.11723014679199999,2.67665207386,-0.35095743835,5.437887668609999,1.94981175661,1.6602377295500002,0.807200372219,1582434.0,1521538130.0,473352381.5,,,,,,1772391.0,1521538131.0,196379386.5,,1.1920000076315,3.12200001329,-1.449000167845,-0.0679999999702,-0.0590000003576,-0.06599999777975,46.5,48.5,58.5,71.0,80.0,52.5,53.0,56.0,62.0,62.5,5.0,1.8150000572225,1.865000024438,-1.1450004577619999,0.019000001251699997,0.015000000596099988,-0.04099999833855
18,54.848979846199995,5480.5,1521538131.0,287586927.0,,2267601.0,1521538130.0,557656071.5,,0.6595749579519999,-0.20783358620450001,-0.010668697331974999,-0.138462998876,0.9899727672415001,-0.017504345190849997,0.021800176321400005,0.026876399654864998,-0.016083060087405,0.114580382555,0.021974682165550003,-0.1545729328215,-0.02721166427215,1.2908563613905,-0.5433460921050001,5.2135181427,1.57762128115,1.33128517866,0.6989395916464999,1582441.0,1521538130.0,558361567.0,,,,,,1772399.5,1521538131.0,280944108.0,,0.416999912262,1.90199996978,-0.8839996337895,-0.054000001400699986,-0.1110000014305,-0.0179999996908,37.0,39.0,47.0,50.0,55.5,51.0,53.5,57.0,59.0,62.0,5.0,-0.7750000953695,-1.22000004351,0.5650005340555,0.01399999856950001,-0.052000001072899996,0.04799999808895
19,54.9515439487,5492.5,1521538131.0,407969951.5,,2267614.0,1521538130.0,687657414.0,,0.656475906936,-0.208611153171,0.0001106065489,-0.13013032997,0.991161078381,-0.0149084279422,0.021060690871900004,-0.0365659098056,-0.0651740572523,0.0699896956846,-0.127896128779,0.0988811169596,-0.0473854593452,5.92865419388,2.87804985046,-2.00366330147,-0.410720467567,2.58954405785,0.561181783676,2267966.0,1521538130.0,675709212.5,,,,,,1772411.0,1521538131.0,397849493.5,,-0.048000121116799986,1.8219999715700002,-1.98400001526,-0.08449999988080001,-0.10000000149004999,-0.040500000119249986,37.0,45.5,49.5,57.0,65.5,46.0,50.0,63.0,72.0,76.0,5.0,-0.46500003337879997,-0.07999999820999992,-1.1000003814705,-0.030499998480100023,0.010999999940450006,-0.022500000428449986
20,55.0541080513,5503.5,1521538131.0,518023967.5,,2267624.5,1521538130.0,792650781.0,,0.6564868485375,-0.2092985335755,0.00262273544291,-0.13582435538299995,0.9902921421095,-0.0183366618705,0.02317046863635,-0.008276256889215001,0.002618134057410001,0.010364301710885001,-0.008591395011749998,-0.0250442174242,0.07393141204335,2.330730557445,1.843227267265,4.822541475295,0.5013500452040001,1.560243308545,0.584828704596,2267977.0,1521538130.0,785706132.0,,,,,,1772422.5,1521538131.0,513665859.0,,-1.023000085354,1.48199998196,-1.4589984893790002,-0.045999999158100005,-0.09450000151995,-0.032999999821200006,61.5,63.5,65.5,72.5,76.0,51.5,60.0,69.0,77.0,97.0,5.0,-0.9749999642372,-0.3399999896100001,0.5250015258809997,0.038500000722700004,0.005499999970099992,0.00750000029804998
21,55.1566721538,5510.5,1521538131.0,587544918.0,,2267631.0,1521538130.0,857653526.0,,0.654715380461,-0.207596679705,0.0035926411983000007,-0.134824520877,0.990477817969,-0.016815160708099998,0.0222101565243,-0.0201157331105,0.035916958567199994,0.017361822873900003,0.0715812439623,0.0268965240011,-0.064131562462,3.58450245857,0.211514681578,5.48975896835,0.917171239853,1.83353233337,0.676654934883,1582461.5,1521538130.0,855852306.0,,,,,,1772429.5,1521538131.0,582424516.0,,0.7219998598099999,2.71199998707,-1.538998413085,-0.08050000295045,-0.09500000253315,-0.029500000178799998,53.5,54.0,60.0,71.0,75.0,50.5,54.0,60.5,68.5,82.0,5.0,1.744999945164,1.23000000511,-0.07999992370599984,-0.03450000379234999,-0.0005000010131999966,0.0034999996424000084
22,55.2592362564,5521.5,1521538131.0,698219060.5,,2267640.5,1521538130.0,952655575.5,,0.6554055393899999,-0.2075629412275,0.00558606782636,-0.13644186831850005,0.9901975461429999,-0.018100247230099998,0.023764328200449998,0.01975384319625,-0.007534154650855001,0.02469080526625,-0.025387381699505,-0.06236374782735001,0.0334537020725,2.64757835865,-0.10230299830430001,5.194014549255,1.321723103525,1.5687273740749998,0.6603649556635001,2267995.0,1521538130.0,965705696.0,,,,,,1772440.5,1521538131.0,692678287.5,,0.20699987411499998,1.7069999918349998,-0.563998031616,-0.052000001072899996,-0.10999999940395,-0.04550000093875,37.0,38.0,41.0,55.0,56.0,52.5,55.5,58.0,80.5,86.0,5.0,-0.5149999856949999,-1.0049999952350002,0.975000381469,0.028500001877550002,-0.014999996870800003,-0.016000000759950003
23,55.36180035899999,5534.5,1521538131.0,827815055.5,,2267656.0,1521538131.0,107669420.0,,0.655922648316,-0.207495977037,0.005829237759950001,-0.136664061694,0.990156376268,-0.017751359207799997,0.024457596422599998,0.005860886818630001,-0.0173840131368,0.00198421802895,-0.0118037937336,0.00360461701807,-0.0167183106413,2.29208946228,0.165569931269,4.8899345397900005,1.07786178589,1.4998120069499998,0.628057301044,1582479.5,1521538131.0,111870452.0,,,,,,1772453.5,1521538131.0,822018866.5,,1.2819999217949998,2.216999952495,-0.3989990234375,-0.058500001207,-0.1130000017585,-0.0634999983013,38.0,41.0,50.0,51.0,73.0,43.5,47.0,58.5,62.0,75.0,5.0,1.0750000476799997,0.5099999606600003,0.16499900817850005,-0.006500000134100008,-0.003000002354550002,-0.01799999736255
24,55.4643644615,5543.5,1521538131.0,917514085.5,,2267666.0,1521538131.0,207663036.0,,0.654012738346,-0.208257296227,0.00515749333905,-0.135902890231,0.990307465214,-0.0176205409506,0.0226063111913,-0.00434192704942,-0.00681053209759,0.0010836765964,-0.00864716543974,0.0038379235606,-0.010516202378,3.27574825287,-0.0737175345421,5.65347337723,1.29076206684,1.75486731529,0.646281540394,1582486.0,1521538131.0,207352290.0,,,,,,1772462.5,1521538131.0,913370971.5,,-0.1080000638965,0.49699996858850004,-0.979000854494,-0.035499999299650004,-0.127999998629,-0.0504999998957,44.0,51.0,57.0,67.5,69.0,58.0,62.5,65.5,67.0,72.5,5.0,-1.3899999856914997,-1.7199999839065,-0.5800018310565,0.02300000190735,-0.014999996870499993,0.012999998405600004
25,55.566928564099996,5555.5,1521538132.0,37775039.0,,2267678.0,1521538131.0,327649296.0,,0.656118046519,-0.207974070856,0.0059200125802,-0.135204568017,0.990359414501,-0.017482062928500002,0.0245424606123,0.0152923846504,-0.000157220386905,0.0082282534404,0.0157105234788,-0.0280598240323,-0.0162142178725,2.07202410698,-0.0903624743223,5.3558182716400005,1.27490651608,1.40906119347,0.6625739932060001,2268031.0,1521538131.0,325733817.0,,,,,,1772474.5,1521538132.0,31763403.0,,0.44199988842,0.9219999805105,-0.9639995574950001,-0.05350000038745,-0.116500001401,-0.0529999993742,44.0,46.5,48.0,50.5,65.0,47.0,55.0,61.5,64.0,78.0,5.0,0.5499999523165,0.425000011922,0.01500129699899988,-0.018000001087799998,0.011499997227999992,-0.0024999994785000063
26,55.6694926667,5563.5,1521538132.0,117827057.5,,2267686.0,1521538131.0,407652421.0,,0.6557889424660001,-0.207420225143,0.006093369749455001,-0.136448329872,0.990190190338,-0.017506968537299997,0.02446859204545,-0.006715456159955,-0.010466681994595,-0.0040705475999550005,-0.005983751829215,0.01588642236111,-0.011830092169425,2.209044456485,0.021762996911999996,4.994998216630001,1.169991910455,1.4698827266699999,0.643826812506,2268039.0,1521538131.0,405707294.0,,,,,,1772482.5,1521538132.0,112425351.5,,0.266999936104,0.6219999834895,-0.5840003967285,-0.05849999934435,-0.1284999996425,-0.0534999985248,33.0,35.0,38.0,46.5,102.0,45.0,51.5,56.5,62.5,63.5,5.0,-0.17499995231599996,-0.299999997021,0.3799991607665001,-0.004999998956899995,-0.011999998241499998,-0.0004999991505999987
27,55.7720567692,5575.5,1521538132.0,237545967.0,,2267697.0,1521538131.0,517655136.0,,0.655371447839,-0.207956149134,0.005765747899695001,-0.13609960318050002,0.9902482445095,-0.0176939708571,0.0239212679005,0.0031621653110000003,-0.0012370430506200005,-0.0019961920507850003,0.0069220357771350004,0.002980956607300002,-0.02770816414975,3.04033219814,0.08547087013698,5.524478435514999,1.169201374055,1.7084837555849999,0.6308281719685,1582507.5,1521538131.0,513854397.5,,,,,,1772494.5,1521538132.0,232447145.5,,-0.2530000448228,1.1369999859500002,-1.0589988708515,-0.0669999998063,-0.1019999980925,-0.051500000059599996,37.5,53.0,61.0,62.0,74.0,57.0,60.5,64.0,68.5,76.5,5.0,-0.5199999809268,0.5150000024605002,-0.4749984741229999,-0.008500000461950007,0.02650000155,0.0019999984652000063
28,55.874620871800005,5584.5,1521538132.0,327531098.5,,2267704.5,1521538131.0,592657140.0,,0.6552791948385001,-0.207888848213,0.005486057081075,-0.135984354893,0.9902715047165,-0.0175134215058,0.023741238415650005,-0.0034561551114399994,0.009208149096875,-0.0010293048654999998,0.00542597809168,0.0062600993103450004,0.02264624133475,2.95549428463,-0.02481707930565,5.39794969559,1.208511769775,1.6747087240199998,0.635363042355,2268058.0,1521538131.0,594750457.0,,,,,,1772503.5,1521538132.0,322240490.5,,0.5919999837875,1.0469999842370001,-1.539000320435,-0.0489999987185,-0.09450000151995,-0.056500000879150004,41.0,49.0,55.5,58.5,75.5,49.0,50.5,53.0,59.0,79.0,5.0,0.8450000286102999,-0.09000000171300004,-0.4800014495835001,0.018000001087800005,0.007499996572550002,-0.005000000819550009
29,55.9771849744,5592.5,1521538132.0,407627582.0,,2267712.5,1521538131.0,672663085.0,,0.6559066396365,-0.2081438569335,0.006186201932390001,-0.135661504013,0.9902939448135,-0.017784102034349998,0.0244451928211,0.0028119852896050005,-0.0031131626518649987,0.0019881397130100003,-0.006282538218025001,-0.003462477370275,0.008467649938965,2.53661882877,0.1956499814985,5.112357378005,1.0833786129949998,1.56512361765,0.617569983006,2268066.5,1521538131.0,680725018.0,,,,,,1772511.5,1521538132.0,403429588.0,,0.06199989318849996,1.0119999822225,-1.0840003967295,-0.04350000061095,-0.140999995172,-0.0460000000894,36.0,37.5,42.0,46.0,54.0,46.0,47.5,49.0,54.0,58.0,5.0,-0.530000090599,-0.03500000201450004,0.4549999237055,0.005499998107549996,-0.04649999365204999,0.010500000789750004
30,56.079749076899994,5606.5,1521538132.0,547687411.0,,2267726.0,1521538131.0,807679353.0,,0.65521431974,-0.208232141209,0.00561406667714,-0.135441226535,0.99034930858,-0.017694231922799997,0.0234698808293,-0.008170747243399999,-0.00424595874934,-0.00392457340928,-0.00483307870297,0.0252786171925,-0.0202448635553,2.88620352745,0.15675881505,5.155899524690001,1.08056330681,1.61796736717,0.6036963462830001,2268080.0,1521538131.0,815728391.0,,,,,,1772525.5,1521538132.0,542847098.0,,-0.27800002098050003,1.10199998301,-0.8690002441405,-0.0415000002831,-0.09250000119205,-0.040500000119200005,28.0,28.5,30.5,32.0,36.5,49.5,51.5,53.5,59.5,63.0,5.0,-0.339999914169,0.09000000078749992,0.21500015258899996,0.002000000327850006,0.04849999397994999,0.005499999970199995
31,56.1823131795,5614.5,1521538132.0,627453445.5,,2267735.0,1521538131.0,897681066.5,,0.655080918267,-0.2079394448345,0.00540853129309,-0.135843337224,0.9902942348035,-0.01759776865995,0.0235418962921,0.005041206746139997,0.00825284126186,0.0010335664146999997,0.004014127043655001,-0.0044209141215000025,0.0015755180924149998,2.9619752168650004,0.141545921564,5.275702238085,1.148012042045,1.671400129795,0.619951158762,2268088.0,1521538131.0,895802594.0,,,,,,1772533.5,1521538132.0,622286581.5,,0.0669998884201,0.37699997872100005,-0.4339988708495,-0.054999999702,-0.10249999910580003,-0.0439999997616,23.0,30.0,40.0,41.0,46.0,39.5,48.5,49.5,55.0,58.5,0.0,0.34499990940060005,-0.7250000042889999,0.435001373291,-0.013499999418900004,-0.00999999791375003,-0.003499999642399998
32,56.2848772821,5627.5,1521538132.0,757480978.5,,2267748.0,1521538132.0,27672584.0,,0.655777320192,-0.207456909207,0.005603839223409999,-0.136181718685,0.990233677055,-0.0175476481826,0.0241636993241,0.006149268228020001,0.0115703308104,0.00793081460976,0.000336556656748,-0.0109812889445,0.016832456537899998,2.52807092667,0.105397731066,5.13625335693,1.1073539257,1.53515386581,0.626986443996,1582543.5,1521538132.0,26863399.0,,,,,,1772546.5,1521538132.0,752903837.5,,1.09699997902,1.7369999632250002,-2.043999481205,-0.08249999955295,-0.0625,-0.04649999924005,38.0,39.0,44.0,59.0,76.5,44.0,47.5,53.0,60.0,66.0,-1.0,1.0300000905999,1.359999984504,-1.6100006103555002,-0.027499999850949995,0.03999999910580003,-0.0024999994784499976
33,56.3874413846,5634.5,1521538132.0,827535032.5,,2267757.0,1521538132.0,117679735.0,,0.655600851775,-0.20850640822,0.00563458472195,-0.135517932598,0.990325768452,-0.017821338067000002,0.0239199120893,0.006430609570029999,0.00026904548798400003,0.00814629013596,0.00201480740055,-0.005539680337800001,-0.0142974809923,3.33842015266,0.0844078361988,5.0043387413,1.14736676216,1.73696780205,0.609331011772,1582549.5,1521538132.0,117879798.0,,,,,,1772553.5,1521538132.0,822323869.0,,-1.3029999971369999,0.696999997646,-1.51899986267,-0.06299999915065,-0.08650000020880001,-0.0420000012964,29.5,29.5,34.0,38.0,73.0,51.5,52.5,57.5,60.5,63.5,-1.0,-2.399999976157,-1.0399999655790002,0.5249996185350001,0.019500000402300002,-0.024000000208800013,0.004499997943650004
34,56.4900054872,5647.5,1521538132.0,957564472.5,,2267770.5,1521538132.0,252682675.0,,0.6574101922765,-0.2082788880505,0.006302807822079999,-0.135030939929,0.9903574670965,-0.017812829860900003,0.025325924600900003,0.033334863489,-0.0006752390464150001,0.013243465501259998,0.010292932331215,-0.06263556071984999,-0.0093561465476468,3.4409389495850005,0.215682938695,4.8493981361400005,0.952817350626,1.809765279295,0.5344567000864999,1582558.5,1521538132.0,252876314.0,,,,,,1772566.5,1521538132.0,954812176.0,,-0.828000032904,0.5269999697805,-1.753998565675,-0.06000000052155,-0.05749999918045001,-0.04199999943375,33.5,35.5,43.5,46.5,73.0,57.0,59.0,63.5,70.0,87.0,-1.0,0.47499996423299984,-0.17000002786549995,-0.2349987030049998,0.002999998629099991,0.02900000102835,1.862649999517796e-09
35,56.592569589700005,5654.5,1521538133.0,27488946.5,,2267777.5,1521538132.0,322687527.0,,0.6581765712195,-0.2081010602445,0.006655624423814999,-0.134867313864,0.990368478843,-0.01753360235375,0.025952944578500003,0.007976455903369999,0.01945965805815,0.006620297138114999,0.020528668701050003,-0.024732345324000003,0.01130153748745,3.1929819583900003,0.08758267760275,4.857986211775,1.0211807489405,1.78906428814,0.5736481249335,896997.0,1521538132.0,323000064.0,,,,,,1772573.5,1521538133.0,24168408.5,,-1.4380000472049999,0.921999986098,-2.00899963379,-0.0729999989271,-0.0504999998957,-0.05350000038745,37.5,42.5,47.5,51.0,62.5,49.5,51.0,57.5,58.5,64.0,-1.0,-0.6100000143009998,0.39500001631750004,-0.2550010681149999,-0.012999998405550002,0.006999999284750015,-0.011500000953700004
36,56.6951336923,5668.5,1521538133.0,167500019.0,,2267791.5,1521538132.0,462693659.5,,0.65900055971,-0.207908041703,0.0072654492835599995,-0.135002171864,0.9903288381784999,-0.01771471889835,0.026632515287250004,-0.00935530003193,-0.003848134086,0.0004585953196850007,-0.008849290670214999,0.017623202112449998,0.018244357149799998,2.49411559105,0.11783085763455,4.599562644960001,0.931881844997,1.441487371925,0.5229908823964999,897002.5,1521538132.0,468000000.0,,,,,,1772587.5,1521538133.0,164685529.5,,-1.2130000829699998,0.7119999945165001,-0.488999176025,-0.07450000196695,-0.1000000014899,-0.0489999987185,53.5,55.5,66.0,69.0,73.5,41.5,56.0,60.0,62.5,69.5,-1.0,0.22499996423500002,-0.20999999158149996,1.5200004577649997,-0.001500003039849998,-0.049500001594200004,0.004500001668950003
37,56.797697794899996,5675.5,1521538133.0,237495541.0,,2267797.0,1521538132.0,517696702.0,,0.658416119942,-0.208342748864,0.00672113454993,-0.134541567757,0.990411637429,-0.0175774142357,0.0259690103756,-0.022925760930000004,0.00359892189742,-0.0135386394245,-0.000803246523297,0.0534104237028,0.0034387392792,3.39997339249,0.151825666428,4.86255407333,1.03638291359,1.80283856392,0.556087136269,897004.5,1521538132.0,518499968.0,,,,,,1772594.5,1521538133.0,234170404.0,,0.20699999332449998,1.491999973355,-0.4690006256105,-0.043500000610949996,-0.10150000080485001,-0.07250000163914999,36.0,39.0,39.0,40.5,62.0,48.5,54.0,62.0,62.0,87.5,-1.0,1.4200000762944998,0.7799999788384999,0.019998550414499994,0.031000001356000007,-0.0014999993149500124,-0.023500002920649993
38,56.9002618974,5687.5,1521538133.0,357595085.5,,2267808.0,1521538132.0,627719084.0,,0.658480221393,-0.207838181216,0.0068946912809,-0.13448555216900002,0.990418007127,-0.0176479914718,0.02596836179,0.0184230064726,-0.0134296354466,0.00616846575636,0.0102144296523,-0.0338915359598,-0.007458747167689998,3.3883831501,0.273564428091,4.741869449619999,0.8480566143989999,1.7531722784,0.503188610077,2268161.0,1521538132.0,625794198.0,,,,,,1772606.5,1521538133.0,354809009.0,,-0.498000049591,0.10200000256315,-0.22399978637705,-0.0600000023842,-0.1119999997315,-0.06199999898675,30.0,32.5,37.0,44.5,78.0,45.0,51.0,57.0,61.0,66.0,-1.0,-0.7050000429155,-1.38999997079185,0.24500083923344998,-0.016500001773250006,-0.01049999892664999,0.01050000265239999
39,57.002826,5699.5,1521538133.0,477532028.5,,2267821.0,1521538132.0,757196695.0,,0.6595721215825,-0.2080425486885,0.007383747009535002,-0.13472632455099998,0.990358697118,-0.017794173298400003,0.026866132822950004,0.006946566978449999,0.00480973812755,0.0029232641524549997,0.002846299336054999,-0.0045092951095500045,0.0034469064966150004,3.6493468284599997,1.3709204792969998,4.04278445244,0.16287216544150002,1.7270107865349995,0.3700769394635,1582593.0,1521538132.0,750394164.0,,,,,,1772618.5,1521538133.0,475240750.0,,-0.5780000925065001,0.5119999989865001,-2.2689998626700003,-0.062499998137350014,-0.048000000417250006,-0.04099999926985,34.0,35.5,47.0,58.5,92.0,43.5,45.0,45.0,46.0,63.0,-1.0,-0.08000004291550006,0.40999999642335005,-2.04500007629295,-0.0024999957531500125,0.06399999931424999,0.020999999716900003
