,Unnamed: 0,.header.seq,.header.stamp.secs,.header.stamp.nsecs,.header.frame_id,.endpoint_state.header.seq,.endpoint_state.header.stamp.secs,.endpoint_state.header.stamp.nsecs,.endpoint_state.header.frame_id,.endpoint_state.pose.position.x,.endpoint_state.pose.position.y,.endpoint_state.pose.position.z,.endpoint_state.pose.orientation.x,.endpoint_state.pose.orientation.y,.endpoint_state.pose.orientation.z,.endpoint_state.pose.orientation.w,.endpoint_state.twist.linear.x,.endpoint_state.twist.linear.y,.endpoint_state.twist.linear.z,.endpoint_state.twist.angular.x,.endpoint_state.twist.angular.y,.endpoint_state.twist.angular.z,.endpoint_state.wrench.force.x,.endpoint_state.wrench.force.y,.endpoint_state.wrench.force.z,.endpoint_state.wrench.torque.x,.endpoint_state.wrench.torque.y,.endpoint_state.wrench.torque.z,.joint_state.header.seq,.joint_state.header.stamp.secs,.joint_state.header.stamp.nsecs,.joint_state.header.frame_id,.joint_state.name,.joint_state.position,.joint_state.velocity,.joint_state.effort,.wrench_stamped.header.seq,.wrench_stamped.header.stamp.secs,.wrench_stamped.header.stamp.nsecs,.wrench_stamped.header.frame_id,.wrench_stamped.wrench.force.x,.wrench_stamped.wrench.force.y,.wrench_stamped.wrench.force.z,.wrench_stamped.wrench.torque.x,.wrench_stamped.wrench.torque.y,.wrench_stamped.wrench.torque.z,.tactile_values.tactile_values_0,.tactile_values.tactile_values_1,.tactile_values.tactile_values_2,.tactile_values.tactile_values_3,.tactile_values.tactile_values_4,.tactile_values.tactile_values_5,.tactile_values.tactile_values_6,.tactile_values.tactile_values_7,.tactile_values.tactile_values_8,.tactile_values.tactile_values_9,.tag,.delta_wrench.force.x,.delta_wrench.force.y,.delta_wrench.force.z,.delta_wrench.torque.x,.delta_wrench.torque.y,.delta_wrench.torque.z
0,52.432389,5242.5,1521527742.0,644688963.5,,1228769.0,1521527742.0,236954925.0,,0.791482427983,-0.0301466025391,-0.0603358090126,-0.312657675299,0.949790862913,0.00243956814033,0.011685174851799998,0.0133175634231,0.00172487516794,0.004986412559489999,-0.0007173166500369999,-0.0316938538194,0.00101458366795,0.6687040328980001,-0.0646298080683,6.6712064743,0.628744244576,0.591012477875,0.5726585984229999,857544.5,1521527742.0,236027894.0,,,,,,734637.5,1521527742.0,636985938.5,,-0.4149999380114,-0.948000068592,0.9490001678485,-0.06650000065565001,-0.1440000012515,-0.0625,21.0,21.5,29.0,31.5,54.5,143.5,149.5,163.5,198.5,211.0,5.0,0.0,0.0,0.0,0.0,0.0,0.0
1,52.5349531026,5252.5,1521527742.0,744604467.5,,1228779.0,1521527742.0,336964099.0,,0.7909971265669999,-0.0310883210524,-0.060661205039799986,-0.3125941852745,0.949822919737,0.0021843631454899998,0.01079334036805,-0.0157234996613,0.0020735478864500004,-0.00980798797948,0.0008000713474799992,0.0330307171142,0.002797721802350002,1.6502517461750001,0.3494374901055,6.605781316755,0.4564820080995,0.9005788862705,0.559753984213,857552.0,1521527742.0,342029304.5,,,,,,734647.5,1521527742.0,736764025.0,,-1.729999995235,-0.9580000590534999,1.0089996337875,-0.07000000029799999,-0.145999997854,-0.061499997973449995,27.0,36.5,39.0,42.0,71.0,144.0,147.0,165.0,185.0,204.0,5.0,-1.3150000572236,-0.009999990461499908,0.05999946593899996,-0.0034999996423499824,-0.0019999966024999982,0.001000002026550005
2,52.6375172051,5263.5,1521527742.0,854672550.5,,1228790.0,1521527742.0,446961981.0,,0.79037622278,-0.0298905092839,-0.06119828904495001,-0.313027439565,0.9496814039535,0.0026948909762900004,0.0105693779124,0.00764002134238,0.00796178803858,0.003275764753715001,0.010690261422484998,-0.0207951167341,0.007108678295345001,2.4045568704599996,0.520708337426,6.623535633085001,0.3973158448935,1.19476944208,0.565902143717,485976.0,1521527742.0,449999872.0,,,,,,734658.5,1521527742.0,847026929.0,,-0.4550000190735001,-1.227999980375,1.39400177002,-0.0679999999702,-0.1489999964835,-0.0669999998063,30.5,37.0,45.0,89.0,130.0,153.0,155.0,158.0,211.5,224.0,5.0,1.2749999761614998,-0.26999992132149997,0.3850021362325,0.0020000003277999973,-0.0029999986295000114,-0.005500001832850009
3,52.7400813077,5272.5,1521527742.0,944894432.5,,1228799.0,1521527742.0,536966615.5,,0.7911000035229999,-0.030809850543599998,-0.06051989821380001,-0.31265411388700004,0.9497997950515,0.002284778202995,0.011052075443249999,-0.007548360830955,-0.01320939903937,-0.011084145682965,-0.0001914488136149999,0.021667827912449998,-0.011883850644449998,1.335012555125,0.17541801929450002,6.606026649475,0.5326321423054999,0.7742260098454999,0.56667137146,857565.0,1521527742.0,533026619.5,,,,,,734667.5,1521527742.0,938226296.5,,-1.05999991894,-0.8580000352130001,1.103998947145,-0.05800000019375,-0.14599999785450002,-0.07149999961260001,33.0,37.0,40.5,45.5,63.5,148.5,168.0,177.0,222.0,248.0,5.0,-0.6049998998664999,0.36999994516199985,-0.290002822875,0.009999999776449997,0.0029999986289999947,-0.0044999998063000035
4,52.842645410299994,5285.5,1521527743.0,74956059.0,,1228814.5,1521527742.0,691960131.5,,0.7908628186865,-0.0312590086978,-0.060973195983,-0.31230876479,0.949918626503,0.00217344892693,0.0106344267083,-0.006193744852850001,0.015419270916994996,0.0005505775706039998,0.02185586121175,0.008630058003555001,-0.001874200418665,1.855796039105,0.4231970757245,6.9445052146899995,0.43102081119999996,0.957890212536,0.560450285673,1229167.5,1521527742.0,690055369.5,,,,,,734680.5,1521527743.0,68918829.5,,-0.8549999952320001,-1.0180000018330002,1.32900123596,-0.06499999761580001,-0.151499994099,-0.06899999827150001,26.0,29.0,30.0,31.0,35.0,160.0,173.0,174.0,222.5,236.5,5.0,0.2049999237079999,-0.15999996662000016,0.22500228881500006,-0.006999997422050014,-0.005499996244499983,0.002500001341099997
5,52.9452095128,5295.5,1521527743.0,175246000.0,,1228824.5,1521527742.0,791959915.5,,0.7912816505210001,-0.030143548441849997,-0.06008139903650001,-0.3126585538655,0.9497933080375,0.002572046044105,0.0114176989466,0.006274428504364999,0.011296723076145,0.006244587645489999,-0.002883981060800001,-0.0186431738011,0.025639903026200003,1.146715939045,-0.006596073507999997,7.00111889839,0.5825841426845,0.709907889366,0.5708027184009999,1229177.5,1521527742.0,790031922.0,,,,,,734690.5,1521527743.0,167860017.5,,0.6149999141695001,-0.7480000209065001,1.438999938965,-0.07550000026824999,-0.142999999225,-0.05299999937415,24.0,25.5,29.0,38.0,64.5,168.0,180.5,194.0,238.0,250.5,5.0,1.4699999094015002,0.2699999809265001,0.10999870300499981,-0.010500002652449977,0.008499994873999994,0.015999998897350008
6,53.0477736154,5302.5,1521527743.0,244617461.5,,1228831.5,1521527742.0,861960000.0,,0.7910550177969999,-0.0312190347697,-0.06068958180550001,-0.3128387405325,0.9497425108000002,0.00184097515919,0.01084225960515,-0.0030545461279350003,0.005833250323764999,0.0011206195527400005,-0.012615461479780002,0.002724038829205,0.0161606244373,0.855573475361,0.014111660420900009,6.919750928879999,0.5852249860759999,0.617509573698,0.5630324184894999,485992.5,1521527742.0,862499968.0,,,,,,734697.5,1521527743.0,237871173.0,,-1.90000001192,-1.863000090045,1.40899925232,-0.0764999985695,-0.141499996185,-0.07349999994039999,15.0,16.0,19.0,50.5,72.0,188.0,197.0,220.0,251.0,280.5,5.0,-2.5149999260895,-1.1150000691384998,-0.030000686644999996,-0.000999998301250013,0.001500003040000003,-0.02050000056624999
7,53.1503377179,5315.5,1521527743.0,374584435.5,,1228844.5,1521527742.0,991968913.0,,0.79103065648,-0.03081018296555,-0.060587361776750004,-0.3125080861855,0.9498489137465,0.002288593185995,0.0109710086442,-0.0071628730059550005,-0.0018990451010850009,-0.00503729522583,-0.00495028303498,0.020349887618145,-0.006315099378693002,1.4296740889550001,0.24154920876,6.95786857605,0.5104978680610001,0.8260225951669999,0.5719559788705,1229197.5,1521527742.0,990050820.5,,,,,,734710.5,1521527743.0,369439590.5,,-0.9249999284745,-1.3130000185250001,1.36900024414,-0.06650000065565001,-0.145999997854,-0.07049999758605001,19.0,20.0,26.5,35.0,44.5,167.5,172.0,198.0,243.0,249.5,5.0,0.9750000834455,0.5500000715199997,-0.039999008179999906,0.009999997913849992,-0.004500001668999998,0.0030000023543499815
8,53.2529018205,5322.5,1521527743.0,445235967.5,,1228851.0,1521527743.0,56964003.0,,0.791475248752,-0.030627191615400007,-0.0604609494598,-0.31247787188000004,0.949852595839,0.0022756498722,0.0115085698612,-0.00831184017426,0.00992830560808,-0.0112153858552,0.00107481816079,0.008577667991300001,0.0210231291257,1.89812254906,0.327736437321,6.858738422389998,0.46049618721,0.983389079571,0.578875720501,486000.0,1521527743.0,57999872.0,,,,,,734717.5,1521527743.0,438097683.5,,0.30999996662100004,-0.792999977991,1.1889999389650001,-0.07050000131129999,-0.147500000894,-0.09750000014900001,22.0,25.5,27.5,36.5,38.0,185.5,190.0,197.5,261.0,263.5,5.0,1.2349998950955001,0.5200000405340002,-0.18000030517499988,-0.004000000655649982,-0.001500003040000003,-0.02700000256295
9,53.355465923100006,5336.5,1521527743.0,584728598.0,,1228863.0,1521527743.0,177065594.0,,0.791542822246,-0.0305331884316,-0.0598777173011,-0.31296506126400003,0.949691188614,0.00209137580102,0.011625095471700002,0.00536062937347,-0.00110865974801,0.00333462683267,-0.00978678013601,-0.00783913681257,-0.017265824774299998,0.8065252304080001,0.13238087296499998,7.0532131195100005,0.535726189613,0.6094700694080001,0.56904309988,1229216.0,1521527743.0,175143823.0,,,,,,734731.5,1521527743.0,579058742.0,,-1.689999973775,-0.1780000280585,1.1239994049100002,-0.05900000035765,-0.138999998569,-0.0524999983609,28.0,28.5,29.5,45.0,63.5,207.5,215.0,268.5,272.0,281.5,5.0,-1.999999940396,0.6149999499325,-0.06500053405499995,0.011500000953649996,0.008500002325000006,0.04500000178810001
10,53.4580300256,5345.5,1521527743.0,675328969.5,,1228872.0,1521527743.0,267066038.0,,0.791165237375,-0.03071753265035,-0.0605724097176,-0.312439299323,0.9498681355419999,0.0025162083094200003,0.0112149712103,0.0001895852013999999,-0.00794040934024,-0.0006232891103300003,-0.014325082973415,0.0005505817890999985,-0.0008129346992000012,1.18579673767,0.251957118511,6.87106871605,0.500907450914,0.713054537773,0.559528887272,1229225.0,1521527743.0,265142971.0,,,,,,734740.5,1521527743.0,668296402.0,,0.6700001001354999,-1.092999989911,1.07400016785,-0.0679999999702,-0.1429999992255,-0.09349999949335001,22.0,22.5,41.0,46.0,65.0,212.0,224.5,243.0,286.0,290.0,5.0,2.3600000739105,-0.9149999618524999,-0.0499992370600002,-0.008999999612549998,-0.004000000656499997,-0.04100000113245001
11,53.560594128199995,5357.5,1521527743.0,795994996.5,,1228884.0,1521527743.0,387062825.5,,0.7911019498815,-0.0307495859132,-0.0605148217724,-0.31253340461999995,0.949839240431,0.002116660097525,0.011106260837600001,-0.004972327760622499,-0.0008005642457000004,-0.0008605401860349999,-0.0073188630091999985,0.009018036396416,0.009055247855639999,1.295401096345,0.1915838718412,6.97783112526,0.5325792580845,0.779491186142,0.5645778477195,1229237.0,1521527743.0,385139872.0,,,,,,734752.5,1521527743.0,788120188.0,,-2.00499997139,0.5169999983165,1.36900024414,-0.0630000010133,-0.131999999285,-0.08350000157955,24.0,28.0,30.5,33.0,96.0,214.5,238.5,242.0,297.0,300.0,5.0,-2.6750000715255,1.6099999882275,0.29500007629,0.004999998956899995,0.010999999940499994,0.009999997913800018
12,53.6631582308,5366.5,1521527743.0,885804056.5,,1228892.5,1521527743.0,472066742.5,,0.7912683812895001,-0.03040917380425,-0.060435366344949996,-0.3125123762715,0.9498427355265,0.002491551234935,0.01133434983015,-0.000488980932001,0.0034198950506950003,0.0029885753258449997,-0.005824382759125,-0.00031694589198499965,0.008372217611749999,0.96064454317,0.09093484282475,7.03316807747,0.59701231122,0.6597765088080001,0.6023775935175,857631.5,1521527743.0,476081657.0,,,,,,734761.5,1521527743.0,879593004.5,,-0.9700000047685,-0.38799997679904996,1.824000167845,-0.06650000065565001,-0.13349999487400002,-0.09950000047675,20.5,31.0,31.5,53.5,139.5,209.0,237.5,247.0,289.5,305.0,5.0,1.0349999666215002,-0.90499997511555,0.454999923705,-0.00349999964235001,-0.0014999955890000194,-0.01599999889720001
13,53.7657223333,5376.5,1521527743.0,984763026.0,,1228903.0,1521527743.0,577060936.0,,0.7913077682205001,-0.0312063947176,-0.06046855042455,-0.3123026269335,0.949915437656,0.002089288904525,0.01110247759295,0.008605866641539998,-0.003926171228850001,0.003685186966230001,-0.011625157152954998,-0.020028115008095003,0.0049588445082447705,0.954250901937,0.007740542292550001,7.013315916065,0.615805566311,0.6488075852395,0.579080015421,1229256.0,1521527743.0,575153331.0,,,,,,734771.5,1521527743.0,979177002.5,,-2.04499999285,-1.49299996607,1.623999404905,-0.0675000026822,-0.131999999285,-0.0669999998063,21.0,26.0,27.5,35.0,36.0,214.0,217.0,241.0,296.0,306.0,5.0,-1.0749999880814998,-1.10499998927095,-0.20000076294000002,-0.0010000020265499843,0.0014999955890000194,0.03250000067045
14,53.8682864359,5383.5,1521527744.0,55311560.0,,1228912.5,1521527743.0,672061162.0,,0.7912086597804999,-0.03111112595875,-0.0602618615128,-0.312278248955,0.9499235916155,0.00219610099699,0.01106984029275,-0.0010467200079250002,-0.0015737749622200005,0.0014960577824449995,-0.0145708332634505,-0.003100278127600001,0.004878463748385,1.1478515863449998,0.1221310794355,7.0128779411350015,0.5676430761815,0.7052777409555,0.5754843950269999,857645.0,1521527743.0,671077521.0,,,,,,734778.5,1521527744.0,49087765.0,,-2.08999997973,-1.70800011866,1.3540008544900002,-0.06600000336765001,-0.12400000169849999,-0.07950000092389999,18.0,21.0,29.0,33.0,66.0,229.0,243.0,251.5,337.0,344.0,5.0,-0.044999986880000176,-0.21500015259000005,-0.26999855041499976,0.0014999993145499851,0.00799999758650001,-0.012500001117599982
15,53.9708505385,5396.5,1521527744.0,185418009.5,,1228925.5,1521527743.0,802064715.0,,0.7909367129770001,-0.03111921543125,-0.06042704282795,-0.3128431299375,0.9497414577490001,0.002179485919175,0.0107500529166,0.006695962828975,-0.00377616906439,-0.0030585564763549998,-0.010482949019203,-0.010888687990955,-0.00465089650366,1.0454676747304998,0.17434892058370002,6.917331933975,0.517058968544,0.657421410084,0.5738042294979999,1229278.0,1521527743.0,795151204.0,,,,,,734791.5,1521527744.0,177910537.5,,-1.839999949935,-1.653000051905,1.054001617434,-0.07799999788405,-0.132999997586,-0.06450000032780001,27.0,32.0,34.0,35.0,59.0,235.0,238.5,274.0,304.0,331.0,5.0,0.250000029795,0.05500006675499991,-0.2999992370560003,-0.011999994516399992,-0.008999995887500015,0.015000000596099974
16,54.07341464100001,5407.5,1521527744.0,295998572.5,,1228936.5,1521527743.0,912064273.0,,0.7911078215774999,-0.03080176038435,-0.06071224511575001,-0.312544242006,0.9498357982175,0.002265696640985,0.0110837726845,0.0072395007716300015,0.008234279652205,0.005845893848505,0.013093139967580002,-0.018153132448,0.0020139889459949998,2.42193442583,1.476132154465,6.102776050569999,0.14736623317,1.267794072625,0.584162026644,857661.0,1521527743.0,907059035.5,,,,,,734802.5,1521527744.0,289468417.5,,-1.88999996185,1.1169999923535,0.984000015259,-0.07250000163914999,-0.120999999344,-0.09149999916555,21.5,23.5,30.5,34.0,34.5,215.0,240.5,256.0,298.0,319.0,5.0,-0.05000001191500014,2.7700000442585,-0.07000160217499984,0.00549999624490001,0.011999998242000001,-0.02699999883774999
17,54.1759787436,5418.5,1521527744.0,404681086.0,,1228947.5,1521527744.0,22063737.5,,0.789692447914,-0.0319243292775,-0.0593208997482,-0.314194707333,0.9492882274075,0.0015354506277349999,0.011453057704,-0.0198333394715,-0.005850676546730001,0.0411936989579,-0.014798021949230003,-0.022927664777705,0.04598846894115,2.961975455285,1.2068836092964998,8.527731418610001,0.2926829457285,1.6297051906600002,0.5088046193119999,857669.5,1521527744.0,23077174.0,,,,,,734813.5,1521527744.0,398035929.0,,-0.27999994754804997,-0.5580000232905,1.764000701905,-0.07100000232455,-0.17499999702,-0.05250000022355,17.0,19.0,19.0,25.0,68.5,218.0,224.0,239.0,309.0,319.0,5.0,1.6100000143019502,-1.675000015644,0.7800006866459999,0.0014999993145999868,-0.053999997675999986,0.038999998942
18,54.2785428462,5428.5,1521527744.0,505115985.0,,1228955.0,1521527744.0,97095730.0,,0.787359726604,-0.0336281304598,-0.053797484277,-0.31650928819,0.948524372074,0.00015308202299575,0.011097240062,-0.031689549029500004,-0.026097227633950004,0.0782848232392,-0.022319800374575,-0.010508728624056,0.06002642242734999,6.4337692260749995,0.51817300170665,6.8752691745800005,0.955573260782,2.99069440365,0.633020609617,1229308.0,1521527744.0,95190598.0,,,,,,734823.5,1521527744.0,500148912.0,,-1.394999957085,-2.217999989915,1.6590011596699998,-0.05800000019375,-0.156500004232,-0.0449999999255,20.5,26.5,51.0,57.5,86.0,221.5,224.0,242.0,312.5,318.0,5.0,-1.11500000953695,-1.6599999666245,-0.10499954223500008,0.013000002130800006,0.01849999278799999,0.007500000298050001
19,54.3811069487,5436.5,1521527744.0,584609508.0,,1228962.0,1521527744.0,167102143.5,,0.785341127763,-0.03583682922505,-0.046932410094050005,-0.316236104606,0.9486140976584999,0.00024478565947721,0.01119464279625,-0.019215301307285,-0.041896530184400003,0.118081278405,-0.014124831589299999,-0.032495457786810004,-0.0290353046207,5.77991986275,0.8771149218065,5.853204727175001,0.8082558214669999,2.593447446825,0.569779634476,857680.0,1521527744.0,174075457.0,,,,,,734832.0,1521527744.0,585754724.0,,-0.744999980927,-1.0280000519,1.08399848938,-0.0710000023246,-0.148000001907,-0.0520000010729,27.0,31.0,34.0,43.0,80.0,237.0,244.0,251.0,310.0,315.0,5.0,0.649999976158,1.189999938015,-0.5750026702899997,-0.013000002130850008,0.008500002325000006,-0.007000001147400001
20,54.4836710513,5448.5,1521527744.0,704648017.5,,1228974.5,1521527744.0,292103827.5,,0.7855261547874999,-0.0401316003032,-0.03035623788425,-0.315975410276,0.9486200952315,-0.0009709700173425,0.01668720965585,0.0149282492742,-0.0413561138219,0.14372015494149998,0.0296198881826,-0.11603471883649999,0.0089859840969,4.53707134724,0.5647707283500001,4.705572843550001,0.853206217289,2.288635492325,0.6562696397305,1229328.0,1521527744.0,295185180.0,,,,,,734843.5,1521527744.0,699358341.5,,-1.879999971385,-2.52300005667,0.7340019226055001,-0.0525000002235,-0.13549999520199998,-0.05450000055134999,20.5,34.0,42.5,47.5,59.0,235.5,240.0,245.5,317.5,325.5,5.0,-1.134999990458,-1.4950000047699998,-0.3499965667745,0.018500002101100005,0.01250000670500001,-0.0024999994784499907
21,54.586235153800004,5459.5,1521527744.0,815016984.0,,1228985.5,1521527744.0,402095088.0,,0.791713620126,-0.0426374346122,-0.01802960285145,-0.31100015628050004,0.9501120899345,0.001349240988295,0.0235402989638,0.12868383226070002,0.008703175096040001,0.08916489264730001,0.11723043965749999,-0.284295158976,-0.054141482812689996,3.91809642315,1.6044388711434998,0.928901374342,0.033206641675000086,1.4718475788812502,0.5259657949209999,857696.0,1521527744.0,395089965.0,,,,,,734854.5,1521527744.0,810051321.0,,-2.5649999737750004,-1.168000037596,0.384001541138,-0.0580000001937,-0.17700000107250002,-0.056500000879150004,43.0,45.5,53.0,55.0,58.0,213.0,224.0,251.0,273.0,319.0,5.0,-0.6850000023900005,1.355000019074,-0.3500003814675001,-0.005499999970200002,-0.04150000587050004,-0.002000000327800011
22,54.6887992564,5468.5,1521527744.0,906167030.0,,1228995.0,1521527744.0,497103205.0,,0.803349185296,-0.0447901962655,-0.0136047642411,-0.310958769966,0.949742887317,-0.0025768634071300003,0.035867131839099994,0.0911709384472,-0.0482947145821,0.0107234368102,-0.093441912273,-0.22712670669,0.0915532045797,0.717204391956,2.16095972061,4.40855026245,-0.4611780047420001,0.94459682703,0.421289414167,1229348.0,1521527744.0,495192308.0,,,,,,734863.5,1521527744.0,901955554.5,,-1.47999999523,-3.3529999803750004,0.8289993286135,-0.08650000020860002,-0.1694999933245,-0.034499999135750005,47.0,47.0,51.0,71.0,117.5,119.0,125.5,130.0,152.5,161.0,5.0,1.0849999785450004,-2.184999942779,0.4449977874755,-0.028500000014900016,0.007500007748000026,0.0220000017434
23,54.791363358999995,5479.5,1521527745.0,15089034.5,,1229007.0,1521527744.0,617105907.0,,0.7983085916554999,-0.048269906176800007,-0.015849191654399998,-0.310119336862,0.95027302767,-0.003798094122215,0.028122122711,-0.120281793841,-0.01863408460325,-0.03341203170705,-0.037782417521150004,0.30089325910950004,-0.02461735871845,2.7477544546099995,2.510111927985,5.191145420075,-0.3902781903745,1.481157779695,0.424930483103,857711.0,1521527744.0,621575210.0,,,,,,734874.5,1521527745.0,9207030.5,,-1.2649999618549999,-1.3280000042175,1.32900123596,-0.0449999999255,-0.1849999949335,-0.0680000036955,42.5,44.5,52.0,66.0,73.0,100.0,107.5,123.0,129.5,133.0,5.0,0.21500003337500018,2.0249999761575004,0.5000019073465001,0.04150000028310002,-0.015500001609000003,-0.03350000455974999
24,54.8939274615,5486.5,1521527745.0,84621428.5,,1229015.0,1521527744.0,697097352.5,,0.7921508257675001,-0.046455420912849994,-0.018904965261150004,-0.3105745322655,0.950294667834,-0.001152694251638,0.0219525295632,-0.039652214775,0.027996320989215,-0.04561515361125,0.06054217183015,0.07660935444735001,0.0019254524835,7.14845061302,3.41910564899,4.50303721428,-0.6016593277455,2.6608169078799997,0.433479487896,857716.5,1521527744.0,691579235.5,,,,,,734881.5,1521527745.0,80691782.5,,-0.8249999642364999,-1.3630000304399998,-0.48099822998049996,-0.0679999999702,-0.07050000131129999,-0.06599999964235,46.5,50.5,55.0,57.5,73.5,105.5,112.5,116.0,126.0,133.5,5.0,0.43999999761849995,-0.03500002622249987,-1.8099994659405,-0.023000000044699993,0.11449999362220001,0.002000004053149998
25,54.9964915641,5497.5,1521527745.0,195025443.5,,1229025.5,1521527744.0,802101279.5,,0.790791783575,-0.04267472401269999,-0.0223042407062,-0.3116676185855,0.9499426617365,0.0008727344773475001,0.02171049178725,-0.0130719933145,0.02634342916775,-0.026977592473850003,-0.0043538304336700005,0.01133916347174,0.05213417339055,2.36945307255,1.2104067802399998,5.6922736167900005,0.06712479144354999,1.2808791399,0.4966407716275,1229379.0,1521527744.0,805203458.0,,,,,,734892.5,1521527745.0,189323078.0,,-0.13499996662139999,-1.477999980375,0.31900100708,-0.054000001400699986,-0.1594999954105,-0.05350000038745,47.0,50.0,56.0,63.0,81.0,109.0,110.5,118.5,139.5,146.0,5.0,0.6899999976150999,-0.11499994993500007,0.7999992370605,0.01399999856950001,-0.08899999409920001,0.012499999254899995
26,55.0990556667,5511.5,1521527745.0,334660529.5,,1229039.5,1521527744.0,942094864.5,,0.7861096696984999,-0.040071515607699996,-0.026481810362400004,-0.31422939807850003,0.949183824282,0.0013184569989000002,0.017551567198899998,-0.013784289380329998,0.010884079247035,-0.017200302947544998,-0.012189897307474998,0.0256814211116,0.02004681536325,7.177270412444999,2.56925976276,4.18499660492,-0.24882549792550002,2.8712205886799995,0.5147979557515,857734.0,1521527744.0,943080890.5,,,,,,734906.5,1521527745.0,332002464.5,,-1.61999998093,-0.358000005409,-1.446000289915,-0.054500002413949984,-0.06749999895690001,-0.08750000223519999,34.5,37.5,46.0,57.0,69.5,102.0,111.0,122.5,148.5,157.5,5.0,-1.4850000143086002,1.119999974966,-1.765001296995,-0.0005000010132499982,0.09199999645359999,-0.03400000184774999
27,55.2016197692,5520.5,1521527745.0,431113004.0,,1229049.0,1521527745.0,37127772.5,,0.7862684789450001,-0.0374185381116,-0.027821248504750002,-0.3157383059335,0.948664343106,0.00155905035777,0.0185101222122,0.005329874589229999,0.018942146233100005,-0.002677111298355,-0.010649358443799998,-0.02540429399208,0.04502690256785,4.465362548830001,1.696521401405,5.2039706706999995,-0.15858419984549998,2.12698483467,0.47695077955750004,857740.5,1521527745.0,38580588.5,,,,,,734916.0,1521527745.0,426539499.5,,-1.4249999582779995,-1.703000004215,0.449000167847,-0.057000000029800005,-0.13949999958249998,-0.039999999105950014,38.0,38.0,48.5,70.0,85.0,124.5,126.0,131.5,157.0,162.0,5.0,0.19500002265200056,-1.344999998806,1.8950004577619999,-0.0024999976158500206,-0.07200000062559997,0.04750000312924998
28,55.30418387180001,5530.5,1521527745.0,524613499.0,,1229057.0,1521527745.0,117107042.0,,0.785390136081,-0.036950713556,-0.0272107358572,-0.316249130849,0.948514432509,0.00119445019805,0.017476608603299998,-0.0185852965191,0.0298229379128,-0.000618201441026,0.00279076958627,0.0166940482462,0.0321939397203,6.37621927261,1.94586801529,4.21309566498,-0.150292351842,2.62205266953,0.476837933064,1229410.0,1521527745.0,115182258.0,,,,,,734925.5,1521527745.0,519770574.5,,-2.67499998808,-0.93800001852,-1.0110008239735002,-0.0705000013113,-0.07899999991060001,-0.05800000205635,29.0,34.0,39.0,74.0,91.0,125.0,138.0,150.0,166.0,174.0,5.0,-1.2500000298020006,0.7649999856949999,-1.4600009918205001,-0.013500001281500001,0.060499999671899965,-0.01800000295039999
29,55.4067479744,5537.5,1521527745.0,597134947.0,,1229063.0,1521527745.0,177095998.0,,0.785312125163,-0.0367729608258,-0.0281545813357,-0.316461077957,0.948443436831,0.00121392529304,0.017491702480400002,0.0150956498051,0.0125548914759,0.00241917258733,0.0237082182092,-0.0407925742882,0.0234469350993,5.75302553177,1.9863960743,4.17954301834,-0.246370792389,2.43693614006,0.44579204917,857751.0,1521527745.0,189573820.5,,,,,,734932.5,1521527745.0,589869355.5,,-1.39500001669,0.29699999578295,0.8990009307860001,-0.06799999810755,-0.1260000020265,-0.06900000199675001,35.0,37.5,39.0,44.0,88.0,104.5,127.0,136.0,168.5,173.5,5.0,1.27999997139,1.23500001430295,1.9100017547595003,0.0025000032037500036,-0.04700000211589998,-0.010999999940400004
30,55.509312076899995,5552.5,1521527745.0,744621991.5,,1229078.0,1521527745.0,327094982.0,,0.7849879213925,-0.03552105948785,-0.02809860661455001,-0.317302476676,0.948162334634,0.001119099986784,0.017485633586999998,0.0008534582808499993,-0.00554118582346,0.0014028141754000006,-0.013009286369295004,0.0016247138889500035,-0.006187118778350001,5.9041686058049985,2.0184057354900005,3.89556956291,-0.2757556438445,2.441143870355,0.44684366881849996,857761.5,1521527745.0,340074312.0,,,,,,734947.5,1521527745.0,741311423.0,,-3.23499998301,-1.9729999851400002,-0.0009986877439999986,-0.05750000104305,-0.109500002116,-0.0605000015348,34.0,38.0,40.0,49.5,70.0,115.0,135.0,138.5,156.5,158.5,5.0,-1.8399999663199997,-2.2699999809229503,-0.8999996185300001,0.0104999970645,0.016499999910499996,0.008500000461950007
31,55.6118761795,5559.5,1521527745.0,814600944.0,,1229085.5,1521527745.0,402100009.0,,0.784380042067,-0.03614222997430001,-0.029064023876099996,-0.31724000244600004,0.9481977706125,0.001121717338392,0.016674286396149998,-0.0014642798680200002,0.006959409577525,0.00223222575041,-0.002572068579095,0.0011825402128800002,0.020387542086540002,6.312334775925,2.1768362522099998,3.682369709015,-0.354852706194,2.6150784492500003,0.44740182161349995,857766.0,1521527745.0,400588671.5,,,,,,734954.5,1521527745.0,811216270.5,,-3.37999997139,-1.738000030442,0.08900146484349998,-0.046999998390699994,-0.1255000010135,-0.06000000052155,27.0,34.0,40.0,43.0,47.0,128.0,132.5,146.0,162.0,168.5,0.0,-0.1449999883800004,0.23499995469800017,0.09000015258749998,0.010500002652350009,-0.015999998897500006,0.0005000010132499982
32,55.7144402821,5569.5,1521527745.0,914602517.5,,1229096.0,1521527745.0,507116456.5,,0.7845760882945,-0.0362566507975,-0.029542076047150003,-0.316894675308,0.9483115220335,0.00150521043061,0.016754786989,0.01003406742711,-0.0027273209418999986,0.004392889134755001,-0.003484289181545001,-0.0159219097031,-0.012279834837449998,5.3405976295499995,2.0742905736000004,3.988973498345001,-0.359852343798,2.2930760383599997,0.43779282271849995,1229449.0,1521527745.0,505171823.0,,,,,,734964.5,1521527745.0,911149067.5,,-2.094999945165,-1.4530000638249998,0.6040008544919999,-0.0525000002235,-0.127000004053,-0.08700000122189999,27.5,32.0,40.0,58.0,93.0,118.0,123.5,145.0,157.0,161.0,-1.0,1.285000026225,0.2849999666170002,0.5149993896484999,-0.005500001832800007,-0.0015000030394999864,-0.02700000070034999
33,55.8170043846,5582.5,1521527746.0,44607519.5,,1229108.5,1521527745.0,632108393.5,,0.7843767178859999,-0.0364412251719,-0.0300359292003,-0.316934379965,0.9483051923929999,0.0009188316434935,0.0164014161417,0.00267597929255,0.007930822387973,0.0012386117003000009,0.027418274440395,-0.006070974622499996,-0.020778461999205,6.155660867695,2.2556563615800003,3.917913794515,-0.37228775024449995,2.56261241436,0.423444420099,857781.5,1521527745.0,632596041.5,,,,,,734977.5,1521527746.0,39546611.0,,-0.5249999523165001,-2.472999985145,-0.19599838256825006,-0.0604999996722,-0.107499998063,-0.05699999816719999,32.5,52.0,54.0,66.0,71.5,124.5,127.5,131.0,151.5,159.0,-1.0,1.5699999928485,-1.0199999213200002,-0.79999923706025,-0.007999999448700001,0.01950000599,0.0300000030547
34,55.9195684872,5591.5,1521527746.0,134612917.0,,1229120.5,1521527745.0,752262688.0,,0.7847523427159999,-0.036004143916849994,-0.02955907285075,-0.316646625137,0.9483910058455,0.00148072019408,0.0169443251673,0.0036443836899549996,-0.006652633323564999,-0.0019023783080320002,-0.00953764134585,-0.00198196900349,-0.013869608696815002,5.73440313339,2.17886674404,3.607564091680001,-0.3735083043575,2.41352212429,0.4345297068355,857790.5,1521527745.0,752652311.0,,,,,,734986.5,1521527746.0,131622635.5,,-2.1799999833099997,-2.232999975605,0.13900070190424998,-0.0565000008792,-0.1215000003575,-0.055499998852600006,25.0,31.0,40.5,53.0,77.0,122.0,129.0,133.0,151.5,158.5,-1.0,-1.6550000309934996,0.24000000954000011,0.33499908447250004,0.003999998793000004,-0.014000002294500005,0.0014999993145999868
35,56.0221325897,5599.5,1521527746.0,214599012.5,,1229128.5,1521527745.0,832262518.0,,0.7843248493270001,-0.03634578832,-0.030159524320049997,-0.316987540528,0.9482874688325,0.0010512382434320002,0.01638549202265,0.00361113286631,0.001138521342205,0.006824703904115,0.007179750791370001,-0.004731403014184999,-0.010729300773195,5.866324424745001,2.29515373707,3.631901741025001,-0.429627388716,2.4480451345450005,0.42356547713299997,1229480.5,1521527745.0,820345844.0,,,,,,734994.5,1521527746.0,210752015.0,,-0.8150000333785,-0.9480000089835,0.08899955749510001,-0.0604999996722,-0.1225000023845,-0.0729999989271,24.0,40.5,43.0,53.5,63.0,118.5,135.0,147.5,155.0,163.0,-1.0,1.3649999499314998,1.2849999666214997,-0.050001144409149975,-0.003999998793000004,-0.0010000020269999993,-0.017500000074499998
36,56.1246966923,5612.5,1521527746.0,344590067.0,,1229141.5,1521527745.0,962251558.0,,0.7845757049809999,-0.036480498005300004,-0.0300421161026,-0.31699497819899997,0.948282104183,0.00104272889519,0.016556576232,-0.008247201739074998,-0.005394987917435001,-0.0138980712419,0.008865073341244999,0.022787581622250003,-0.01480379508135,6.3992831707,2.6919975280750004,3.717530727385,-0.5941650867465,2.637475609775,0.4119937866925,1229494.0,1521527745.0,955335794.0,,,,,,735007.5,1521527746.0,341425882.5,,-1.5949999451649999,-0.9480000089845,-0.09599990844700003,-0.06749999895695,-0.09699999913589999,-0.0675000026822,30.5,36.0,38.5,93.5,118.0,125.0,131.0,141.0,169.0,175.0,-1.0,-0.7799999117864999,-9.999778782798785e-13,-0.18499946594210004,-0.006999999284749994,0.02550000324860001,0.00549999624490001
37,56.2272607949,5623.5,1521527746.0,454612493.0,,1229152.5,1521527746.0,72256357.5,,0.7848785677860001,-0.03607173919665,-0.029725303853450003,-0.316509774786,0.9484361069675,0.0015539670461749999,0.0169688449414,0.007008574136105001,-0.007320202769055,0.008710875147334998,-0.007125535386079998,-0.009664722442309998,-0.0004214741676499996,6.1576464176200005,2.563078284265,3.690368890765,-0.5553704202175,2.5889869928400002,0.42677813768399997,1229504.0,1521527746.0,55333953.0,,,,,,735018.5,1521527746.0,451577403.5,,-2.03999996781,-1.0029999565324998,0.3189990997315,-0.06350000016395001,-0.1284999996425,-0.07349999994039999,30.0,36.0,42.5,47.5,108.0,135.5,137.5,142.5,171.5,179.0,-1.0,-0.44500002264500016,-0.05499994754799986,0.4149990081785,0.00399999879299999,-0.03150000050660001,-0.005999997258199996
38,56.329824897399995,5630.5,1521527746.0,524586558.0,,1229158.0,1521527746.0,127534231.0,,0.7845470266399999,-0.035746218355099994,-0.0297415109623,-0.316731224043,0.94836483102,0.00169928201274,0.0168104563237,0.0117099590973,0.0098285988128,0.0109203937719,0.0028196619883400003,-0.0268310851656,0.00986124901071,6.272043704990001,2.63880872726,3.60235595703,-0.622102499008,2.57871484756,0.407466322184,1229509.0,1521527746.0,105481989.0,,,,,,735025.5,1521527746.0,521255601.5,,-2.12500000596,-2.72299998514,-0.286000442505,-0.061499999836099994,-0.11750000342700001,-0.0669999998063,30.0,34.5,38.5,52.5,75.0,129.0,147.0,147.0,184.0,187.5,-1.0,-0.08500003815000001,-1.7200000286075001,-0.6049995422365,0.002000000327850013,0.01099999621549999,0.006500000134099987
39,56.432389,5644.5,1521527746.0,664600491.0,,1229171.0,1521527746.0,257527858.5,,0.7846798004725001,-0.03569659181065,-0.0300126289243,-0.31672475220100005,0.9483695306475,0.00152639011694,0.01667954902925,0.014163993511155002,-0.011394126435765,-0.01095577794345,0.011555629079601,-0.014775592687055,-0.035644504128449994,7.01428365707,3.13545644283,3.14490056038,-0.7910847663875,2.8115164041500003,0.395640671253,486127.0,1521527746.0,254000128.0,,,,,,735039.5,1521527746.0,661743890.0,,-1.944999969005,-0.9130000423639999,-0.5110008239745001,-0.053500000387450015,-0.09450000152010002,-0.0645000003278,26.0,29.5,31.5,57.0,90.0,135.5,141.0,156.0,167.5,196.5,-1.0,0.1800000369550001,1.809999942776,-0.22500038146950008,0.007999999448649979,0.02300000190689999,0.0024999994785000063
