,Unnamed: 0,.header.seq,.header.stamp.secs,.header.stamp.nsecs,.header.frame_id,.endpoint_state.header.seq,.endpoint_state.header.stamp.secs,.endpoint_state.header.stamp.nsecs,.endpoint_state.header.frame_id,.endpoint_state.pose.position.x,.endpoint_state.pose.position.y,.endpoint_state.pose.position.z,.endpoint_state.pose.orientation.x,.endpoint_state.pose.orientation.y,.endpoint_state.pose.orientation.z,.endpoint_state.pose.orientation.w,.endpoint_state.twist.linear.x,.endpoint_state.twist.linear.y,.endpoint_state.twist.linear.z,.endpoint_state.twist.angular.x,.endpoint_state.twist.angular.y,.endpoint_state.twist.angular.z,.endpoint_state.wrench.force.x,.endpoint_state.wrench.force.y,.endpoint_state.wrench.force.z,.endpoint_state.wrench.torque.x,.endpoint_state.wrench.torque.y,.endpoint_state.wrench.torque.z,.joint_state.header.seq,.joint_state.header.stamp.secs,.joint_state.header.stamp.nsecs,.joint_state.header.frame_id,.joint_state.name,.joint_state.position,.joint_state.velocity,.joint_state.effort,.wrench_stamped.header.seq,.wrench_stamped.header.stamp.secs,.wrench_stamped.header.stamp.nsecs,.wrench_stamped.header.frame_id,.wrench_stamped.wrench.force.x,.wrench_stamped.wrench.force.y,.wrench_stamped.wrench.force.z,.wrench_stamped.wrench.torque.x,.wrench_stamped.wrench.torque.y,.wrench_stamped.wrench.torque.z,.tactile_values.tactile_values_0,.tactile_values.tactile_values_1,.tactile_values.tactile_values_2,.tactile_values.tactile_values_3,.tactile_values.tactile_values_4,.tactile_values.tactile_values_5,.tactile_values.tactile_values_6,.tactile_values.tactile_values_7,.tactile_values.tactile_values_8,.tactile_values.tactile_values_9,.tag,.delta_wrench.force.x,.delta_wrench.force.y,.delta_wrench.force.z,.delta_wrench.torque.x,.delta_wrench.torque.y,.delta_wrench.torque.z
0,45.782758,4578.5,1521544459.0,488023519.0,,2900405.5,1521544458.0,602015070.5,,0.699385904687,-0.08854565024225,0.10225116066649999,-0.2909150698195,0.955499520791,-0.00407711836956,0.0487052015919,-0.0034224301496,0.0208598496015,-0.113265742322,0.004350244995080001,0.0489168568942,0.0607484645829,2.6652178764350003,2.2184234857550003,3.48893904686,-0.619265347719,0.7709861397744999,0.1257417574527,2900758.5,1521544458.0,600113165.5,,,,,,2404562.0,1521544459.0,481664603.0,,0.311000061035,1.92100005336,0.821998977661,-0.097000002861,-0.0710000023246,-0.107000000775,59.5,60.5,69.0,73.0,77.5,-135.0,-133.0,-126.0,-121.5,-116.5,4.0,0.0,0.0,0.0,0.0,0.0,0.0
1,45.8853221026,4586.5,1521544459.0,566865444.0,,2900413.5,1521544458.0,682005050.5,,0.6984204540704999,-0.08841797384635001,0.0953119631725,-0.29007172685849997,0.9558988183670001,-0.003158918917015,0.045888617374250006,-0.020234005365050003,0.0126884855574,-0.0867011660813,0.01566176797566,0.1057938220135,-0.079688305675,-0.3113700598475,0.477958738804,7.4698932170850005,0.1635361164809,-0.27290357649349994,0.2522875517605,1147249.5,1521544458.0,678500096.0,,,,,,2404570.0,1521544459.0,563530684.0,,0.5410000801093,1.395999987795,1.3869995117175,-0.10350000113245,-0.08049999922515,-0.09450000151985001,79.0,84.5,90.0,91.0,94.0,-164.5,-157.0,-156.0,-145.0,-144.0,4.0,0.2300000190743,-0.525000065565,0.5650005340565,-0.006499998271450008,-0.009499996900549992,0.012499999255149996
2,45.987886205100004,4596.5,1521544459.0,666474580.0,,2900421.5,1521544458.0,762100898.0,,0.698402328893,-0.08823735002775,0.08964863639935,-0.2898715152125,0.956016466761,-0.002977120073855,0.044700442523149995,-0.0032462683658185,-0.01031892347051,-0.0751501070713,-0.02222902777175,0.03053135537895,-0.004767874115145,0.6687943339344999,0.8059531450274999,6.60668373108,-0.14401194080715002,0.208037897944,0.17644476890549998,2024013.5,1521544458.0,763103298.0,,,,,,2404579.5,1521544459.0,659141445.5,,-1.1289999961875001,0.2309999989345,-0.2430015563967,-0.1019999980925,-0.07899999991060001,-0.124000001699,55.0,56.5,60.5,64.5,75.0,-150.0,-142.5,-139.5,-138.0,-123.0,4.0,-1.6700000762968001,-1.1649999888605,-1.6300010681142,0.0015000030399500014,0.0014999993145499851,-0.029500000179149985
3,46.0904503077,4607.5,1521544459.0,776437520.5,,2900432.0,1521544458.0,867100862.0,,0.699368548709,-0.08912144823580001,0.08339946167830001,-0.289026781562,0.956340262015,-0.00358976593642,0.0431733293807,0.0226680207077,-0.0251916909291,-0.0517862745935,-0.0580830152334,0.0054339219009200005,0.0150832476421,2.6451587677,2.11155557632,5.36999320984,-0.63669937849,0.8450322151180001,0.08619563281539999,1147257.0,1521544458.0,871000064.0,,,,,,2404590.5,1521544459.0,769811843.5,,-0.8089999437355,-0.6640000145885001,-1.2529998779299998,-0.08650000020865001,-0.0879999995232,-0.08749999850989999,54.0,55.0,62.5,66.0,87.0,-143.0,-136.0,-135.5,-135.0,-129.5,4.0,0.32000005245200014,-0.8950000135230001,-1.0099983215332997,0.015499997883849995,-0.008999999612599993,0.0365000031891
4,46.193014410299995,4620.5,1521544459.0,906931995.5,,2900444.0,1521544458.0,987098957.0,,0.702916734979,-0.08781985318185,0.07835163676670001,-0.288418462538,0.9565798136355,-0.00335587210777,0.041935133597550016,0.059885612566600015,0.006041019296240001,-0.028417014970050006,-0.01601810852465,-0.021231878768440002,-0.008147204162460002,2.9697865247750004,1.400592684745,4.454964399335,-0.13449478521935002,0.8151344656945001,0.25885373353950003,2900798.0,1521544458.0,995209235.0,,,,,,2404603.5,1521544459.0,900331350.0,,1.85100002289,1.3309999901799998,0.14699974060050006,-0.1085000000895,-0.082499999553,-0.0819999985397,54.5,55.5,59.5,60.5,69.0,-125.0,-125.0,-117.5,-111.0,-109.0,4.0,2.6599999666255,1.9950000047685,1.3999996185305,-0.021999999880849996,0.005499999970200009,0.005499999970199995
5,46.2955785128,4628.5,1521544459.0,986845493.0,,2900453.0,1521544459.0,77122126.5,,0.7102567657115001,-0.08573734359589999,0.07505345367364999,-0.287319411964,0.9568081324785,-0.002933866503895,0.04423514138069999,0.08921039764129997,0.0358691501409,-0.03808470915385,0.045221104830400004,-0.051170343073150014,-0.0241365250412,4.1822445392650005,2.1370589733150003,3.273196697235,-0.38815382123,1.3712106347100002,0.312937602401,2024036.0,1521544459.0,83088031.5,,,,,,2404611.5,1521544459.0,979768077.5,,0.691000175476,0.445999999717,-0.7830005645765,-0.103000000119,-0.07550000026824999,-0.08800000324844999,50.0,52.5,55.0,58.5,64.5,-115.5,-110.0,-102.5,-100.0,-93.5,4.0,-1.159999847414,-0.8849999904629998,-0.930000305177,0.005499999970500005,0.006999999284750008,-0.0060000047087499925
6,46.3981426154,4640.5,1521544460.0,106704950.0,,2900464.5,1521544459.0,192127785.0,,0.719682678878,-0.08323036712625001,0.07167041859975,-0.28614189358349995,0.95699321293,-0.002484407630255,0.04775453814855,0.059508862297250005,-0.0026393492419000014,-0.0444379553802,0.0076427196113515,-0.004564532605849997,-0.05855599389540001,2.73459124565,1.256866514685,4.096053600309999,-0.13219455629580001,1.037168502806,0.366086512804,2024044.0,1521544459.0,193582082.0,,,,,,2404623.5,1521544460.0,98710954.5,,0.630999994278,0.8109999943524999,-1.158000564575,-0.1014999970795,-0.06199999898675,-0.07849999889735,28.5,30.5,39.0,43.5,66.5,-116.0,-115.0,-111.0,-101.0,-88.0,4.0,-0.06000018119799999,0.3649999946354999,-0.3749999999985,0.0015000030395000002,0.013500001281499988,0.009500004351099989
7,46.5007067179,4649.5,1521544460.0,196306466.5,,2900476.0,1521544459.0,307143053.0,,0.7229264863320001,-0.08186471586995,0.0667556556377,-0.285489464818,0.9572335766365001,-0.0020554064835150002,0.04684944873385,0.043323190746900005,0.0021150601171,-0.036252049316949995,-0.025327965239655,-0.035902632737545,0.011886849285160001,3.9476195573800004,2.3589392900450004,3.4771740436550003,-0.66380277276,1.323988497256,0.27418866753550003,2900829.0,1521544459.0,305222179.0,,,,,,2404632.5,1521544460.0,188805302.0,,0.06600005626650003,1.3460000354799997,-0.9180007934565,-0.08750000223519999,-0.062499998137350014,-0.10099999979115,27.0,30.0,33.5,36.5,47.0,-111.0,-110.0,-109.0,-106.5,-96.5,4.0,-0.5649999380115,0.5350000411274998,0.23999977111850002,0.013999994844300007,-0.0004999991506000126,-0.0225000008938
8,46.6032708205,4659.5,1521544460.0,296358585.0,,2900486.5,1521544459.0,412141599.5,,0.7249308608880001,-0.08268447242060001,0.06054606656690001,-0.2863914657135,0.9569850978245,-0.00395274237063,0.046298291334650014,0.0275727663275,0.004116360683050001,-0.07228419245310001,-0.013940645481660002,-0.0446876168925,0.047661230143600006,4.736890673635,2.992406129835,-0.5170114040375,-0.603095576167,1.560326039795,0.2602010518315,2900839.5,1521544459.0,410237823.0,,,,,,2404642.5,1521544460.0,291562623.0,,0.420999956131,1.5960000354799997,0.0469993591307,-0.10600000247369999,-0.07100000232455,-0.09450000152,29.5,30.5,31.5,36.0,49.0,-98.5,-96.0,-89.5,-86.0,-68.0,4.0,0.3549998998645,0.25,0.9650001525872,-0.0185000002385,-0.00850000418719999,0.006499998271149998
9,46.70583492310001,4667.5,1521544460.0,376518487.0,,2900494.5,1521544459.0,492141160.5,,0.7259911115205,-0.08108722637014999,0.055432986686250005,-0.28762129862450003,0.9566049475245001,-0.0031420025465450003,0.04659156424319999,0.006567131371975001,0.0205339401832,-0.06439018842055,0.021980072433549998,0.01044073100775,0.0331108176063,0.13739537447715,0.835109502077,6.971229791639999,-0.12290574610215,0.045476321131250004,0.2527914270755,2024064.0,1521544459.0,481116518.5,,,,,,2404650.5,1521544460.0,370690289.5,,0.29100008010850004,-1.2189999919405,0.107000732422,-0.07299999892709999,-0.02300000004475,-0.08000000193715,50.0,51.0,56.0,57.5,97.5,-73.0,-72.0,-71.0,-71.0,-60.0,4.0,-0.12999987602249996,-2.8150000274204996,0.06000137329130001,0.0330000035466,0.0480000022798,0.014499999582850004
10,46.8083990256,4680.5,1521544460.0,506285428.5,,2900507.5,1521544459.0,622141596.5,,0.7278706019575001,-0.0811358841399,0.04738091259905,-0.2875531480335,0.956696525508,-0.0029517193660900005,0.04512205650975,0.029976987556849997,-0.0067230378035,-0.06515496548355,-0.0271224055333,0.008695546473405001,0.010408464057265,3.25651311874,1.7799291610749999,3.295848965645,-0.224431499839,0.8924357593059999,0.311263471842,2900860.0,1521544459.0,615243283.0,,,,,,2404663.5,1521544460.0,499396746.0,,-0.30900006294259996,0.7210000056775001,-0.0930000305174,-0.1009999997915,-0.09349999949335001,-0.10300000011949999,43.5,44.5,48.5,53.5,60.5,-42.0,-38.0,-32.0,-28.0,-21.0,4.0,-0.6000001430510999,1.939999997618,-0.2000007629394,-0.028000000864400007,-0.07049999944860001,-0.02299999818234999
11,46.910963128199995,4690.5,1521544460.0,606706022.5,,2900517.5,1521544459.0,722149078.5,,0.7330985847689999,-0.08028145239105,0.040462669279300006,-0.285954785564,0.957133621699,-0.0023749022335949996,0.0460343182974,0.061560126079400014,0.005786088794289999,-0.0844799928986,0.0321865229665,-0.006422741440849998,-0.05247996587815,2.5259155035000003,1.68682318926,3.97677886486,-0.251840561628,0.5888194441794999,0.30911318957800005,2900869.5,1521544459.0,710241647.5,,,,,,2404673.5,1521544460.0,600783859.0,,-0.08899991512315003,0.7260000009095,-0.30800018310564503,-0.09200000017885002,-0.08199999853965001,-0.06899999827150001,39.0,39.5,42.0,45.5,57.0,-107.5,-95.0,-90.0,-87.0,-85.0,4.0,0.22000014781944993,0.004999995231999899,-0.21500015258824504,0.008999999612649981,0.011500000953700004,0.03400000184799998
12,47.0135272308,4702.5,1521544460.0,726262569.0,,2900527.0,1521544459.0,817193317.0,,0.740007976919,-0.0801876131216,0.0316880367585,-0.2857919799,0.957081290856,-0.00303610825387,0.0480533970245,0.0622707240241,-0.0133632134935,-0.10935259355,-0.0392371044188,-0.0245111646981,0.029798811251,2.28388977051,0.0454815328121,3.26141476631,0.498021006584,0.770263016224,0.464689016342,2024086.5,1521544459.0,813145909.0,,,,,,2404685.5,1521544460.0,719587632.5,,1.190999937055,0.366000001505,-0.23300132751449998,-0.1079999990765,-0.05550000071525,-0.07349999994039999,34.0,35.0,41.0,46.5,53.5,-115.5,-114.5,-108.5,-108.0,-99.5,4.0,1.27999985217815,-0.3599999994045,0.07499885559114505,-0.015999998897649984,0.02649999782440001,-0.0045000016688999805
13,47.1160913333,4712.5,1521544460.0,826682448.0,,2900536.5,1521544459.0,912189119.0,,0.7437008673165,-0.08120818284334999,0.02317948178085,-0.285436512812,0.9572260186139999,-0.0025862351939050002,0.04730245830355,0.021876896837749998,-0.013496384148950002,-0.08041689100010001,-0.007504847308770001,0.04363802601030001,0.0416041559216,4.207711100575,1.732314169405,4.069158434865,-0.2049242928625,1.6440719366049998,0.43484263122050004,2024094.5,1521544459.0,923644362.0,,,,,,2404695.5,1521544460.0,820141008.5,,-1.1140000104925,-0.22899999730295004,-2.072999572755,-0.10249999910595,-0.07250000163914999,-0.05849999934435,32.0,34.0,35.5,41.0,69.0,-106.0,-105.0,-104.0,-90.5,-85.0,4.0,-2.3049999475475,-0.5949999988079501,-1.8399982452405002,0.005499999970550007,-0.017000000923899992,0.015000000596049994
14,47.218655435900004,4721.5,1521544460.0,916464924.0,,2900545.0,1521544459.5,497189283.0,,0.7458222784649999,-0.08259939107269999,0.018288498764799998,-0.2846630266495,0.9575402198645,-0.002957017716225,0.04555147580585,0.04465121455585,-0.0213273771929,-0.0547005131221,-0.017854002997549998,-0.002569957582549999,-0.04188406279205,6.6202175617200005,2.916304945945,1.87016636133,-0.6603442430494999,2.161692976955,0.412942931056,1147302.0,1521544459.0,999000064.0,,,,,,2404704.5,1521544460.0,910004172.0,,1.17099995613,0.61599999778,0.1919998168946,-0.1075000017885,-0.06950000301005001,-0.08650000020860002,30.0,30.0,36.0,42.0,82.0,-89.5,-85.0,-82.0,-80.0,-79.0,4.0,2.2849999666225003,0.8449999950829501,2.2649993896496,-0.005000002682550006,0.002999998629099984,-0.028000000864250023
15,47.3212195385,4729.5,1521544460.5,496806502.0,,2900554.0,1521544460.0,87189951.5,,0.7500766709700001,-0.08239327122380001,0.014825703222549997,-0.28483742270350004,0.9574113955365001,-0.00376116889208,0.047083526795650005,0.0370947239094,-0.016722820654749997,-0.043713977841600006,-0.01440208710585,-0.01121634879566,0.006623854347175,3.3246476650200005,1.647743582725,3.576600551605,-0.21240889281,1.290762603285,0.4211490750315,1147305.0,1521544460.0,83000064.0,,,,,,2404712.5,1521544460.0,990145495.5,,0.4160000801085,0.2410000015048,-3.4930015563950003,-0.08300000056625001,-0.036000000312949997,-0.09650000184775,21.5,23.0,28.0,39.0,59.0,-57.5,-55.0,-51.5,-47.5,-41.0,4.0,-0.7549998760215,-0.37499999627520003,-3.6850013732896003,0.02450000122224999,0.03350000269710001,-0.010000001639149977
16,47.42378364100001,4741.5,1521544461.0,116287469.5,,2900565.0,1521544460.0,197192046.0,,0.746912105494,-0.0892327332644,0.0104252025839,-0.290995484495,0.955832242681,-0.0091075959323,0.0402914823718,-0.149326947996,-0.28164659651900004,-0.035642854256800006,-0.6691773526739999,0.382673793581,0.554417434766,7.6504201889,3.66540026665,-0.0671173334122,0.489752709866,1.08267724514,0.3781059682370001,2900918.0,1521544460.0,195283816.0,,,,,,2404724.5,1521544461.0,110393349.5,,0.48100001812,7.781000067664999,0.8119987487800001,0.22750001400704994,0.07750000059619999,-0.046999999322,125.0,129.5,133.0,144.5,152.0,-9.5,-6.5,-1.0,3.5,11.0,4.0,0.0649999380115,7.540000066160198,4.3050003051750005,0.31050001457329995,0.11350000090915,0.04950000252575
17,47.5263477436,4752.5,1521544461.0,226740002.5,,2900579.5,1521544460.0,342188734.5,,0.7386453486360001,-0.11009011809949999,-0.000852626808464,-0.2778413609575,0.960101556954,-0.0158681446376,0.02750651570675,0.037985140540050005,-0.02384305743696,-0.06633357364165,0.19828594948800002,-0.03641730463955001,-0.141395693659,3.21987771988,7.461339235305001,4.7374048232999995,-1.73326945305,-0.09029665589299997,0.17426151037249998,2900932.0,1521544460.0,335307648.5,,,,,,2404735.5,1521544461.0,220324305.0,,-0.374000000954,3.800999929385,-0.32800064086900005,-0.442000001669,-0.038999999058455,-0.13299999758599998,119.5,120.5,126.0,142.5,149.5,-101.5,-99.0,-91.0,-36.0,-28.0,4.0,-0.8550000190739999,-3.9800001382799985,-1.1399993896490002,-0.66950001567605,-0.11649999965465499,-0.08599999826399998
18,47.6289118462,4761.5,1521544461.0,316389441.0,,2900588.5,1521544460.0,432189262.5,,0.7457079558770001,-0.10431508296900001,-0.004020350250315,-0.2723843602135,0.961292203935,-0.00587019522627,0.041095977686699994,0.088172048236,0.0574367098276,-0.0129892399949,0.1819014670995,-0.28734879627500004,-0.12603305721674998,2.4060866832750003,6.637846231459999,5.793893575669999,-2.3446489572500004,0.6798609793185,-0.005655664950599999,2900941.5,1521544460.0,430273208.0,,,,,,2404744.5,1521544461.0,310202012.5,,1.1160001277945,2.815999974685,1.6220001220700002,-0.190499998629,-0.06949999928475001,-0.0810000002384,89.5,100.0,104.5,113.0,120.0,-97.0,-87.0,-85.0,-65.0,-42.0,4.0,1.4900001287485,-0.9849999547000001,1.9500007629390002,0.25150000304,-0.03050000022629501,0.05199999734759998
19,47.7314759487,4774.5,1521544461.0,446456074.5,,2900601.0,1521544460.0,557189305.0,,0.747210623827,-0.0981516048715,-0.00424515197984,-0.278953884351,0.95899060471,-0.00897693910812,0.0494081475903,-0.0371897036185,0.060062272494,-0.00404628691353,-0.0118758399277,-0.00507750302481,0.064307155637,-0.8875258564949999,0.7071604728700001,4.91167068481,0.768960654736,0.247174859047,0.526727378368,1147324.0,1521544460.0,555000064.0,,,,,,2404757.5,1521544461.0,440054639.5,,0.1210000038146,-0.7890000443904999,-1.7230010986299995,-0.09649999812245,-0.0400000009686,-0.07800000160935,96.0,96.5,97.0,100.5,120.0,-192.5,-183.0,-171.5,-165.5,-158.5,4.0,-0.9950001239799,-3.6050000190755,-3.3450012206999995,0.09400000050655,0.02949999831615001,0.0029999986290499964
20,47.8340400513,4783.5,1521544461.0,536552547.5,,2900609.5,1521544460.0,642193685.5,,0.7410569366005001,-0.0926423306561,-0.005306625952680001,-0.279813649392,0.958916576236,-0.0061313563621899995,0.0463208082123,-0.07410935069605001,0.09076856463545,-0.023547319185450003,0.0982606359267,0.102540522071,0.0004782352800050006,5.633007526395001,2.02657186985,4.456894159315,0.02455645799599998,2.153017163275,0.375800102949,2024145.5,1521544460.0,650148165.0,,,,,,2404766.5,1521544461.0,531310789.5,,0.15600008964530002,1.3560000259399998,0.841999435427,-0.0775000005961,-0.07550000026824999,-0.09899999946335,30.0,33.0,37.5,42.5,50.0,-102.0,-96.5,-92.5,-88.0,-73.0,4.0,0.03500008583070002,2.1450000703304997,2.5650005340569995,0.018999997526349996,-0.03549999929964999,-0.020999997854000002
21,47.9366041538,4792.5,1521544461.0,626456499.0,,2900618.0,1521544460.0,727189431.0,,0.7383032082269999,-0.08593839762620001,-0.00685451696875,-0.281572706096,0.958468039472,-0.00268907736515,0.0452614334301,0.000613594906798,0.0620505744212,-0.0242455363525,0.00833760635456,-0.07014334685910001,0.14593862681199998,4.21688652039,0.922233998775,5.69644021988,-0.224419474602,1.59685385227,0.254861533642,2024150.0,1521544460.0,722123040.0,,,,,,2404775.5,1521544461.0,622026172.5,,-0.7789999723434999,0.7160000104459999,-0.23300132751460004,-0.07449999824180001,-0.05250000022355,-0.10499999672164999,8.5,9.5,12.0,14.5,23.0,-157.0,-155.5,-146.5,-139.0,-137.0,4.0,-0.9350000619887999,-0.6400000154939999,-1.0750007629416,0.0030000023542999937,0.023000000044699986,-0.0059999972582999855
22,48.0391682564,4803.5,1521544461.0,737976908.5,,2900627.0,1521544460.0,816803822.0,,0.739393399866,-0.0836480276084,-0.00759383765417,-0.28657572195000003,0.956893362762,-0.00539467363533,0.046907839284,-0.00556568675479,-0.00441589553648,-0.0096890628955,-0.0590590599271,-0.0198155189905,0.0635533025567,1.7171852588699998,0.0607081800699,6.6716275215100005,0.495982587337,1.1258084774,0.475624710321,2024157.5,1521544460.0,827449520.5,,,,,,2404786.5,1521544461.0,732240901.5,,-1.6989999294249998,1.0910000253465,-1.7529998779300002,-0.08150000125170001,-0.07700000330805,-0.1055000014605,-5.0,-3.5,7.0,26.0,30.0,-147.5,-145.5,-140.0,-122.0,-122.0,4.0,-0.9199999570814998,0.37500001490050006,-1.5199985504154,-0.007000003009900002,-0.024500003084499997,-0.0005000047388500073
23,48.141732358999995,4813.5,1521544461.0,836285590.5,,2900638.0,1521544460.0,926815803.0,,0.7379727556,-0.08279672292510001,-0.0075197629661,-0.287857141267,0.956574001102,-0.005767541686979999,0.0455102417126,0.00310095494472,0.0109729301371,0.0106442149069,0.004543525553939999,-0.013099876256,0.0104875470803,3.18471312523,0.313754230738,5.13873624802,0.5860875844960001,1.24750781059,0.5442672967909999,2900990.0,1521544460.0,914852193.5,,,,,,2404796.5,1521544461.0,831709418.5,,0.6060001373289999,-0.5140000086275001,0.5669979095459999,-0.082499999553,-0.08599999919535001,-0.08699999749665,-13.0,-9.5,-6.5,-1.5,1.0,-136.0,-132.0,-131.0,-127.0,-124.0,4.0,2.305000066754,-1.605000033974,2.3199977874760003,-0.000999998301299987,-0.008999995887300008,0.01850000396385
24,48.2442964615,4824.5,1521544461.0,946429014.0,,2900648.0,1521544461.0,26799765.0,,0.739370982292,-0.08225812515599999,-0.00730361050715,-0.287773917849,0.956522366793,-0.00576541633557,0.0470945220366,0.00173724357326,-0.0180773759269,0.000610783090556,-0.00958144081308,0.006312725840609999,-0.0316786793157,0.457813739777,-0.242572307587,5.7874379158,0.6685283780100001,0.459806203842,0.470402777195,2901001.5,1521544461.0,29898215.0,,,,,,2404807.5,1521544461.0,940915612.5,,0.13600010871899998,0.8259999949485,-1.398000335695,-0.09349999949335001,-0.06449999846519999,-0.10049999877825,-11.0,-9.0,-9.0,-1.0,6.5,-134.5,-129.5,-126.0,-123.0,-121.0,4.0,-0.47000002860999995,1.340000003576,-1.964998245241,-0.010999999940350016,0.021500000730150015,-0.013500001281600005
25,48.3468605641,4835.5,1521544462.0,56460499.0,,2900659.0,1521544461.0,136795441.0,,0.738707689718,-0.08488859457669999,-0.0077763215293900016,-0.28648772278,0.956972747667,-0.0060634254294,0.0457294193135,0.0130884561471,-0.035734369487099994,0.00694216373387,-0.0032952599868000003,-0.0071824301591199985,-0.0507839037991,2.66200971603,0.286321818829,5.20221424103,0.651741921902,1.14500665665,0.5172753930089999,1147347.0,1521544461.0,142000128.0,,,,,,2404818.5,1521544462.0,50842227.0,,-1.7639998674400004,-1.0189999740549998,0.19700088500950005,-0.08999999985095,-0.06949999928475001,-0.0949999988081,-19.0,-16.5,-15.0,-12.0,-8.5,-132.0,-129.5,-126.5,-124.0,-118.0,4.0,-1.8999999761590003,-1.8449999690034997,1.5950012207045,0.003499999642400012,-0.005000000819550016,0.0054999999701499935
26,48.449424666700004,4845.5,1521544462.0,156273007.0,,2900669.0,1521544461.0,236795910.5,,0.7397169466814999,-0.08599156409290001,-0.007876887893905001,-0.2852268395545,0.957317512123,-0.005704657768035,0.04643537270075,0.005983140209915,-0.0215882601378,0.0027442988036949995,0.0015194788515150005,-0.006387259496199999,-0.03241479185155,1.567691087725,-0.005496427417000002,5.652115345,0.587138980627,0.828888773918,0.485584259033,2024187.0,1521544461.0,243929508.0,,,,,,2404828.5,1521544462.0,152287653.5,,-0.9289999485029999,0.0610000148415,-0.047999954223650006,-0.10300000011949999,-0.0760000012815,-0.08599999919535001,-23.5,-21.0,-19.0,0.0,46.0,-158.0,-153.0,-143.0,-137.0,-132.5,4.0,0.8349999189370004,1.0799999888964997,-0.24500083923315005,-0.013000000268549985,-0.006500001996749993,0.008999999612749998
27,48.5519887692,4853.5,1521544462.0,236281513.5,,2900680.0,1521544461.0,346799863.0,,0.740394356507,-0.0883971344448,-0.007233921295970002,-0.28388454373000005,0.957712009989,-0.00608068295295,0.0464789957881,-0.00303163009784,-0.00305766427102,0.00863592779363,0.00237548415148,0.006836574729520001,0.019428596159,2.1282324791,1.58142435551,4.8255505561800005,-0.08837565779689999,0.8115392923360001,0.34257364273100005,1147355.0,1521544461.0,344000000.0,,,,,,2404836.5,1521544462.0,232281921.0,,0.20600004196199997,0.45100000612450003,0.23200073242199998,-0.09950000047695,-0.07750000059605,-0.105000000447,-20.0,-17.0,-12.5,-9.0,5.0,-155.0,-151.0,-141.0,-137.5,-127.0,4.0,1.1349999904649999,0.389999991283,0.28000068664565,0.003499999642549989,-0.001499999314549999,-0.019000001251649995
28,48.6545528718,4865.5,1521544462.0,356729030.0,,2900692.5,1521544461.0,471798625.0,,0.7407481169519999,-0.09009953170505,-0.0077684287506,-0.2827321143945,0.9580620512625,-0.006267402272075001,0.04626178356095,-0.001009852749061,-0.00553489709821,0.0011692317913600007,-0.006954685419904999,0.0005213353589350002,-0.0066804967050150005,1.4917603731150002,0.794610440731,5.511351346970001,0.315753534436,0.7663445174695,0.4203453361985,2901045.0,1521544461.0,464882735.0,,,,,,2404848.5,1521544462.0,351468195.0,,0.15099985599500002,-0.08400000147535,-0.5829998016354999,-0.1019999980925,-0.06749999895695,-0.08650000020859999,-21.5,-18.5,-16.0,-14.0,-12.0,-122.0,-118.0,-116.0,-112.0,-108.5,4.0,-0.05500018596699996,-0.53500000759985,-0.8150005340575,-0.0024999976155500037,0.010000001639100004,0.01850000023840001
29,48.7571169744,4876.5,1521544462.0,466275930.0,,2900703.5,1521544461.0,581797045.5,,0.740539202228,-0.0897718564243,-0.00766566115279,-0.282701059014,0.958073909539,-0.006170262484150001,0.04621992103965,-0.0065714620848695005,0.002314048759965,-0.00442205781104,0.008299812158984999,0.006680935421249997,0.013215311355355,1.9865217804900002,0.5479393601420001,5.521633386615,0.4839420318605,0.9379995763304999,0.464941620827,2901056.0,1521544461.0,574880882.0,,,,,,2404859.5,1521544462.0,461563791.0,,0.1560000896455,-1.23400003724,0.206999206543,-0.09750000014905,-0.07800000160935,-0.08599999919535,-27.0,-17.5,-14.5,-7.0,2.0,-98.0,-95.0,-92.0,-91.0,-82.5,4.0,0.00500023365049998,-1.15000003576465,0.7899990081784999,0.004499997943450004,-0.010500002652400003,0.0005000010132499982
30,48.859681076899996,4885.5,1521544462.0,559817552.0,,2900712.0,1521544461.0,666800372.0,,0.7409093244764999,-0.0892740952068,-0.007387988437425001,-0.2825799876995,0.9580860350139999,-0.005894464427025001,0.046740923137650006,0.00018487746449999919,-0.00932286418944,0.0008746450650399997,-0.01292860454365,-0.0003614863478999981,0.003456850140120001,1.6658415198299998,0.4609099030495,5.566605806355,0.431091964245,0.8538608551025,0.4544357061385,2024217.0,1521544461.0,669930080.5,,,,,,2404869.0,1521544462.0,557154506.0,,-0.353999900818,0.0010000068694500095,0.0019992828368999987,-0.09799999743715003,-0.07049999758605001,-0.11499999836100001,-28.5,-27.5,-25.5,-24.5,-11.0,-106.0,-102.5,-97.5,-87.5,-73.5,-1.0,-0.5099999904635,1.23500004410945,-0.20499992370609998,-0.000499997288100032,0.0075000040232999915,-0.02899999916565002
31,48.962245179499995,4895.5,1521544462.0,656316995.5,,2900719.0,1521544461.0,736808765.5,,0.7407539851215,-0.08939101602260001,-0.0074285509562050005,-0.2829793643365,0.9579814710355,-0.006070754200450001,0.0464465730958,0.00031605893768500015,-0.01345281408768,-0.00030376288301299986,-0.013485161891910001,0.002129888287875,-0.011649739141039998,1.97878623009,0.6656520962715,5.354885816575,0.427163809538,0.9374196529385002,0.467230454087,1147371.0,1521544461.0,748999936.0,,,,,,2404878.5,1521544462.0,651074882.5,,-0.7039999246595,0.13099999465055,-0.013000106811500002,-0.09750000014900001,-0.0769999995828,-0.1134999990465,-28.0,-20.5,-20.0,10.0,52.5,-111.5,-109.0,-108.5,-105.5,-101.0,-1.0,-0.35000002384150003,0.1299999877811,-0.0149993896484,0.0004999972881500198,-0.006500001996749993,0.0014999993145000112
32,49.0648092821,4903.5,1521544462.0,736262440.0,,2900727.0,1521544461.0,816810181.0,,0.740556199513,-0.08999792315410003,-0.00764573047412,-0.282406465955,0.958168601761,-0.00616001973997,0.0460605334686,0.0143867462625,0.00505492316548,0.0140120308088,0.00268022253242,-0.0317058257028,0.00774238709562,1.6696810722400002,0.449352413416,5.5043888092,0.510490059853,0.8342471122740001,0.481033146381,2024227.5,1521544461.0,820070049.0,,,,,,2404886.5,1521544462.0,732625699.5,,-1.39899997711,-0.36900001280028,-0.308002090454,-0.09600000083444997,-0.07099999859930001,-0.08599999919535,-30.5,-29.5,-27.0,-24.5,8.0,-136.0,-133.0,-127.0,-123.0,-116.5,-1.0,-0.6950000524504999,-0.50000000745083,-0.2950019836425,0.0014999993145500407,0.006000000983499995,0.02749999985115001
33,49.1673733846,4917.5,1521544462.0,876338004.5,,2900741.0,1521544461.0,957059002.0,,0.740207488468,-0.08998876168889999,-0.0079199886065,-0.282414287553,0.95818193449,-0.005955270364729999,0.045761177410000006,-0.00202878747102,0.014475326881299997,0.00423423046669,0.00167917193352,-0.007453280015689998,0.0324763668376,2.3431994915,0.622779488564,5.367671489719998,0.434894979,1.0803587436700002,0.476502716541,2024237.5,1521544461.0,966575889.5,,,,,,2404900.5,1521544462.0,873135686.5,,-0.7789999723434999,-0.4740000169725001,0.277000808716,-0.1009999997915,-0.07550000026824999,-0.09699999913589999,-31.0,-30.0,-29.0,-27.0,-26.0,-110.0,-105.0,-96.5,-93.0,-85.5,-1.0,0.6200000047665,-0.10500000417222011,0.58500289917,-0.004999998957050028,-0.004500001668949982,-0.010999999940549995
34,49.2699374872,4926.5,1521544462.0,966302036.5,,2900750.5,1521544462.0,52065148.5,,0.740539394504,-0.08939009168789999,-0.00756757444326,-0.2829287829435,0.9579985282095,-0.00600299636673,0.046407425183800005,0.0002442924376699993,-0.003648766378685,-0.00544846250645,0.0029353819108050012,0.00176621875105,-0.0151771692132,1.6413248181350002,0.3194331228735,5.679781436919999,0.560051769018,0.8976057469845,0.4969450235365001,2024243.5,1521544462.0,57060534.5,,,,,,2404909.5,1521544462.0,963674873.0,,-0.45399992466000005,-0.713999996707,-1.88800010681,-0.08599999919535001,-0.06500000134110001,-0.0949999988079,-33.0,-31.5,-28.5,-23.0,-16.0,-114.5,-109.0,-103.0,-92.0,-90.0,-1.0,0.3250000476834999,-0.23999997973449988,-2.165000915526,0.01500000059614999,0.010499998927149978,0.00200000032799999
35,49.3725015897,4935.5,1521544463.0,56274413.5,,2900760.0,1521544462.0,147063879.0,,0.7406497883200001,-0.0908273697337,-0.007880295187,-0.282172916789,0.958237758775,-0.00653187970698,0.0460019264397,0.000919019650786,-0.0116663455339,-0.00908049966209,0.00237138213833,0.0136789605768,-0.0232813427381,1.89933514595,0.413877338171,5.51651191711,0.567858219147,0.898243606091,0.486366808414,2024250.0,1521544462.0,149082380.5,,,,,,2404918.5,1521544463.0,53403286.0,,-0.633999991417,-0.903999994323,0.287001037598,-0.1000000014903,-0.0790000036359,-0.08700000122189999,-20.0,-18.5,-15.0,21.0,31.0,-125.5,-117.5,-108.5,-107.0,-97.5,-1.0,-0.18000006675699998,-0.18999999761600006,2.175001144408,-0.014000002294949992,-0.014000002294799987,0.007999997586000007
36,49.47506569229999,4946.5,1521544463.0,166345476.5,,2900771.0,1521544462.0,257061095.5,,0.7410400469645,-0.09010850672520003,-0.007187893745129998,-0.2825659880175,0.9580906193775,-0.006464506029545,0.046657286189550014,-0.003699643730335,0.0024470314335500003,-0.00594154783036,0.00182131530475,0.005810566257329999,0.005913293289135001,1.50248593092,0.229137033224,5.73498392105,0.6025539636615,0.833201229572,0.4890130609269999,2901124.0,1521544462.0,255143018.5,,,,,,2404929.5,1521544463.0,163523248.0,,-1.0789999246575,-0.5289999943225,-2.0580001831050003,-0.082000002265,-0.05949999950825,-0.0944999977946,-31.5,-30.0,-27.0,-20.5,-15.0,-114.0,-113.0,-104.0,-103.0,-93.0,-1.0,-0.4449999332404999,0.37500000000050004,-2.345001220703,0.017999999225300004,0.019500004127649996,-0.007499996572700007
37,49.5776297949,4955.5,1521544463.0,257762074.0,,2900782.5,1521544462.0,372064829.5,,0.7407559598704999,-0.09002948502225,-0.0072865757846999986,-0.282463934076,0.9581376740475,-0.0062027676781800005,0.046344325610100004,-0.0018439558919499995,0.0034529967488161,0.003991991805415001,0.0008774243003800003,-0.0042429316554500026,0.006593817563225001,1.715072631835,0.253003768623,5.762085676195,0.6431764066219999,0.8856486380099999,0.5047154426575,2024265.0,1521544462.0,364567809.5,,,,,,2404938.5,1521544463.0,254829419.0,,-1.76399998665,-0.4890000324695,-0.047999954223500035,-0.0945000015198,-0.0699999984354,-0.109499998391,-30.0,-28.0,-28.0,-27.0,-23.0,-171.5,-161.0,-149.0,-148.0,-117.0,-1.0,-0.6850000619925001,0.03999996185299998,2.0100002288815,-0.012499999254799998,-0.010499998927149999,-0.015000000596399998
38,49.680193897399995,4967.5,1521544463.0,376253485.5,,2900794.5,1521544462.0,492070583.5,,0.7406864752340001,-0.0905079416439,-0.007724272066859998,-0.282545539248,0.9581237145424999,-0.006439519254760001,0.04610232234165,-0.007682882887744998,0.0006499497332399999,-0.00634990078812,-0.005357327508470001,0.014755541703629999,0.008825828498810001,1.44401913881,0.3536887019875,5.763302326204999,0.5450210869315,0.776696652174,0.47987376153449995,2901147.0,1521544462.0,485147025.0,,,,,,2404950.5,1521544463.0,373324841.5,,0.05100007057205,-1.3989999990900002,0.181999588012855,-0.09850000217575,-0.07449999824165,-0.0905000008643,-29.0,-27.0,-26.0,-19.0,57.0,-123.5,-119.5,-118.5,-112.5,-107.0,-1.0,1.81500005722205,-0.9099999666205001,0.22999954223635505,-0.004000000655950006,-0.004499999806250002,0.018999997526699994
39,49.782758,4977.5,1521544463.0,476925492.0,,2900804.5,1521544462.0,592064353.0,,0.740785594385,-0.08995838685999999,-0.007459552959190001,-0.2827877983795,0.95803810838,-0.006396649230475001,0.046400378601000006,0.005393290457930001,0.00102735043404,0.00467193737692,0.0053746963647050006,-0.0071331281315799985,-0.009980181032484995,1.5700102448450002,0.10909268260005,5.800457477569999,0.6817997395995001,0.8361766636374999,0.49570980668049996,2901157.0,1521544462.0,585161428.0,,,,,,2404960.5,1521544463.0,473270909.0,,-0.273999977112,-0.9890000324705001,0.2269996643065,-0.0929999984801,-0.07099999859930001,-0.08449999988080001,-29.0,-23.5,-22.0,-19.0,24.0,-97.5,-94.0,-90.5,-87.5,-85.0,-1.0,-0.32500004768405,0.4099999666195001,0.045000076293645,0.005500003695649999,0.0034999996423499963,0.006000000983499995
